$GPRMC,125441.00,A,4928.05188,N,01105.08352,E,0.169,,260311,,,A*74
$GPVTG,,T,,M,0.169,N,0.313,K,A*2C
$GPGGA,125441.00,4928.05188,N,01105.08352,E,1,03,2.81,349.7,M,47.0,M,,*53
$G
$GPRMC,125449.00,A,4928.05209,N,01105.07684,E,3.153,252.34,260311,,,A*61
$GPVTG,252.34,T,,M,3.153,N,5.840,K,A*32
$GPGGA,125449.00,4928.05209,N,01105.07684,E,1,03,2.82,349.7,M,47.0,M,,*53
$GPRMC,125450.00,A,4928.05204,N,01105.07576,E,2.242,,260311,,,A*74
$GPVTG,,T,,M,2.242,N,4.152,K,A*27
$GPGGA,125450.00,4928.05204,N,01105.07576,E,1,03,2.82,349.7,M,47.0,M,,*58
$GPRMC,125451.00,A,4928.05203,N,01105.07458,E,2.746,,260311,,,A*7E
$GPVTG,,T,,M,2.746,N,5.086,K,A*2F
$GPGGA,125451.00,4928.05203,N,01105.07458,E,1,03,2.82,349.7,M,47.0,M,,*53
$GPRMC,125452.00,A,4928.05228,N,01105.07365,E,2.712,,260311,,,A*7C
$GPVTG,,T,,M,2.712,N,5.022,K,A*20
$GPGGA,125452.00,4928.05228,N,01105.07365,E,1,03,2.82,349.8,M,47.0,M,,*5F
$GPRMC,125453.00,A,4928.05243,N,01105.07263,E,2.802,,260311,,,A*79
$GPVTG,,T,,M,2.802,N,5.189,K,A*2E
$GPGGA,125453.00,4928.05243,N,01105.07263,E,1,03,2.82,349.8,M,47.0,M,,*54
$GPRMC,125454.00,A,4928.05239,N,01105.07155,E,2.342,,260311,,,A*7A
$GPVTG,,T,,M,2.342,N,4.337,K,A*27
$GPGGA,125454.00,4928.05239,N,01105.07155,E,1,03,2.82,349.8,M,47.0,M,,*58
$GPRMC,125455.00,A,4928.05239,N,01105.07055,E,2.311,,260311,,,A*7C
$GPVTG,,T,,M,2.311,N,4.280,K,A*2C
$GPGGA,125455.00,4928.05239,N,01105.07055,E,1,03,2.82,349.9,M,47.0,M,,*59
$GPRMC,125456.00,A,4928.05257,N,01105.07014,E,1.151,,260311,,,A*77
$GPVTG,,T,,M,1.151,N,2.131,K,A*26
$GPGGA,125456.00,4928.05257,N,01105.07014,E,1,03,2.82,349.9,M,47.0,M,,*57
$GPRMC,125457.00,A,4928.05267,N,01105.06954,E,1.114,,260311,,,A*78
$GPVTG,,T,,M,1.114,N,2.063,K,A*21
$GPGGA,125457.00,4928.05267,N,01105.06954,E,1,03,2.82,349.9,M,47.0,M,,*59
$GPRMC,125458.00,A,4928.05265,N,01105.06815,E,3.299,,260311,,,A*75
$GPVTG,,T,,M,3.299,N,6.110,K,A*24
$GPGGA,125458.00,4928.05265,N,01105.06815,E,1,03,2.82,349.9,M,47.0,M,,*50
$GPRMC,125459.00,A,4928.05280,N,01105.06685,E,2.151,,260311,,,A*7E
$GPVTG,,T,,M,2.151,N,3.984,K,A*22
$GPGGA,125459.00,4928.05280,N,01105.06685,E,1,03,2.82,349.9,M,47.0,M,,*5D
$GPRMC,125500.00,A,4928.05279,N,01105.06555,E,2.358,,260311,,,A*70
$GPVTG,,T,,M,2.358,N,4.367,K,A*29
$GPGGA,125500.00,4928.05279,N,01105.06555,E,1,03,2.82,350.0,M,47.0,M,,*59
$GPRMC,125501.00,A,4928.05266,N,01105.06460,E,1.895,,260311,,,A*71
$GPVTG,,T,,M,1.895,N,3.509,K,A*29
$GPGGA,125501.00,4928.05266,N,01105.06460,E,1,03,2.82,349.9,M,47.0,M,,*50
$GPRMC,125502.00,A,4928.05240,N,01105.06356,E,2.482,,260311,,,A*7D
$GPVTG,,T,,M,2.482,N,4.597,K,A*20
$GPGGA,125502.00,4928.05240,N,01105.06356,E,1,03,2.82,349.9,M,47.0,M,,*55
$GPRMC,125503.00,A,4928.05216,N,01105.06265,E,2.309,,260311,,,A*7A
$GPVTG,,T,,M,2.309,N,4.277,K,A*2D
$GPGGA,125503.00,4928.05216,N,01105.06265,E,1,03,2.82,350.0,M,47.0,M,,*57
$GPRMC,125504.00,A,4928.05321,N,01105.05866,E,1.131,,260311,,,A*78
$GPVTG,,T,,M,1.131,N,2.094,K,A*2E
$GPGGA,125504.00,4928.05321,N,01105.05866,E,1,04,2.41,305.1,M,47.0,M,,*56
$GPRMC,125505.00,A,4928.05307,N,01105.05806,E,2.082,,260311,,,A*71
$GPVTG,,T,,M,2.082,N,3.856,K,A*23
$GPGGA,125505.00,4928.05307,N,01105.05806,E,1,04,2.41,305.9,M,47.0,M,,*5D
$GPRMC,125506.00,A,4928.05294,N,01105.05733,E,1.783,,260311,,,A*75
$GPVTG,,T,,M,1.783,N,3.302,K,A*2C
$GPGGA,125506.00,4928.05294,N,01105.05733,E,1,04,2.41,306.1,M,47.0,M,,*57
$GPRMC,125507.00,A,4928.05292,N,01105.05619,E,2.805,,260311,,,A*79
$GPVTG,,T,,M,2.805,N,5.194,K,A*25
$GPGGA,125507.00,4928.05292,N,01105.05619,E,1,04,2.41,306.0,M,47.0,M,,*58
$GPRMC,125508.00,A,4928.05269,N,01105.05487,E,1.791,,260311,,,A*76
$GPVTG,,T,,M,1.791,N,3.317,K,A*2B
$GPGGA,125508.00,4928.05269,N,01105.05487,E,1,04,2.41,306.1,M,47.0,M,,*57
$GPRMC,125509.00,A,4928.05267,N,01105.05382,E,2.483,,260311,,,A*78
$GPVTG,,T,,M,2.483,N,4.598,K,A*2E
$GPGGA,125509.00,4928.05267,N,01105.05382,E,1,04,2.41,305.8,M,47.0,M,,*50
$GPRMC,125510.00,A,4928.05278,N,01105.05277,E,1.589,,260311,,,A*7D
$GPVTG,,T,,M,1.589,N,2.943,K,A*2A
$GPGGA,125510.00,4928.05278,N,01105.05277,E,1,04,2.41,305.7,M,47.0,M,,*52
$GPRMC,125511.00,A,4928.05330,N,01105.05218,E,1.856,,260311,,,A*77
$GPVTG,,T,,M,1.856,N,3.438,K,A*25
$GPGGA,125511.00,4928.05330,N,01105.05218,E,1,04,2.41,306.1,M,47.0,M,,*52
$GPRMC,125512.00,A,4928.05402,N,01105.05202,E,2.379,315.73,260311,,,A*61
$GPVTG,315.73,T,,M,2.379,N,4.406,K,A*37
$GPGGA,125512.00,4928.05402,N,01105.05202,E,1,04,2.41,306.1,M,47.0,M,,*5C
$GPRMC,125513.00,A,4928.05463,N,01105.05235,E,1.725,,260311,,,A*70
$GPVTG,,T,,M,1.725,N,3.195,K,A*2C
$GPGGA,125513.00,4928.05463,N,01105.05235,E,1,04,2.41,306.1,M,47.0,M,,*5E
$GPRMC,125514.00,A,4928.05507,N,01105.05280,E,1.714,,260311,,,A*78
$GPVTG,,T,,M,1.714,N,3.174,K,A*21
$GPGGA,125514.00,4928.05507,N,01105.05280,E,1,04,2.41,306.0,M,47.0,M,,*55
$GPRMC,125515.00,A,4928.05567,N,01105.05330,E,2.641,335.12,260311,,,A*6F
$GPVTG,335.12,T,,M,2.641,N,4.891,K,A*3E
$GPGGA,125515.00,4928.05567,N,01105.05330,E,1,04,2.41,305.7,M,47.0,M,,*5C
$GPRMC,125516.00,A,4928.05604,N,01105.05386,E,1.362,,260311,,,A*78
$GPVTG,,T,,M,1.362,N,2.522,K,A*22
$GPGGA,125516.00,4928.05604,N,01105.05386,E,1,04,2.41,305.6,M,47.0,M,,*55
$GPRMC,125517.00,A,4928.05617,N,01105.05474,E,1.919,,260311,,,A*77
$GPVTG,,T,,M,1.919,N,3.553,K,A*23
$GPGGA,125517.00,4928.05617,N,01105.05474,E,1,04,2.41,305.4,M,47.0,M,,*5E
$GPRMC,125518.00,A,4928.05624,N,01105.05548,E,1.028,,260311,,,A*7D
$GPVTG,,T,,M,1.028,N,1.904,K,A*24
$GPGGA,125518.00,4928.05624,N,01105.05548,E,1,04,2.41,305.4,M,47.0,M,,*5F
$GPRMC,125519.00,A,4928.05605,N,01105.05621,E,1.825,,260311,,,A*76
$GPVTG,,T,,M,1.825,N,3.379,K,A*23
$GPGGA,125519.00,4928.05605,N,01105.05621,E,1,04,2.42,305.3,M,47.0,M,,*55
$GPRMC,125520.00,A,4928.05591,N,01105.05648,E,0.263,,260311,,,A*74
$GPVTG,,T,,M,0.263,N,0.487,K,A*2F
$GPGGA,125520.00,4928.05591,N,01105.05648,E,1,04,2.42,305.2,M,47.0,M,,*5F
$GPRMC,125521.00,A,4928.05589,N,01105.05652,E,0.289,,260311,,,A*73
$GPVTG,,T,,M,0.289,N,0.536,K,A*20
$GPGGA,125521.00,4928.05589,N,01105.05652,E,1,04,2.42,305.2,M,47.0,M,,*5C
$GPRMC,125522.00,A,4928.05576,N,01105.05630,E,0.135,,260311,,,A*70
$GPVTG,,T,,M,0.135,N,0.251,K,A*22
$GPGGA,125522.00,4928.05576,N,01105.05630,E,1,03,2.83,307.5,M,47.0,M,,*54
$GPRMC,125523.00,A,4928.05559,N,01105.05616,E,0.281,,260311,,,A*74
$GPVTG,,T,,M,0.281,N,0.520,K,A*2F
$GPGGA,125523.00,4928.05559,N,01105.05616,E,1,03,2.83,309.5,M,47.0,M,,*52
$GPRMC,125524.00,A,4928.05539,N,01105.05549,E,1.340,,260311,,,A*71
$GPVTG,,T,,M,1.340,N,2.482,K,A*29
$GPGGA,125524.00,4928.05539,N,01105.05549,E,1,04,2.42,309.9,M,47.0,M,,*5C
$GPRMC,125525.00,A,4928.05502,N,01105.05500,E,2.530,,260311,,,A*77
$GPVTG,,T,,M,2.530,N,4.685,K,A*28
$GPGGA,125525.00,4928.05502,N,01105.05500,E,1,04,2.42,309.6,M,47.0,M,,*57
$GPRMC,125526.00,A,4928.05447,N,01105.05447,E,2.450,,260311,,,A*71
$GPVTG,,T,,M,2.450,N,4.538,K,A*2A
$GPGGA,125526.00,4928.05447,N,01105.05447,E,1,04,2.42,309.4,M,47.0,M,,*54
$GPRMC,125527.00,A,4928.05404,N,01105.05358,E,2.023,,260311,,,A*7E
$GPVTG,,T,,M,2.023,N,3.746,K,A*26
$GPGGA,125527.00,4928.05404,N,01105.05358,E,1,04,2.42,309.1,M,47.0,M,,*5E
$GPRMC,125528.00,A,4928.05411,N,01105.05330,E,1.134,,260311,,,A*7F
$GPVTG,,T,,M,1.134,N,2.099,K,A*26
$GPGGA,125528.00,4928.05411,N,01105.05330,E,1,05,2.03,309.6,M,47.0,M,,*58
$GPRMC,125529.00,A,4928.05385,N,01105.05279,E,1.947,240.89,260311,,,A*6D
$GPVTG,240.89,T,,M,1.947,N,3.606,K,A*32
$GPGGA,125529.00,4928.05385,N,01105.05279,E,1,05,2.03,309.7,M,47.0,M,,*5E
$GPRMC,125530.00,A,4928.05359,N,01105.05227,E,1.849,239.73,260311,,,A*6B
$GPVTG,239.73,T,,M,1.849,N,3.424,K,A*34
$GPGGA,125530.00,4928.05359,N,01105.05227,E,1,05,2.03,310.0,M,47.0,M,,*53
$GPRMC,125531.00,A,4928.05338,N,01105.05165,E,1.992,237.52,260311,,,A*62
$GPVTG,237.52,T,,M,1.992,N,3.689,K,A*3B
$GPGGA,125531.00,4928.05338,N,01105.05165,E,1,05,2.03,310.3,M,47.0,M,,*53
$GPRMC,125532.00,A,4928.05312,N,01105.05096,E,1.931,240.03,260311,,,A*69
$GPVTG,240.03,T,,M,1.931,N,3.576,K,A*35
$GPGGA,125532.00,4928.05312,N,01105.05096,E,1,05,2.03,310.5,M,47.0,M,,*53
$GPRMC,125533.00,A,4928.05291,N,01105.04995,E,2.140,244.71,260311,,,A*65
$GPVTG,244.71,T,,M,2.140,N,3.964,K,A*36
$GPGGA,125533.00,4928.05291,N,01105.04995,E,1,06,1.99,310.6,M,47.0,M,,*53
$GPRMC,125534.00,A,4928.05286,N,01105.04877,E,1.920,250.81,260311,,,A*6E
$GPVTG,250.81,T,,M,1.920,N,3.556,K,A*3C
$GPGGA,125534.00,4928.05286,N,01105.04877,E,1,06,1.99,310.4,M,47.0,M,,*5D
$GPRMC,125535.00,A,4928.05277,N,01105.04778,E,1.961,252.54,260311,,,A*6E
$GPVTG,252.54,T,,M,1.961,N,3.631,K,A*31
$GPGGA,125535.00,4928.05277,N,01105.04778,E,1,06,1.99,310.3,M,47.0,M,,*55
$GPRMC,125536.00,A,4928.05265,N,01105.04687,E,1.905,254.14,260311,,,A*6F
$GPVTG,254.14,T,,M,1.905,N,3.529,K,A*3B
$GPGGA,125536.00,4928.05265,N,01105.04687,E,1,06,1.99,310.4,M,47.0,M,,*53
$GPRMC,125537.00,A,4928.05252,N,01105.04601,E,1.918,258.84,260311,,,A*6D
$GPVTG,258.84,T,,M,1.918,N,3.552,K,A*3E
$GPGGA,125537.00,4928.05252,N,01105.04601,E,1,06,1.99,310.5,M,47.0,M,,*59
$GPRMC,125538.00,A,4928.05248,N,01105.04517,E,1.848,263.24,260311,,,A*6B
$GPVTG,263.24,T,,M,1.848,N,3.422,K,A*3E
$GPGGA,125538.00,4928.05248,N,01105.04517,E,1,06,1.99,310.5,M,47.0,M,,*59
$GPRMC,125539.00,A,4928.05244,N,01105.04432,E,1.962,263.90,260311,,,A*66
$GPVTG,263.90,T,,M,1.962,N,3.634,K,A*3D
$GPGGA,125539.00,4928.05244,N,01105.04432,E,1,06,1.99,310.5,M,47.0,M,,*52
$GPRMC,125540.00,A,4928.05242,N,01105.04342,E,2.115,264.20,260311,,,A*69
$GPVTG,264.20,T,,M,2.115,N,3.918,K,A*3B
$GPGGA,125540.00,4928.05242,N,01105.04342,E,1,06,1.99,310.5,M,47.0,M,,*5A
$GPRMC,125541.00,A,4928.05261,N,01105.04282,E,1.467,276.12,260311,,,A*65
$GPVTG,276.12,T,,M,1.467,N,2.716,K,A*3B
$GPGGA,125541.00,4928.05261,N,01105.04282,E,1,06,1.99,310.4,M,47.0,M,,*56
$GPRMC,125542.00,A,4928.05297,N,01105.04267,E,1.304,301.23,260311,,,A*65
$GPVTG,301.23,T,,M,1.304,N,2.416,K,A*39
$GPGGA,125542.00,4928.05297,N,01105.04267,E,1,06,1.99,310.4,M,47.0,M,,*57
$GPRMC,125543.00,A,4928.05349,N,01105.04272,E,1.955,323.54,260311,,,A*6C
$GPVTG,323.54,T,,M,1.955,N,3.621,K,A*30
$GPGGA,125543.00,4928.05349,N,01105.04272,E,1,06,1.99,310.1,M,47.0,M,,*55
$GPRMC,125544.00,A,4928.05407,N,01105.04273,E,1.883,329.39,260311,,,A*6C
$GPVTG,329.39,T,,M,1.883,N,3.487,K,A*35
$GPGGA,125544.00,4928.05407,N,01105.04273,E,1,06,1.99,310.0,M,47.0,M,,*5F
$GPRMC,125545.00,A,4928.05468,N,01105.04279,E,2.004,338.01,260311,,,A*61
$GPVTG,338.01,T,,M,2.004,N,3.712,K,A*35
$GPGGA,125545.00,4928.05468,N,01105.04279,E,1,06,1.99,309.8,M,47.0,M,,*5D
$GPRMC,125546.00,A,4928.05527,N,01105.04283,E,2.003,349.42,260311,,,A*6B
$GPVTG,349.42,T,,M,2.003,N,3.710,K,A*31
$GPGGA,125546.00,4928.05527,N,01105.04283,E,1,06,1.99,309.6,M,47.0,M,,*5F
$GPRMC,125547.00,A,4928.05592,N,01105.04287,E,2.063,350.55,260311,,,A*68
$GPVTG,350.55,T,,M,2.063,N,3.820,K,A*35
$GPGGA,125547.00,4928.05592,N,01105.04287,E,1,06,1.99,309.5,M,47.0,M,,*57
$GPRMC,125548.00,A,4928.05656,N,01105.04290,E,1.842,,260311,,,A*7A
$GPVTG,,T,,M,1.842,N,3.411,K,A*2B
$GPGGA,125548.00,4928.05656,N,01105.04290,E,1,06,1.99,309.4,M,47.0,M,,*54
$GPRMC,125549.00,A,4928.05722,N,01105.04290,E,1.727,351.57,260311,,,A*6E
$GPVTG,351.57,T,,M,1.727,N,3.198,K,A*38
$GPGGA,125549.00,4928.05722,N,01105.04290,E,1,06,1.99,309.2,M,47.0,M,,*51
$GPRMC,125550.00,A,4928.05785,N,01105.04292,E,2.064,352.29,260311,,,A*60
$GPVTG,352.29,T,,M,2.064,N,3.822,K,A*39
$GPGGA,125550.00,4928.05785,N,01105.04292,E,1,06,1.99,309.1,M,47.0,M,,*55
$GPRMC,125551.00,A,4928.05849,N,01105.04288,E,2.004,353.30,260311,,,A*6A
$GPVTG,353.30,T,,M,2.004,N,3.711,K,A*39
$GPGGA,125551.00,4928.05849,N,01105.04288,E,1,06,1.99,308.9,M,47.0,M,,*59
$GPRMC,125552.00,A,4928.05911,N,01105.04287,E,2.087,354.87,260311,,,A*6A
$GPVTG,354.87,T,,M,2.087,N,3.864,K,A*34
$GPGGA,125552.00,4928.05911,N,01105.04287,E,1,06,1.99,309.0,M,47.0,M,,*51
$GPRMC,125553.00,A,4928.05970,N,01105.04287,E,2.004,354.99,260311,,,A*68
$GPVTG,354.99,T,,M,2.004,N,3.711,K,A*3D
$GPGGA,125553.00,4928.05970,N,01105.04287,E,1,06,1.98,308.9,M,47.0,M,,*5E
$GPRMC,125554.00,A,4928.06019,N,01105.04287,E,1.861,357.03,260311,,,A*62
$GPVTG,357.03,T,,M,1.861,N,3.446,K,A*34
$GPGGA,125554.00,4928.06019,N,01105.04287,E,1,06,1.98,308.8,M,47.0,M,,*5D
$GPRMC,125555.00,A,4928.06073,N,01105.04328,E,1.984,18.36,260311,,,A*5F
$GPVTG,18.36,T,,M,1.984,N,3.674,K,A*03
$GPGGA,125555.00,4928.06073,N,01105.04328,E,1,06,1.98,308.9,M,47.0,M,,*55
$GPRMC,125556.00,A,4928.06088,N,01105.04415,E,2.104,46.02,260311,,,A*5E
$GPVTG,46.02,T,,M,2.104,N,3.898,K,A*00
$GPGGA,125556.00,4928.06088,N,01105.04415,E,1,06,1.98,309.0,M,47.0,M,,*53
$GPRMC,125557.00,A,4928.06079,N,01105.04518,E,2.324,67.40,260311,,,A*58
$GPVTG,67.40,T,,M,2.324,N,4.305,K,A*0D
$GPGGA,125557.00,4928.06079,N,01105.04518,E,1,06,1.98,308.9,M,47.0,M,,*58
$GPRMC,125558.00,A,4928.06075,N,01105.04619,E,2.265,80.72,260311,,,A*55
$GPVTG,80.72,T,,M,2.265,N,4.194,K,A*0B
$GPGGA,125558.00,4928.06075,N,01105.04619,E,1,06,1.98,308.8,M,47.0,M,,*58
$GPRMC,125559.00,A,4928.06064,N,01105.04725,E,2.385,86.31,260311,,,A*54
$GPVTG,86.31,T,,M,2.385,N,4.417,K,A*0B
$GPGGA,125559.00,4928.06064,N,01105.04725,E,1,06,1.98,308.9,M,47.0,M,,*56
$GPRMC,125600.00,A,4928.06066,N,01105.04837,E,2.347,87.39,260311,,,A*52
$GPVTG,87.39,T,,M,2.347,N,4.346,K,A*0F
$GPGGA,125600.00,4928.06066,N,01105.04837,E,1,06,1.98,309.1,M,47.0,M,,*5E
$GPRMC,125601.00,A,4928.06072,N,01105.04943,E,2.286,88.20,260311,,,A*5F
$GPVTG,88.20,T,,M,2.286,N,4.234,K,A*00
$GPGGA,125601.00,4928.06072,N,01105.04943,E,1,06,1.98,309.1,M,47.0,M,,*58
$GPRMC,125602.00,A,4928.06076,N,01105.05049,E,2.210,87.89,260311,,,A*59
$GPVTG,87.89,T,,M,2.210,N,4.092,K,A*0D
$GPGGA,125602.00,4928.06076,N,01105.05049,E,1,06,1.98,309.2,M,47.0,M,,*5E
$GPRMC,125603.00,A,4928.06083,N,01105.05159,E,2.241,87.35,260311,,,A*51
$GPVTG,87.35,T,,M,2.241,N,4.151,K,A*00
$GPGGA,125603.00,4928.06083,N,01105.05159,E,1,06,1.98,309.2,M,47.0,M,,*55
$GPRMC,125604.00,A,4928.06085,N,01105.05273,E,2.363,87.58,260311,,,A*51
$GPVTG,87.58,T,,M,2.363,N,4.376,K,A*0D
$GPGGA,125604.00,4928.06085,N,01105.05273,E,1,06,1.98,309.4,M,47.0,M,,*59
$GPRMC,125605.00,A,4928.06089,N,01105.05384,E,2.141,85.28,260311,,,A*52
$GPVTG,85.28,T,,M,2.141,N,3.965,K,A*05
$GPGGA,125605.00,4928.06089,N,01105.05384,E,1,06,1.98,309.7,M,47.0,M,,*5E
$GPRMC,125606.00,A,4928.06093,N,01105.05478,E,2.109,87.43,260311,,,A*5D
$GPVTG,87.43,T,,M,2.109,N,3.907,K,A*02
$GPGGA,125606.00,4928.06093,N,01105.05478,E,1,06,1.98,309.9,M,47.0,M,,*5C
$GPRMC,125607.00,A,4928.06088,N,01105.05565,E,1.951,90.77,260311,,,A*5C
$GPVTG,90.77,T,,M,1.951,N,3.613,K,A*0F
$GPGGA,125607.00,4928.06088,N,01105.05565,E,1,06,1.98,310.1,M,47.0,M,,*5A
$GPRMC,125608.00,A,4928.06054,N,01105.05633,E,2.138,94.59,260311,,,A*5E
$GPVTG,94.59,T,,M,2.138,N,3.960,K,A*08
$GPGGA,125608.00,4928.06054,N,01105.05633,E,1,06,1.98,310.4,M,47.0,M,,*51
$GPRMC,125609.00,A,4928.05997,N,01105.05674,E,2.104,124.55,260311,,,A*60
$GPVTG,124.55,T,,M,2.104,N,3.898,K,A*37
$GPGGA,125609.00,4928.05997,N,01105.05674,E,1,06,1.98,310.8,M,47.0,M,,*5A
$GPRMC,125610.00,A,4928.05934,N,01105.05685,E,2.159,150.22,260311,,,A*64
$GPVTG,150.22,T,,M,2.159,N,3.998,K,A*3D
$GPGGA,125610.00,4928.05934,N,01105.05685,E,1,06,1.98,311.0,M,47.0,M,,*5C
$GPRMC,125611.00,A,4928.05865,N,01105.05686,E,2.146,167.18,260311,,,A*60
$GPVTG,167.18,T,,M,2.146,N,3.974,K,A*3C
$GPGGA,125611.00,4928.05865,N,01105.05686,E,1,06,1.98,311.1,M,47.0,M,,*5A
$GPRMC,125612.00,A,4928.05791,N,01105.05693,E,2.225,173.64,260311,,,A*6B
$GPVTG,173.64,T,,M,2.225,N,4.120,K,A*3A
$GPGGA,125612.00,4928.05791,N,01105.05693,E,1,06,1.98,311.1,M,47.0,M,,*59
$GPRMC,125613.00,A,4928.05734,N,01105.05677,E,2.117,177.44,260311,,,A*6B
$GPVTG,177.44,T,,M,2.117,N,3.921,K,A*30
$GPGGA,125613.00,4928.05734,N,01105.05677,E,1,06,1.98,311.0,M,47.0,M,,*5C
$GPRMC,125614.00,A,4928.05673,N,01105.05669,E,2.033,178.58,260311,,,A*64
$GPVTG,178.58,T,,M,2.033,N,3.765,K,A*3B
$GPGGA,125614.00,4928.05673,N,01105.05669,E,1,06,1.98,311.0,M,47.0,M,,*56
$GPRMC,125615.00,A,4928.05617,N,01105.05653,E,2.037,177.93,260311,,,A*62
$GPVTG,177.93,T,,M,2.037,N,3.773,K,A*30
$GPGGA,125615.00,4928.05617,N,01105.05653,E,1,06,1.98,311.0,M,47.0,M,,*5C
$GPRMC,125616.00,A,4928.05552,N,01105.05657,E,2.187,178.58,260311,,,A*65
$GPVTG,178.58,T,,M,2.187,N,4.050,K,A*33
$GPGGA,125616.00,4928.05552,N,01105.05657,E,1,06,1.98,311.1,M,47.0,M,,*58
$GPRMC,125617.00,A,4928.05489,N,01105.05657,E,2.115,179.48,260311,,,A*68
$GPVTG,179.48,T,,M,2.115,N,3.917,K,A*35
$GPGGA,125617.00,4928.05489,N,01105.05657,E,1,06,1.98,311.2,M,47.0,M,,*5D
$GPRMC,125618.00,A,4928.05428,N,01105.05647,E,1.931,181.96,260311,,,A*64
$GPVTG,181.96,T,,M,1.931,N,3.576,K,A*37
$GPGGA,125618.00,4928.05428,N,01105.05647,E,1,06,1.98,311.3,M,47.0,M,,*59
$GPRMC,125619.00,A,4928.05371,N,01105.05632,E,2.050,185.40,260311,,,A*6E
$GPVTG,185.40,T,,M,2.050,N,3.797,K,A*38
$GPGGA,125619.00,4928.05371,N,01105.05632,E,1,06,1.98,311.4,M,47.0,M,,*56
$GPRMC,125620.00,A,4928.05324,N,01105.05589,E,1.820,185.78,260311,,,A*60
$GPVTG,185.78,T,,M,1.820,N,3.371,K,A*33
$GPGGA,125620.00,4928.05324,N,01105.05589,E,1,06,1.98,311.4,M,47.0,M,,*5F
$GPRMC,125621.00,A,4928.05296,N,01105.05505,E,2.409,203.48,260311,,,A*67
$GPVTG,203.48,T,,M,2.409,N,4.461,K,A*38
$GPGGA,125621.00,4928.05296,N,01105.05505,E,1,06,1.98,311.5,M,47.0,M,,*53
$GPRMC,125622.00,A,4928.05283,N,01105.05395,E,2.352,222.40,260311,,,A*6D
$GPVTG,222.40,T,,M,2.352,N,4.356,K,A*39
$GPGGA,125622.00,4928.05283,N,01105.05395,E,1,06,1.98,311.7,M,47.0,M,,*59
$GPRMC,125623.00,A,4928.05280,N,01105.05297,E,2.113,241.95,260311,,,A*66
$GPVTG,241.95,T,,M,2.113,N,3.914,K,A*38
$GPGGA,125623.00,4928.05280,N,01105.05297,E,1,06,1.98,311.5,M,47.0,M,,*5A
$GPRMC,125624.00,A,4928.05277,N,01105.05200,E,2.085,253.16,260311,,,A*61
$GPVTG,253.16,T,,M,2.085,N,3.861,K,A*3D
$GPGGA,125624.00,4928.05277,N,01105.05200,E,1,06,1.98,311.4,M,47.0,M,,*5A
$GPRMC,125625.00,A,4928.05279,N,01105.05102,E,2.044,259.59,260311,,,A*63
$GPVTG,259.59,T,,M,2.044,N,3.786,K,A*37
$GPGGA,125625.00,4928.05279,N,01105.05102,E,1,06,1.98,311.3,M,47.0,M,,*53
$GPRMC,125626.00,A,4928.05279,N,01105.05005,E,2.068,262.74,260311,,,A*6F
$GPVTG,262.74,T,,M,2.068,N,3.830,K,A*3C
$GPGGA,125626.00,4928.05279,N,01105.05005,E,1,06,1.98,311.3,M,47.0,M,,*56
$GPRMC,125627.00,A,4928.05274,N,01105.04911,E,2.059,263.42,260311,,,A*68
$GPVTG,263.42,T,,M,2.059,N,3.813,K,A*3B
$GPGGA,125627.00,4928.05274,N,01105.04911,E,1,06,1.98,311.4,M,47.0,M,,*50
$GPRMC,125628.00,A,4928.05269,N,01105.04825,E,1.711,261.05,260311,,,A*64
$GPVTG,261.05,T,,M,1.711,N,3.170,K,A*3E
$GPGGA,125628.00,4928.05269,N,01105.04825,E,1,06,1.98,311.5,M,47.0,M,,*54
$GPRMC,125629.00,A,4928.05262,N,01105.04760,E,1.272,260.28,260311,,,A*6E
$GPVTG,260.28,T,,M,1.272,N,2.355,K,A*34
$GPGGA,125629.00,4928.05262,N,01105.04760,E,1,06,1.98,311.5,M,47.0,M,,*50
