$GPRMC,125843.00,A,4928.05450,N,01105.05502,E,0.441,,260311,,,A*7B
$GPVTG,,T,,M,0.441,N,0.818,K,A*23
$GPGGA,125843.00,4928.05450,N,01105.05502,E,1,07,1.55,316.9,M,47.0,M,,*59
$G
$GPRMC,125845.00,A,4928.05502,N,01105.05180,E,5.919,1.55,260311,,,A*6F
$GPVTG,1.55,T,,M,5.919,N,10.963,K,A*05
$GPGGA,125845.00,4928.05502,N,01105.05180,E,1,08,1.55,317.0,M,47.0,M,,*50
$GPRMC,125846.00,A,4928.05666,N,01105.04931,E,8.237,344.71,260311,,,A*60
$GPVTG,344.71,T,,M,8.237,N,15.255,K,A*00
$GPGGA,125846.00,4928.05666,N,01105.04931,E,1,08,1.05,317.2,M,47.0,M,,*56
$GPRMC,125847.00,A,4928.05972,N,01105.04781,E,11.308,349.60,260311,,,A*56
$GPVTG,349.60,T,,M,11.308,N,20.942,K,A*33
$GPGGA,125847.00,4928.05972,N,01105.04781,E,1,08,1.05,317.2,M,47.0,M,,*58
$GPRMC,125848.00,A,4928.06343,N,01105.04746,E,13.473,356.31,260311,,,A*5A
$GPVTG,356.31,T,,M,13.473,N,24.951,K,A*36
$GPGGA,125848.00,4928.06343,N,01105.04746,E,1,08,1.05,317.0,M,47.0,M,,*55
$GPRMC,125849.00,A,4928.06785,N,01105.04746,E,15.865,358.52,260311,,,A*53
$GPVTG,358.52,T,,M,15.865,N,29.383,K,A*38
$GPGGA,125849.00,4928.06785,N,01105.04746,E,1,08,1.05,316.7,M,47.0,M,,*5C
$GPRMC,125850.00,A,4928.07316,N,01105.04754,E,18.722,359.32,260311,,,A*51
$GPVTG,359.32,T,,M,18.722,N,34.673,K,A*38
$GPGGA,125850.00,4928.07316,N,01105.04754,E,1,08,1.05,316.4,M,47.0,M,,*5B
$GPRMC,125851.00,A,4928.07875,N,01105.04763,E,19.561,359.89,260311,,,A*5E
$GPVTG,359.89,T,,M,19.561,N,36.227,K,A*3B
$GPGGA,125851.00,4928.07875,N,01105.04763,E,1,08,1.05,316.2,M,47.0,M,,*56
$GPRMC,125852.00,A,4928.08409,N,01105.04782,E,19.633,359.81,260311,,,A*56
$GPVTG,359.81,T,,M,19.633,N,36.361,K,A*34
$GPGGA,125852.00,4928.08409,N,01105.04782,E,1,08,1.05,316.0,M,47.0,M,,*50
$GPRMC,125853.00,A,4928.08961,N,01105.04792,E,19.260,0.01,260311,,,A*50
$GPVTG,0.01,T,,M,19.260,N,35.669,K,A*3F
$GPGGA,125853.00,4928.08961,N,01105.04792,E,1,08,1.05,315.8,M,47.0,M,,*58
$GPRMC,125854.00,A,4928.09502,N,01105.04807,E,18.571,0.21,260311,,,A*58
$GPVTG,0.21,T,,M,18.571,N,34.394,K,A*3D
$GPGGA,125854.00,4928.09502,N,01105.04807,E,1,08,1.05,315.7,M,47.0,M,,*5B
$GPRMC,125855.00,A,4928.09973,N,01105.04828,E,15.723,0.49,260311,,,A*58
$GPVTG,0.49,T,,M,15.723,N,29.119,K,A*30
$GPGGA,125855.00,4928.09973,N,01105.04828,E,1,08,1.06,315.7,M,47.0,M,,*5E
$GPRMC,125856.00,A,4928.10314,N,01105.04863,E,10.660,2.29,260311,,,A*50
$GPVTG,2.29,T,,M,10.660,N,19.742,K,A*3C
$GPGGA,125856.00,4928.10314,N,01105.04863,E,1,08,1.06,315.6,M,47.0,M,,*50
$GPRMC,125857.00,A,4928.10558,N,01105.04872,E,7.060,358.38,260311,,,A*63
$GPVTG,358.38,T,,M,7.060,N,13.074,K,A*08
$GPGGA,125857.00,4928.10558,N,01105.04872,E,1,08,1.06,315.4,M,47.0,M,,*5D
$GPRMC,125858.00,A,4928.10733,N,01105.04834,E,5.974,346.83,260311,,,A*60
$GPVTG,346.83,T,,M,5.974,N,11.064,K,A*0A
$GPGGA,125858.00,4928.10733,N,01105.04834,E,1,08,1.06,315.2,M,47.0,M,,*59
$GPRMC,125859.00,A,4928.10874,N,01105.04684,E,6.985,332.84,260311,,,A*61
$GPVTG,332.84,T,,M,6.985,N,12.936,K,A*0E
$GPGGA,125859.00,4928.10874,N,01105.04684,E,1,08,1.06,315.2,M,47.0,M,,*51
$GPRMC,125900.00,A,4928.10929,N,01105.04383,E,9.420,316.16,260311,,,A*67
$GPVTG,316.16,T,,M,9.420,N,17.445,K,A*02
$GPGGA,125900.00,4928.10929,N,01105.04383,E,1,08,1.06,314.8,M,47.0,M,,*5C
$GPRMC,125901.00,A,4928.10931,N,01105.03930,E,12.034,293.89,260311,,,A*5B
$GPVTG,293.89,T,,M,12.034,N,22.287,K,A*3D
$GPGGA,125901.00,4928.10931,N,01105.03930,E,1,08,1.06,314.6,M,47.0,M,,*5F
$GPRMC,125902.00,A,4928.10922,N,01105.03410,E,12.291,272.87,260311,,,A*59
$GPVTG,272.87,T,,M,12.291,N,22.763,K,A*3E
$GPGGA,125902.00,4928.10922,N,01105.03410,E,1,08,1.06,314.3,M,47.0,M,,*54
$GPRMC,125903.00,A,4928.10909,N,01105.02854,E,13.360,271.00,260311,,,A*5E
$GPVTG,271.00,T,,M,13.360,N,24.743,K,A*38
$GPGGA,125903.00,4928.10909,N,01105.02854,E,1,08,1.06,314.0,M,47.0,M,,*52
$GPRMC,125904.00,A,4928.10891,N,01105.02221,E,15.683,270.44,260311,,,A*5E
$GPVTG,270.44,T,,M,15.683,N,29.044,K,A*3A
$GPGGA,125904.00,4928.10891,N,01105.02221,E,1,08,1.06,313.7,M,47.0,M,,*5D
$GPRMC,125905.00,A,4928.10888,N,01105.01530,E,15.772,270.46,260311,,,A*5E
$GPVTG,270.46,T,,M,15.772,N,29.209,K,A*3C
$GPGGA,125905.00,4928.10888,N,01105.01530,E,1,08,1.06,313.6,M,47.0,M,,*51
$GPRMC,125906.00,A,4928.10891,N,01105.00836,E,15.657,270.29,260311,,,A*50
$GPVTG,270.29,T,,M,15.657,N,28.996,K,A*3F
$GPGGA,125906.00,4928.10891,N,01105.00836,E,1,08,1.06,313.7,M,47.0,M,,*51
$GPRMC,125907.00,A,4928.10884,N,01105.00163,E,15.083,270.24,260311,,,A*5E
$GPVTG,270.24,T,,M,15.083,N,27.933,K,A*3D
$GPGGA,125907.00,4928.10884,N,01105.00163,E,1,08,1.06,313.7,M,47.0,M,,*5D
$GPRMC,125908.00,A,4928.10876,N,01104.99517,E,14.460,270.41,260311,,,A*51
$GPVTG,270.41,T,,M,14.460,N,26.781,K,A*30
$GPGGA,125908.00,4928.10876,N,01104.99517,E,1,08,1.06,313.7,M,47.0,M,,*59
$GPRMC,125909.00,A,4928.10878,N,01104.98888,E,14.076,270.31,260311,,,A*50
$GPVTG,270.31,T,,M,14.076,N,26.069,K,A*35
$GPGGA,125909.00,4928.10878,N,01104.98888,E,1,08,1.06,313.5,M,47.0,M,,*5E
$GPRMC,125910.00,A,4928.10883,N,01104.98232,E,15.347,270.47,260311,,,A*56
$GPVTG,270.47,T,,M,15.347,N,28.422,K,A*31
$GPGGA,125910.00,4928.10883,N,01104.98232,E,1,08,1.06,313.4,M,47.0,M,,*58
$GPRMC,125911.00,A,4928.10874,N,01104.97544,E,16.039,269.98,260311,,,A*55
$GPVTG,269.98,T,,M,16.039,N,29.704,K,A*34
$GPGGA,125911.00,4928.10874,N,01104.97544,E,1,08,1.06,313.5,M,47.0,M,,*59
$GPRMC,125912.00,A,4928.10862,N,01104.96847,E,15.646,268.95,260311,,,A*5F
$GPVTG,268.95,T,,M,15.646,N,28.977,K,A*3E
$GPGGA,125912.00,4928.10862,N,01104.96847,E,1,08,1.06,313.6,M,47.0,M,,*51
$GPRMC,125913.00,A,4928.10847,N,01104.96170,E,15.084,268.70,260311,,,A*57
$GPVTG,268.70,T,,M,15.084,N,27.935,K,A*34
$GPGGA,125913.00,4928.10847,N,01104.96170,E,1,08,1.06,313.7,M,47.0,M,,*5B
$GPRMC,125914.00,A,4928.10831,N,01104.95515,E,14.856,268.68,260311,,,A*5A
$GPVTG,268.68,T,,M,14.856,N,27.514,K,A*34
$GPGGA,125914.00,4928.10831,N,01104.95515,E,1,08,1.06,313.8,M,47.0,M,,*56
$GPRMC,125915.00,A,4928.10814,N,01104.94869,E,14.644,268.75,260311,,,A*5A
$GPVTG,268.75,T,,M,14.644,N,27.121,K,A*37
$GPGGA,125915.00,4928.10814,N,01104.94869,E,1,08,1.06,314.0,M,47.0,M,,*58
$GPRMC,125916.00,A,4928.10801,N,01104.94237,E,14.675,268.09,260311,,,A*55
$GPVTG,268.09,T,,M,14.675,N,27.178,K,A*32
$GPGGA,125916.00,4928.10801,N,01104.94237,E,1,08,1.06,314.0,M,47.0,M,,*5E
$GPRMC,125917.00,A,4928.10791,N,01104.93586,E,14.941,269.90,260311,,,A*51
$GPVTG,269.90,T,,M,14.941,N,27.671,K,A*35
$GPGGA,125917.00,4928.10791,N,01104.93586,E,1,08,1.06,314.1,M,47.0,M,,*52
$GPRMC,125918.00,A,4928.10789,N,01104.92930,E,14.832,269.96,260311,,,A*54
$GPVTG,269.96,T,,M,14.832,N,27.468,K,A*3C
$GPGGA,125918.00,4928.10789,N,01104.92930,E,1,08,1.06,314.2,M,47.0,M,,*57
$GPRMC,125919.00,A,4928.10797,N,01104.92243,E,15.427,270.33,260311,,,A*5B
$GPVTG,270.33,T,,M,15.427,N,28.571,K,A*34
$GPGGA,125919.00,4928.10797,N,01104.92243,E,1,08,1.06,314.3,M,47.0,M,,*57
$GPRMC,125920.00,A,4928.10805,N,01104.91567,E,14.948,269.83,260311,,,A*51
$GPVTG,269.83,T,,M,14.948,N,27.683,K,A*33
$GPGGA,125920.00,4928.10805,N,01104.91567,E,1,08,1.06,314.2,M,47.0,M,,*5A
$GPRMC,125921.00,A,4928.10817,N,01104.90926,E,14.228,269.59,260311,,,A*51
$GPVTG,269.59,T,,M,14.228,N,26.350,K,A*33
$GPGGA,125921.00,4928.10817,N,01104.90926,E,1,08,1.06,314.0,M,47.0,M,,*52
$GPRMC,125922.00,A,4928.10824,N,01104.90362,E,11.313,269.69,260311,,,A*57
$GPVTG,269.69,T,,M,11.313,N,20.951,K,A*31
$GPGGA,125922.00,4928.10824,N,01104.90362,E,1,08,1.06,313.9,M,47.0,M,,*55
$GPRMC,125923.00,A,4928.10828,N,01104.89969,E,7.331,271.06,260311,,,A*64
$GPVTG,271.06,T,,M,7.331,N,13.578,K,A*01
$GPGGA,125923.00,4928.10828,N,01104.89969,E,1,08,1.06,314.2,M,47.0,M,,*5D
$GPRMC,125924.00,A,4928.10834,N,01104.89762,E,4.015,269.94,260311,,,A*6F
$GPVTG,269.94,T,,M,4.015,N,7.436,K,A*3B
$GPGGA,125924.00,4928.10834,N,01104.89762,E,1,08,1.06,314.0,M,47.0,M,,*50
$GPRMC,125925.00,A,4928.10831,N,01104.89663,E,1.051,,260311,,,A*70
$GPVTG,,T,,M,1.051,N,1.946,K,A*2C
$GPGGA,125925.00,4928.10831,N,01104.89663,E,1,08,1.06,313.9,M,47.0,M,,*5A
$GPRMC,125926.00,A,4928.10844,N,01104.89587,E,0.145,,260311,,,A*7D
$GPVTG,,T,,M,0.145,N,0.269,K,A*2E
$GPGGA,125926.00,4928.10844,N,01104.89587,E,1,08,1.06,313.5,M,47.0,M,,*5E
$GPRMC,125927.00,A,4928.10844,N,01104.89577,E,0.138,,260311,,,A*79
$GPVTG,,T,,M,0.138,N,0.255,K,A*2B
$GPGGA,125927.00,4928.10844,N,01104.89577,E,1,08,1.06,313.3,M,47.0,M,,*56
$GPRMC,125928.00,A,4928.10848,N,01104.89566,E,0.365,,260311,,,A*70
$GPVTG,,T,,M,0.365,N,0.675,K,A*27
$GPGGA,125928.00,4928.10848,N,01104.89566,E,1,08,1.06,313.1,M,47.0,M,,*57
$GPRMC,125929.00,A,4928.10846,N,01104.89540,E,0.429,,260311,,,A*74
$GPVTG,,T,,M,0.429,N,0.795,K,A*27
$GPGGA,125929.00,4928.10846,N,01104.89540,E,1,08,1.06,313.1,M,47.0,M,,*5C
$GPRMC,125930.00,A,4928.10844,N,01104.89503,E,0.795,270.07,260311,,,A*61
$GPVTG,270.07,T,,M,0.795,N,1.473,K,A*35
$GPGGA,125930.00,4928.10844,N,01104.89503,E,1,08,1.06,313.0,M,47.0,M,,*50
$GPRMC,125931.00,A,4928.10843,N,01104.89477,E,0.788,270.13,260311,,,A*6C
$GPVTG,270.13,T,,M,0.788,N,1.460,K,A*3E
$GPGGA,125931.00,4928.10843,N,01104.89477,E,1,08,1.06,312.9,M,47.0,M,,*5C
$GPRMC,125932.00,A,4928.10841,N,01104.89427,E,0.547,,260311,,,A*70
$GPVTG,,T,,M,0.547,N,1.013,K,A*26
$GPGGA,125932.00,4928.10841,N,01104.89427,E,1,08,1.06,313.0,M,47.0,M,,*50
$GPRMC,125933.00,A,4928.10838,N,01104.89390,E,0.431,,260311,,,A*74
$GPVTG,,T,,M,0.431,N,0.798,K,A*23
$GPGGA,125933.00,4928.10838,N,01104.89390,E,1,08,1.06,313.0,M,47.0,M,,*54
$GPRMC,125934.00,A,4928.10826,N,01104.89354,E,0.521,,260311,,,A*74
$GPVTG,,T,,M,0.521,N,0.964,K,A*2E
$GPGGA,125934.00,4928.10826,N,01104.89354,E,1,08,1.06,313.2,M,47.0,M,,*56
$GPRMC,125935.00,A,4928.10820,N,01104.89336,E,0.125,,260311,,,A*77
$GPVTG,,T,,M,0.125,N,0.231,K,A*25
$GPGGA,125935.00,4928.10820,N,01104.89336,E,1,08,1.06,313.2,M,47.0,M,,*55
$GPRMC,125936.00,A,4928.10822,N,01104.89328,E,0.260,,260311,,,A*7B
$GPVTG,,T,,M,0.260,N,0.481,K,A*2A
$GPGGA,125936.00,4928.10822,N,01104.89328,E,1,08,1.06,313.1,M,47.0,M,,*58
$GPRMC,125937.00,A,4928.10824,N,01104.89315,E,0.056,,260311,,,A*75
$GPVTG,,T,,M,0.056,N,0.104,K,A*25
$GPGGA,125937.00,4928.10824,N,01104.89315,E,1,08,1.06,313.0,M,47.0,M,,*50
$GPRMC,125938.00,A,4928.10820,N,01104.89314,E,0.054,,260311,,,A*7D
$GPVTG,,T,,M,0.054,N,0.100,K,A*23
$GPGGA,125938.00,4928.10820,N,01104.89314,E,1,08,1.06,313.1,M,47.0,M,,*5B
$GPRMC,125939.00,A,4928.10823,N,01104.89299,E,0.063,,260311,,,A*7F
$GPVTG,,T,,M,0.063,N,0.117,K,A*21
$GPGGA,125939.00,4928.10823,N,01104.89299,E,1,08,1.06,313.0,M,47.0,M,,*5C
$GPRMC,125940.00,A,4928.10821,N,01104.89286,E,0.070,,260311,,,A*7F
$GPVTG,,T,,M,0.070,N,0.129,K,A*2E
$GPGGA,125940.00,4928.10821,N,01104.89286,E,1,08,1.06,313.1,M,47.0,M,,*5F
$GPRMC,125941.00,A,4928.10819,N,01104.89280,E,0.132,,260311,,,A*74
$GPVTG,,T,,M,0.132,N,0.244,K,A*21
$GPGGA,125941.00,4928.10819,N,01104.89280,E,1,08,1.06,313.1,M,47.0,M,,*53
$GPRMC,125942.00,A,4928.10817,N,01104.89280,E,0.036,,260311,,,A*7C
$GPVTG,,T,,M,0.036,N,0.067,K,A*27
$GPGGA,125942.00,4928.10817,N,01104.89280,E,1,08,1.06,313.2,M,47.0,M,,*5D
$GPRMC,125943.00,A,4928.10814,N,01104.89285,E,0.130,,260311,,,A*7C
$GPVTG,,T,,M,0.130,N,0.240,K,A*27
$GPGGA,125943.00,4928.10814,N,01104.89285,E,1,08,1.06,313.2,M,47.0,M,,*5A
$GPRMC,125944.00,A,4928.10814,N,01104.89265,E,0.111,,260311,,,A*76
$GPVTG,,T,,M,0.111,N,0.205,K,A*25
$GPGGA,125944.00,4928.10814,N,01104.89265,E,1,08,1.06,313.4,M,47.0,M,,*55
$GPRMC,125945.00,A,4928.10814,N,01104.89260,E,0.202,,260311,,,A*73
$GPVTG,,T,,M,0.202,N,0.375,K,A*22
$GPGGA,125945.00,4928.10814,N,01104.89260,E,1,08,1.54,313.4,M,47.0,M,,*56
$GPRMC,125946.00,A,4928.10813,N,01104.89248,E,0.142,,260311,,,A*7A
$GPVTG,,T,,M,0.142,N,0.262,K,A*22
$GPGGA,125946.00,4928.10813,N,01104.89248,E,1,08,1.06,313.4,M,47.0,M,,*5F
$GPRMC,125947.00,A,4928.10812,N,01104.89203,E,0.909,270.17,260311,,,A*6F
$GPVTG,270.17,T,,M,0.909,N,1.684,K,A*35
$GPGGA,125947.00,4928.10812,N,01104.89203,E,1,08,1.06,313.6,M,47.0,M,,*52
$GPRMC,125948.00,A,4928.10807,N,01104.89136,E,0.932,270.05,260311,,,A*6A
$GPVTG,270.05,T,,M,0.932,N,1.726,K,A*37
$GPGGA,125948.00,4928.10807,N,01104.89136,E,1,08,1.06,313.8,M,47.0,M,,*52
$GPRMC,125949.00,A,4928.10800,N,01104.89056,E,1.504,269.70,260311,,,A*69
$GPVTG,269.70,T,,M,1.504,N,2.784,K,A*3E
$GPGGA,125949.00,4928.10800,N,01104.89056,E,1,08,1.06,314.1,M,47.0,M,,*5D
$GPRMC,125950.00,A,4928.10791,N,01104.88967,E,1.410,269.22,260311,,,A*6F
$GPVTG,269.22,T,,M,1.410,N,2.611,K,A*30
$GPGGA,125950.00,4928.10791,N,01104.88967,E,1,08,1.06,314.4,M,47.0,M,,*5D
$GPRMC,125951.00,A,4928.10779,N,01104.88895,E,1.302,268.81,260311,,,A*68
$GPVTG,268.81,T,,M,1.302,N,2.412,K,A*3D
$GPGGA,125951.00,4928.10779,N,01104.88895,E,1,08,1.06,314.6,M,47.0,M,,*54
$GPRMC,125952.00,A,4928.10769,N,01104.88800,E,3.078,256.70,260311,,,A*69
$GPVTG,256.70,T,,M,3.078,N,5.700,K,A*35
$GPGGA,125952.00,4928.10769,N,01104.88800,E,1,08,1.06,314.5,M,47.0,M,,*59
$GPRMC,125953.00,A,4928.10681,N,01104.88654,E,7.278,234.10,260311,,,A*64
$GPVTG,234.10,T,,M,7.278,N,13.478,K,A*0A
$GPGGA,125953.00,4928.10681,N,01104.88654,E,1,08,1.06,314.4,M,47.0,M,,*51
$GPRMC,125954.00,A,4928.10434,N,01104.88594,E,11.858,221.75,260311,,,A*58
$GPVTG,221.75,T,,M,11.858,N,21.961,K,A*36
$GPGGA,125954.00,4928.10434,N,01104.88594,E,1,08,1.06,314.4,M,47.0,M,,*55
$GPRMC,125955.00,A,4928.10010,N,01104.88606,E,16.114,201.24,260311,,,A*53
$GPVTG,201.24,T,,M,16.114,N,29.843,K,A*3F
$GPGGA,125955.00,4928.10010,N,01104.88606,E,1,07,1.12,314.6,M,47.0,M,,*56
$GPRMC,125956.00,A,4928.09479,N,01104.88524,E,18.327,189.79,260311,,,A*57
$GPVTG,189.79,T,,M,18.327,N,33.942,K,A*33
$GPGGA,125956.00,4928.09479,N,01104.88524,E,1,07,1.12,315.7,M,47.0,M,,*55
$GPRMC,125957.00,A,4928.08894,N,01104.88556,E,20.092,180.09,260311,,,A*55
$GPVTG,180.09,T,,M,20.092,N,37.210,K,A*33
$GPGGA,125957.00,4928.08894,N,01104.88556,E,1,07,1.12,316.1,M,47.0,M,,*5A
$GPRMC,125958.00,A,4928.08343,N,01104.88572,E,19.573,179.81,260311,,,A*5B
$GPVTG,179.81,T,,M,19.573,N,36.249,K,A*38
$GPGGA,125958.00,4928.08343,N,01104.88572,E,1,08,1.06,316.1,M,47.0,M,,*58
$GPRMC,125959.00,A,4928.07723,N,01104.88570,E,22.757,181.90,260311,,,A*5E
$GPVTG,181.90,T,,M,22.757,N,42.146,K,A*3C
$GPGGA,125959.00,4928.07723,N,01104.88570,E,1,08,1.12,316.1,M,47.0,M,,*53
$GPRMC,130000.00,A,4928.06818,N,01104.88636,E,31.298,179.09,260311,,,A*5B
$GPVTG,179.09,T,,M,31.298,N,57.963,K,A*34
$GPGGA,130000.00,4928.06818,N,01104.88636,E,1,08,1.12,316.0,M,47.0,M,,*54
$GPRMC,130001.00,A,4928.05814,N,01104.88835,E,32.477,176.15,260311,,,A*5E
$GPVTG,176.15,T,,M,32.477,N,60.147,K,A*38
$GPGGA,130001.00,4928.05814,N,01104.88835,E,1,08,1.06,316.5,M,47.0,M,,*57
$GPRMC,130002.00,A,4928.04839,N,01104.89007,E,33.085,175.57,260311,,,A*56
$GPVTG,175.57,T,,M,33.085,N,61.273,K,A*30
$GPGGA,130002.00,4928.04839,N,01104.89007,E,1,08,1.06,317.0,M,47.0,M,,*56
$GPRMC,130003.00,A,4928.03837,N,01104.89113,E,32.360,177.10,260311,,,A*52
$GPVTG,177.10,T,,M,32.360,N,59.931,K,A*3E
$GPGGA,130003.00,4928.03837,N,01104.89113,E,1,08,1.06,317.5,M,47.0,M,,*5F
$GPRMC,130004.00,A,4928.02907,N,01104.89253,E,30.396,177.06,260311,,,A*5D
$GPVTG,177.06,T,,M,30.396,N,56.294,K,A*39
$GPGGA,130004.00,4928.02907,N,01104.89253,E,1,08,1.06,317.8,M,47.0,M,,*51
$GPRMC,130005.00,A,4928.02084,N,01104.89493,E,28.485,169.63,260311,,,A*54
$GPVTG,169.63,T,,M,28.485,N,52.755,K,A*35
$GPGGA,130005.00,4928.02084,N,01104.89493,E,1,08,1.06,317.7,M,47.0,M,,*57
$GPRMC,130006.00,A,4928.01303,N,01104.89694,E,27.042,172.59,260311,,,A*5E
$GPVTG,172.59,T,,M,27.042,N,50.082,K,A*39
$GPGGA,130006.00,4928.01303,N,01104.89694,E,1,08,1.06,317.8,M,47.0,M,,*51
$GPRMC,130007.00,A,4928.00515,N,01104.89874,E,26.651,172.44,260311,,,A*56
$GPVTG,172.44,T,,M,26.651,N,49.357,K,A*33
$GPGGA,130007.00,4928.00515,N,01104.89874,E,1,08,1.06,317.5,M,47.0,M,,*5D
$GPRMC,130008.00,A,4927.99804,N,01104.90075,E,24.940,171.32,260311,,,A*55
$GPVTG,171.32,T,,M,24.940,N,46.189,K,A*32
$GPGGA,130008.00,4927.99804,N,01104.90075,E,1,08,1.06,317.1,M,47.0,M,,*55
$GPRMC,130009.00,A,4927.99149,N,01104.90271,E,22.557,170.07,260311,,,A*59
$GPVTG,170.07,T,,M,22.557,N,41.776,K,A*38
$GPGGA,130009.00,4927.99149,N,01104.90271,E,1,08,1.06,317.1,M,47.0,M,,*52
$GPRMC,130010.00,A,4927.98565,N,01104.90431,E,19.034,169.27,260311,,,A*5A
$GPVTG,169.27,T,,M,19.034,N,35.251,K,A*39
$GPGGA,130010.00,4927.98565,N,01104.90431,E,1,08,1.06,317.2,M,47.0,M,,*50
$GPRMC,130011.00,A,4927.98091,N,01104.90518,E,16.411,168.61,260311,,,A*50
$GPVTG,168.61,T,,M,16.411,N,30.393,K,A*3C
$GPGGA,130011.00,4927.98091,N,01104.90518,E,1,08,1.06,317.0,M,47.0,M,,*57
$GPRMC,130012.00,A,4927.97700,N,01104.90675,E,14.335,167.94,260311,,,A*5D
$GPVTG,167.94,T,,M,14.335,N,26.549,K,A*3C
$GPGGA,130012.00,4927.97700,N,01104.90675,E,1,08,1.06,316.5,M,47.0,M,,*58
$GPRMC,130013.00,A,4927.97340,N,01104.90755,E,11.195,168.61,260311,,,A*57
$GPVTG,168.61,T,,M,11.195,N,20.734,K,A*3A
$GPGGA,130013.00,4927.97340,N,01104.90755,E,1,08,1.06,317.8,M,47.0,M,,*56
$GPRMC,130014.00,A,4927.97076,N,01104.90867,E,8.184,167.45,260311,,,A*69
$GPVTG,167.45,T,,M,8.184,N,15.158,K,A*01
$GPGGA,130014.00,4927.97076,N,01104.90867,E,1,08,1.06,317.9,M,47.0,M,,*58
$GPRMC,130015.00,A,4927.96859,N,01104.90929,E,7.360,167.02,260311,,,A*63
$GPVTG,167.02,T,,M,7.360,N,13.632,K,A*08
$GPGGA,130015.00,4927.96859,N,01104.90929,E,1,08,1.06,317.9,M,47.0,M,,*56
$GPRMC,130016.00,A,4927.96621,N,01104.90996,E,9.551,166.65,260311,,,A*6F
$GPVTG,166.65,T,,M,9.551,N,17.689,K,A*06
$GPGGA,130016.00,4927.96621,N,01104.90996,E,1,08,1.06,317.9,M,47.0,M,,*50
$GPRMC,130017.00,A,4927.96321,N,01104.91097,E,13.090,167.06,260311,,,A*55
$GPVTG,167.06,T,,M,13.090,N,24.242,K,A*32
$GPGGA,130017.00,4927.96321,N,01104.91097,E,1,08,1.06,317.9,M,47.0,M,,*5D
$GPRMC,130018.00,A,4927.95936,N,01104.91205,E,14.458,167.58,260311,,,A*50
$GPVTG,167.58,T,,M,14.458,N,26.776,K,A*3E
$GPGGA,130018.00,4927.95936,N,01104.91205,E,1,08,1.06,318.1,M,47.0,M,,*53
$GPRMC,130019.00,A,4927.95505,N,01104.91346,E,16.926,167.32,260311,,,A*51
$GPVTG,167.32,T,,M,16.926,N,31.347,K,A*34
$GPGGA,130019.00,4927.95505,N,01104.91346,E,1,08,1.06,318.0,M,47.0,M,,*59
$GPRMC,130020.00,A,4927.94994,N,01104.91502,E,19.665,166.85,260311,,,A*52
$GPVTG,166.85,T,,M,19.665,N,36.420,K,A*3F
$GPGGA,130020.00,4927.94994,N,01104.91502,E,1,08,1.06,318.6,M,47.0,M,,*56
$GPRMC,130021.00,A,4927.94455,N,01104.91671,E,20.384,168.73,260311,,,A*53
$GPVTG,168.73,T,,M,20.384,N,37.752,K,A*3F
$GPGGA,130021.00,4927.94455,N,01104.91671,E,1,08,1.06,318.6,M,47.0,M,,*50
$GPRMC,130022.00,A,4927.93883,N,01104.91840,E,20.416,168.62,260311,,,A*50
$GPVTG,168.62,T,,M,20.416,N,37.811,K,A*3B
$GPGGA,130022.00,4927.93883,N,01104.91840,E,1,08,1.06,318.6,M,47.0,M,,*5F
$GPRMC,130023.00,A,4927.93350,N,01104.92011,E,18.596,168.52,260311,,,A*5A
$GPVTG,168.52,T,,M,18.596,N,34.439,K,A*3F
$GPGGA,130023.00,4927.93350,N,01104.92011,E,1,08,1.06,318.7,M,47.0,M,,*55
$GPRMC,130024.00,A,4927.92867,N,01104.92107,E,15.245,171.08,260311,,,A*56
$GPVTG,171.08,T,,M,15.245,N,28.234,K,A*3A
$GPGGA,130024.00,4927.92867,N,01104.92107,E,1,08,1.06,319.0,M,47.0,M,,*5C
$GPRMC,130025.00,A,4927.92519,N,01104.92079,E,10.945,182.82,260311,,,A*5B
$GPVTG,182.82,T,,M,10.945,N,20.271,K,A*33
$GPGGA,130025.00,4927.92519,N,01104.92079,E,1,08,1.06,319.1,M,47.0,M,,*50
$GPRMC,130026.00,A,4927.92306,N,01104.91878,E,8.658,197.62,260311,,,A*6A
$GPVTG,197.62,T,,M,8.658,N,16.034,K,A*05
$GPGGA,130026.00,4927.92306,N,01104.91878,E,1,08,1.06,319.0,M,47.0,M,,*50
$GPRMC,130027.00,A,4927.92131,N,01104.91532,E,9.331,219.68,260311,,,A*6A
$GPVTG,219.68,T,,M,9.331,N,17.282,K,A*0F
$GPGGA,130027.00,4927.92131,N,01104.91532,E,1,08,1.06,319.0,M,47.0,M,,*54
$GPRMC,130028.00,A,4927.92116,N,01104.91009,E,14.360,242.66,260311,,,A*55
$GPVTG,242.66,T,,M,14.360,N,26.595,K,A*34
$GPGGA,130028.00,4927.92116,N,01104.91009,E,1,08,1.06,318.7,M,47.0,M,,*55
$GPRMC,130029.00,A,4927.92004,N,01104.90249,E,16.851,256.09,260311,,,A*56
$GPVTG,256.09,T,,M,16.851,N,31.208,K,A*36
$GPGGA,130029.00,4927.92004,N,01104.90249,E,1,08,1.06,318.5,M,47.0,M,,*53
$GPRMC,130030.00,A,4927.91911,N,01104.89449,E,18.387,257.16,260311,,,A*5F
$GPVTG,257.16,T,,M,18.387,N,34.052,K,A*3F
$GPGGA,130030.00,4927.91911,N,01104.89449,E,1,08,1.06,318.1,M,47.0,M,,*5F
$GPRMC,130031.00,A,4927.91848,N,01104.88558,E,23.238,262.16,260311,,,A*58
$GPVTG,262.16,T,,M,23.238,N,43.036,K,A*36
$GPGGA,130031.00,4927.91848,N,01104.88558,E,1,08,1.06,318.1,M,47.0,M,,*53
$GPRMC,130032.00,A,4927.91822,N,01104.87412,E,28.264,266.28,260311,,,A*5C
$GPVTG,266.28,T,,M,28.264,N,52.345,K,A*3A
$GPGGA,130032.00,4927.91822,N,01104.87412,E,1,08,1.06,318.0,M,47.0,M,,*5D
$GPRMC,130033.00,A,4927.91773,N,01104.86144,E,30.923,266.75,260311,,,A*58
$GPVTG,266.75,T,,M,30.923,N,57.268,K,A*38
$GPGGA,130033.00,4927.91773,N,01104.86144,E,1,08,1.06,318.0,M,47.0,M,,*50
$GPRMC,130034.00,A,4927.91724,N,01104.84897,E,29.212,266.07,260311,,,A*5C
$GPVTG,266.07,T,,M,29.212,N,54.101,K,A*33
$GPGGA,130034.00,4927.91724,N,01104.84897,E,1,08,1.24,318.3,M,47.0,M,,*53
$GPRMC,130035.00,A,4927.91735,N,01104.83718,E,26.597,265.96,260311,,,A*5C
$GPVTG,265.96,T,,M,26.597,N,49.257,K,A*31
$GPGGA,130035.00,4927.91735,N,01104.83718,E,1,08,1.06,318.7,M,47.0,M,,*59
$GPRMC,130036.00,A,4927.91726,N,01104.82822,E,18.290,266.38,260311,,,A*50
$GPVTG,266.38,T,,M,18.290,N,33.873,K,A*3A
$GPGGA,130036.00,4927.91726,N,01104.82822,E,1,08,1.06,318.8,M,47.0,M,,*50
$GPRMC,130037.00,A,4927.91720,N,01104.82230,E,11.669,270.13,260311,,,A*5B
$GPVTG,270.13,T,,M,11.669,N,21.611,K,A*36
$GPGGA,130037.00,4927.91720,N,01104.82230,E,1,08,1.06,319.0,M,47.0,M,,*57
$GPRMC,130038.00,A,4927.91732,N,01104.81871,E,6.492,271.89,260311,,,A*69
$GPVTG,271.89,T,,M,6.492,N,12.022,K,A*02
$GPGGA,130038.00,4927.91732,N,01104.81871,E,1,07,1.54,319.3,M,47.0,M,,*5C
$GPRMC,130039.00,A,4927.91733,N,01104.81681,E,2.256,272.22,260311,,,A*60
$GPVTG,272.22,T,,M,2.256,N,4.177,K,A*3C
$GPGGA,130039.00,4927.91733,N,01104.81681,E,1,07,1.54,319.5,M,47.0,M,,*5B
$GPRMC,130040.00,A,4927.91723,N,01104.81608,E,0.995,,260311,,,A*71
$GPVTG,,T,,M,0.995,N,1.843,K,A*28
$GPGGA,130040.00,4927.91723,N,01104.81608,E,1,08,1.54,319.5,M,47.0,M,,*5A
$GPRMC,130041.00,A,4927.91704,N,01104.81518,E,0.509,270.69,260311,,,A*6A
$GPVTG,270.69,T,,M,0.509,N,0.943,K,A*35
$GPGGA,130041.00,4927.91704,N,01104.81518,E,1,08,1.06,320.0,M,47.0,M,,*54
$GPRMC,130042.00,A,4927.91685,N,01104.81511,E,0.083,,260311,,,A*7B
$GPVTG,,T,,M,0.083,N,0.153,K,A*2F
$GPGGA,130042.00,4927.91685,N,01104.81511,E,1,08,1.54,319.6,M,47.0,M,,*5D
$GPRMC,130043.00,A,4927.91669,N,01104.81514,E,0.114,,260311,,,A*72
$GPVTG,,T,,M,0.114,N,0.210,K,A*24
$GPGGA,130043.00,4927.91669,N,01104.81514,E,1,08,1.06,319.4,M,47.0,M,,*5E
$GPRMC,130044.00,A,4927.91645,N,01104.81499,E,0.100,,260311,,,A*7A
$GPVTG,,T,,M,0.100,N,0.186,K,A*2D
$GPGGA,130044.00,4927.91645,N,01104.81499,E,1,08,1.06,319.2,M,47.0,M,,*55
$GPRMC,130045.00,A,4927.91634,N,01104.81431,E,2.390,269.10,260311,,,A*64
$GPVTG,269.10,T,,M,2.390,N,4.426,K,A*3D
$GPGGA,130045.00,4927.91634,N,01104.81431,E,1,08,1.06,319.3,M,47.0,M,,*51
$GPRMC,130046.00,A,4927.91618,N,01104.81191,E,7.446,266.49,260311,,,A*6C
$GPVTG,266.49,T,,M,7.446,N,13.791,K,A*0E
$GPGGA,130046.00,4927.91618,N,01104.81191,E,1,08,1.06,319.3,M,47.0,M,,*53
$GPRMC,130047.00,A,4927.91608,N,01104.80818,E,9.854,267.62,260311,,,A*6C
$GPVTG,267.62,T,,M,9.854,N,18.249,K,A*0C
$GPGGA,130047.00,4927.91608,N,01104.80818,E,1,08,1.06,319.1,M,47.0,M,,*58
$GPRMC,130048.00,A,4927.91597,N,01104.80364,E,10.251,266.34,260311,,,A*53
$GPVTG,266.34,T,,M,10.251,N,18.985,K,A*32
$GPGGA,130048.00,4927.91597,N,01104.80364,E,1,08,1.06,319.0,M,47.0,M,,*53
$GPRMC,130049.00,A,4927.91579,N,01104.79897,E,10.427,266.08,260311,,,A*5B
$GPVTG,266.08,T,,M,10.427,N,19.311,K,A*3C
$GPGGA,130049.00,4927.91579,N,01104.79897,E,1,08,1.06,318.8,M,47.0,M,,*5A
$GPRMC,130050.00,A,4927.91569,N,01104.79404,E,11.916,267.46,260311,,,A*51
$GPVTG,267.46,T,,M,11.916,N,22.069,K,A*3D
$GPGGA,130050.00,4927.91569,N,01104.79404,E,1,08,1.06,318.8,M,47.0,M,,*55
$GPRMC,130051.00,A,4927.91573,N,01104.78845,E,13.904,268.80,260311,,,A*57
$GPVTG,268.80,T,,M,13.904,N,25.749,K,A*3B
$GPGGA,130051.00,4927.91573,N,01104.78845,E,1,08,1.06,318.8,M,47.0,M,,*57
$GPRMC,130052.00,A,4927.91620,N,01104.78259,E,13.718,272.09,260311,,,A*5F
$GPVTG,272.09,T,,M,13.718,N,25.406,K,A*3A
$GPGGA,130052.00,4927.91620,N,01104.78259,E,1,08,1.06,318.8,M,47.0,M,,*56
$GPRMC,130053.00,A,4927.91613,N,01104.77599,E,14.139,272.08,260311,,,A*59
$GPVTG,272.08,T,,M,14.139,N,26.186,K,A*37
$GPGGA,130053.00,4927.91613,N,01104.77599,E,1,07,1.24,318.8,M,47.0,M,,*5C
$GPRMC,130054.00,A,4927.91598,N,01104.76962,E,14.456,268.51,260311,,,A*5C
$GPVTG,268.51,T,,M,14.456,N,26.772,K,A*31
$GPGGA,130054.00,4927.91598,N,01104.76962,E,1,08,1.24,318.8,M,47.0,M,,*5D
$GPRMC,130055.00,A,4927.91568,N,01104.76344,E,13.836,269.26,260311,,,A*50
$GPVTG,269.26,T,,M,13.836,N,25.624,K,A*3C
$GPGGA,130055.00,4927.91568,N,01104.76344,E,1,08,1.06,318.8,M,47.0,M,,*5D
$GPRMC,130056.00,A,4927.91564,N,01104.75759,E,13.097,269.83,260311,,,A*58
$GPVTG,269.83,T,,M,13.097,N,24.256,K,A*30
$GPGGA,130056.00,4927.91564,N,01104.75759,E,1,08,1.06,318.7,M,47.0,M,,*56
$GPRMC,130057.00,A,4927.91562,N,01104.75209,E,12.336,269.68,260311,,,A*53
$GPVTG,269.68,T,,M,12.336,N,22.845,K,A*32
$GPGGA,130057.00,4927.91562,N,01104.75209,E,1,08,1.06,318.6,M,47.0,M,,*50
$GPRMC,130058.00,A,4927.91566,N,01104.74711,E,10.550,268.93,260311,,,A*54
$GPVTG,268.93,T,,M,10.550,N,19.540,K,A*33
$GPGGA,130058.00,4927.91566,N,01104.74711,E,1,08,1.06,318.4,M,47.0,M,,*54
$GPRMC,130059.00,A,4927.91534,N,01104.74310,E,8.800,266.87,260311,,,A*6D
$GPVTG,266.87,T,,M,8.800,N,16.297,K,A*0B
$GPGGA,130059.00,4927.91534,N,01104.74310,E,1,08,1.06,318.4,M,47.0,M,,*57
$GPRMC,130100.00,A,4927.91514,N,01104.73944,E,8.391,265.93,260311,,,A*6B
$GPVTG,265.93,T,,M,8.391,N,15.541,K,A*01
$GPGGA,130100.00,4927.91514,N,01104.73944,E,1,08,1.06,318.3,M,47.0,M,,*53
$GPRMC,130101.00,A,4927.91488,N,01104.73524,E,11.199,269.64,260311,,,A*52
$GPVTG,269.64,T,,M,11.199,N,20.740,K,A*32
$GPGGA,130101.00,4927.91488,N,01104.73524,E,1,08,1.06,318.2,M,47.0,M,,*5D
$GPRMC,130102.00,A,4927.91485,N,01104.72972,E,14.481,270.93,260311,,,A*5B
$GPVTG,270.93,T,,M,14.481,N,26.819,K,A*3E
$GPGGA,130102.00,4927.91485,N,01104.72972,E,1,08,1.06,318.1,M,47.0,M,,*5E
$GPRMC,130103.00,A,4927.91463,N,01104.72254,E,17.812,270.14,260311,,,A*57
$GPVTG,270.14,T,,M,17.812,N,32.988,K,A*38
$GPGGA,130103.00,4927.91463,N,01104.72254,E,1,08,1.06,318.1,M,47.0,M,,*58
$GPRMC,130104.00,A,4927.91466,N,01104.71465,E,18.390,271.85,260311,,,A*55
$GPVTG,271.85,T,,M,18.390,N,34.059,K,A*3C
$GPGGA,130104.00,4927.91466,N,01104.71465,E,1,08,1.06,318.0,M,47.0,M,,*5C
$GPRMC,130105.00,A,4927.91489,N,01104.70668,E,18.599,272.61,260311,,,A*5D
$GPVTG,272.61,T,,M,18.599,N,34.446,K,A*30
$GPGGA,130105.00,4927.91489,N,01104.70668,E,1,08,1.06,317.7,M,47.0,M,,*5A
$GPRMC,130106.00,A,4927.91507,N,01104.69865,E,18.281,273.30,260311,,,A*59
$GPVTG,273.30,T,,M,18.281,N,33.856,K,A*31
$GPGGA,130106.00,4927.91507,N,01104.69865,E,1,08,1.06,317.5,M,47.0,M,,*57
$GPRMC,130107.00,A,4927.91533,N,01104.69083,E,18.166,272.46,260311,,,A*55
$GPVTG,272.46,T,,M,18.166,N,33.643,K,A*31
$GPGGA,130107.00,4927.91533,N,01104.69083,E,1,08,1.06,317.3,M,47.0,M,,*57
$GPRMC,130108.00,A,4927.91555,N,01104.68285,E,18.856,271.77,260311,,,A*54
$GPVTG,271.77,T,,M,18.856,N,34.922,K,A*35
$GPGGA,130108.00,4927.91555,N,01104.68285,E,1,08,1.06,317.3,M,47.0,M,,*5D
$GPRMC,130109.00,A,4927.91570,N,01104.67444,E,19.168,272.33,260311,,,A*50
$GPVTG,272.33,T,,M,19.168,N,35.499,K,A*3F
$GPGGA,130109.00,4927.91570,N,01104.67444,E,1,08,1.06,317.7,M,47.0,M,,*5B
$GPRMC,130110.00,A,4927.91586,N,01104.66572,E,20.293,271.93,260311,,,A*50
$GPVTG,271.93,T,,M,20.293,N,37.582,K,A*32
$GPGGA,130110.00,4927.91586,N,01104.66572,E,1,08,1.06,318.0,M,47.0,M,,*57
$GPRMC,130111.00,A,4927.91579,N,01104.65711,E,20.131,270.56,260311,,,A*56
$GPVTG,270.56,T,,M,20.131,N,37.283,K,A*37
$GPGGA,130111.00,4927.91579,N,01104.65711,E,1,08,1.06,317.8,M,47.0,M,,*55
$GPRMC,130112.00,A,4927.91571,N,01104.64862,E,19.570,269.92,260311,,,A*5C
$GPVTG,269.92,T,,M,19.570,N,36.244,K,A*36
$GPGGA,130112.00,4927.91571,N,01104.64862,E,1,08,1.06,317.6,M,47.0,M,,*5A
$GPRMC,130113.00,A,4927.91543,N,01104.64040,E,18.783,267.49,260311,,,A*53
$GPVTG,267.49,T,,M,18.783,N,34.787,K,A*39
$GPGGA,130113.00,4927.91543,N,01104.64040,E,1,08,1.06,317.3,M,47.0,M,,*57
$GPRMC,130114.00,A,4927.91508,N,01104.63229,E,19.088,268.37,260311,,,A*5A
$GPVTG,268.37,T,,M,19.088,N,35.351,K,A*3C
$GPGGA,130114.00,4927.91508,N,01104.63229,E,1,08,1.06,317.0,M,47.0,M,,*56
$GPRMC,130115.00,A,4927.91478,N,01104.62411,E,19.329,268.97,260311,,,A*53
$GPVTG,268.97,T,,M,19.329,N,35.797,K,A*30
$GPGGA,130115.00,4927.91478,N,01104.62411,E,1,08,1.06,316.8,M,47.0,M,,*54
$GPRMC,130116.00,A,4927.91468,N,01104.61583,E,19.283,269.69,260311,,,A*59
$GPVTG,269.69,T,,M,19.283,N,35.711,K,A*3F
$GPGGA,130116.00,4927.91468,N,01104.61583,E,1,08,1.06,316.5,M,47.0,M,,*52
$GPRMC,130117.00,A,4927.91469,N,01104.60771,E,18.438,269.55,260311,,,A*5F
$GPVTG,269.55,T,,M,18.438,N,34.148,K,A*3C
$GPGGA,130117.00,4927.91469,N,01104.60771,E,1,08,1.06,316.6,M,47.0,M,,*5F
$GPRMC,130118.00,A,4927.91474,N,01104.59957,E,18.528,270.48,260311,,,A*58
$GPVTG,270.48,T,,M,18.528,N,34.314,K,A*33
$GPGGA,130118.00,4927.91474,N,01104.59957,E,1,08,1.06,316.4,M,47.0,M,,*5E
$GPRMC,130119.00,A,4927.91486,N,01104.59133,E,19.300,270.93,260311,,,A*55
$GPVTG,270.93,T,,M,19.300,N,35.743,K,A*3F
$GPGGA,130119.00,4927.91486,N,01104.59133,E,1,08,1.06,316.1,M,47.0,M,,*5D
$GPRMC,130120.00,A,4927.91497,N,01104.58300,E,19.555,270.52,260311,,,A*57
$GPVTG,270.52,T,,M,19.555,N,36.216,K,A*32
$GPGGA,130120.00,4927.91497,N,01104.58300,E,1,08,1.06,315.9,M,47.0,M,,*5F
$GPRMC,130121.00,A,4927.91492,N,01104.57484,E,18.830,269.94,260311,,,A*5A
$GPVTG,269.94,T,,M,18.830,N,34.872,K,A*35
$GPGGA,130121.00,4927.91492,N,01104.57484,E,1,08,1.06,315.7,M,47.0,M,,*51
$GPRMC,130122.00,A,4927.91492,N,01104.56701,E,18.100,268.79,260311,,,A*5E
$GPVTG,268.79,T,,M,18.100,N,33.522,K,A*32
$GPGGA,130122.00,4927.91492,N,01104.56701,E,1,08,1.06,315.7,M,47.0,M,,*5D
$GPRMC,130123.00,A,4927.91479,N,01104.55938,E,18.072,267.46,260311,,,A*5A
$GPVTG,267.46,T,,M,18.072,N,33.470,K,A*33
$GPGGA,130123.00,4927.91479,N,01104.55938,E,1,08,1.06,315.4,M,47.0,M,,*5D
$GPRMC,130124.00,A,4927.91444,N,01104.55191,E,17.355,266.78,260311,,,A*5D
$GPVTG,266.78,T,,M,17.355,N,32.142,K,A*33
$GPGGA,130124.00,4927.91444,N,01104.55191,E,1,08,1.06,315.5,M,47.0,M,,*5E
$GPRMC,130125.00,A,4927.91394,N,01104.54429,E,18.364,265.37,260311,,,A*54
$GPVTG,265.37,T,,M,18.364,N,34.009,K,A*3E
$GPGGA,130125.00,4927.91394,N,01104.54429,E,1,08,1.06,315.5,M,47.0,M,,*52
$GPRMC,130126.00,A,4927.91336,N,01104.53602,E,20.181,263.72,260311,,,A*56
$GPVTG,263.72,T,,M,20.181,N,37.375,K,A*30
$GPGGA,130126.00,4927.91336,N,01104.53602,E,1,08,1.06,315.5,M,47.0,M,,*55
$GPRMC,130127.00,A,4927.91202,N,01104.52655,E,22.660,260.30,260311,,,A*5D
$GPVTG,260.30,T,,M,22.660,N,41.967,K,A*37
$GPGGA,130127.00,4927.91202,N,01104.52655,E,1,08,1.06,315.4,M,47.0,M,,*50
$GPRMC,130128.00,A,4927.91097,N,01104.51624,E,24.250,260.82,260311,,,A*51
$GPVTG,260.82,T,,M,24.250,N,44.911,K,A*3B
$GPGGA,130128.00,4927.91097,N,01104.51624,E,1,08,1.06,315.2,M,47.0,M,,*52
$GPRMC,130129.00,A,4927.90996,N,01104.50616,E,24.117,260.69,260311,,,A*5C
$GPVTG,260.69,T,,M,24.117,N,44.665,K,A*32
$GPGGA,130129.00,4927.90996,N,01104.50616,E,1,08,1.06,315.0,M,47.0,M,,*58
$GPRMC,130130.00,A,4927.90906,N,01104.49618,E,23.305,260.90,260311,,,A*5B
$GPVTG,260.90,T,,M,23.305,N,43.161,K,A*36
$GPGGA,130130.00,4927.90906,N,01104.49618,E,1,08,1.06,314.9,M,47.0,M,,*57
$GPRMC,130131.00,A,4927.90813,N,01104.48662,E,22.253,261.28,260311,,,A*52
$GPVTG,261.28,T,,M,22.253,N,41.213,K,A*33
$GPGGA,130131.00,4927.90813,N,01104.48662,E,1,08,1.06,314.8,M,47.0,M,,*5E
$GPRMC,130132.00,A,4927.90776,N,01104.47775,E,20.167,264.79,260311,,,A*52
$GPVTG,264.79,T,,M,20.167,N,37.349,K,A*3B
$GPGGA,130132.00,4927.90776,N,01104.47775,E,1,07,1.24,314.7,M,47.0,M,,*59
$GPRMC,130133.00,A,4927.90718,N,01104.46918,E,20.072,263.68,260311,,,A*5D
$GPVTG,263.68,T,,M,20.072,N,37.174,K,A*35
$GPGGA,130133.00,4927.90718,N,01104.46918,E,1,08,1.06,314.8,M,47.0,M,,*54
$GPRMC,130134.00,A,4927.90641,N,01104.46078,E,19.824,262.87,260311,,,A*59
$GPVTG,262.87,T,,M,19.824,N,36.714,K,A*35
$GPGGA,130134.00,4927.90641,N,01104.46078,E,1,08,1.24,314.9,M,47.0,M,,*50
$GPRMC,130135.00,A,4927.90560,N,01104.45206,E,20.348,262.03,260311,,,A*57
$GPVTG,262.03,T,,M,20.348,N,37.684,K,A*3B
$GPGGA,130135.00,4927.90560,N,01104.45206,E,1,08,1.06,314.8,M,47.0,M,,*58
$GPRMC,130136.00,A,4927.90481,N,01104.44345,E,19.965,261.05,260311,,,A*57
$GPVTG,261.05,T,,M,19.965,N,36.975,K,A*31
$GPGGA,130136.00,4927.90481,N,01104.44345,E,1,08,1.06,314.7,M,47.0,M,,*5D
$GPRMC,130137.00,A,4927.90407,N,01104.43497,E,19.608,261.92,260311,,,A*5D
$GPVTG,261.92,T,,M,19.608,N,36.313,K,A*31
$GPGGA,130137.00,4927.90407,N,01104.43497,E,1,08,1.06,314.5,M,47.0,M,,*5F
$GPRMC,130138.00,A,4927.90359,N,01104.42659,E,19.084,262.93,260311,,,A*5F
$GPVTG,262.93,T,,M,19.084,N,35.343,K,A*37
$GPGGA,130138.00,4927.90359,N,01104.42659,E,1,08,1.06,314.3,M,47.0,M,,*5B
$GPRMC,130139.00,A,4927.90276,N,01104.41867,E,18.274,261.63,260311,,,A*52
$GPVTG,261.63,T,,M,18.274,N,33.844,K,A*3D
$GPGGA,130139.00,4927.90276,N,01104.41867,E,1,08,1.06,314.8,M,47.0,M,,*5D
$GPRMC,130140.00,A,4927.90193,N,01104.41163,E,15.737,260.83,260311,,,A*59
$GPVTG,260.83,T,,M,15.737,N,29.145,K,A*3E
$GPGGA,130140.00,4927.90193,N,01104.41163,E,1,08,1.06,314.6,M,47.0,M,,*58
$GPRMC,130141.00,A,4927.90099,N,01104.40619,E,12.827,261.67,260311,,,A*5A
$GPVTG,261.67,T,,M,12.827,N,23.756,K,A*32
$GPGGA,130141.00,4927.90099,N,01104.40619,E,1,08,1.06,314.2,M,47.0,M,,*5D
$GPRMC,130142.00,A,4927.89973,N,01104.40233,E,10.339,251.96,260311,,,A*5B
$GPVTG,251.96,T,,M,10.339,N,19.148,K,A*39
$GPGGA,130142.00,4927.89973,N,01104.40233,E,1,08,1.06,314.0,M,47.0,M,,*55
$GPRMC,130143.00,A,4927.89771,N,01104.39967,E,9.171,240.54,260311,,,A*6A
$GPVTG,240.54,T,,M,9.171,N,16.984,K,A*06
$GPGGA,130143.00,4927.89771,N,01104.39967,E,1,08,1.06,313.9,M,47.0,M,,*52
$GPRMC,130144.00,A,4927.89573,N,01104.39840,E,7.501,225.45,260311,,,A*67
$GPVTG,225.45,T,,M,7.501,N,13.891,K,A*08
$GPGGA,130144.00,4927.89573,N,01104.39840,E,1,08,1.06,313.7,M,47.0,M,,*5F
$GPRMC,130145.00,A,4927.89299,N,01104.39861,E,10.097,207.30,260311,,,A*58
$GPVTG,207.30,T,,M,10.097,N,18.700,K,A*3A
$GPGGA,130145.00,4927.89299,N,01104.39861,E,1,07,1.09,313.8,M,47.0,M,,*51
$GPRMC,130146.00,A,4927.88971,N,01104.39985,E,12.856,192.86,260311,,,A*59
$GPVTG,192.86,T,,M,12.856,N,23.810,K,A*39
$GPGGA,130146.00,4927.88971,N,01104.39985,E,1,07,1.09,314.0,M,47.0,M,,*5A
$GPRMC,130147.00,A,4927.88613,N,01104.40161,E,15.568,180.55,260311,,,A*55
$GPVTG,180.55,T,,M,15.568,N,28.832,K,A*38
$GPGGA,130147.00,4927.88613,N,01104.40161,E,1,08,1.09,314.1,M,47.0,M,,*52
$GPRMC,130148.00,A,4927.88280,N,01104.40390,E,13.650,172.60,260311,,,A*5D
$GPVTG,172.60,T,,M,13.650,N,25.279,K,A*35
$GPGGA,130148.00,4927.88280,N,01104.40390,E,1,08,1.06,314.2,M,47.0,M,,*53
$GPRMC,130149.00,A,4927.87960,N,01104.40672,E,14.585,164.94,260311,,,A*5F
$GPVTG,164.94,T,,M,14.585,N,27.011,K,A*3B
$GPGGA,130149.00,4927.87960,N,01104.40672,E,1,08,1.06,314.2,M,47.0,M,,*51
$GPRMC,130150.00,A,4927.87640,N,01104.40968,E,13.123,160.89,260311,,,A*59
$GPVTG,160.89,T,,M,13.123,N,24.304,K,A*38
$GPGGA,130150.00,4927.87640,N,01104.40968,E,1,08,1.06,314.3,M,47.0,M,,*51
$GPRMC,130151.00,A,4927.87274,N,01104.41304,E,12.755,156.33,260311,,,A*58
$GPVTG,156.33,T,,M,12.755,N,23.621,K,A*3F
$GPGGA,130151.00,4927.87274,N,01104.41304,E,1,08,1.06,314.4,M,47.0,M,,*55
$GPRMC,130152.00,A,4927.86901,N,01104.41616,E,11.149,154.30,260311,,,A*5C
$GPVTG,154.30,T,,M,11.149,N,20.647,K,A*35
$GPGGA,130152.00,4927.86901,N,01104.41616,E,1,08,1.06,314.4,M,47.0,M,,*58
$GPRMC,130153.00,A,4927.86660,N,01104.41832,E,7.833,154.56,260311,,,A*6E
$GPVTG,154.56,T,,M,7.833,N,14.506,K,A*07
$GPGGA,130153.00,4927.86660,N,01104.41832,E,1,08,1.06,314.5,M,47.0,M,,*58
$GPRMC,130154.00,A,4927.86478,N,01104.41923,E,4.586,154.52,260311,,,A*67
$GPVTG,154.52,T,,M,4.586,N,8.493,K,A*33
$GPGGA,130154.00,4927.86478,N,01104.41923,E,1,08,1.06,314.7,M,47.0,M,,*57
$GPRMC,130155.00,A,4927.86359,N,01104.42048,E,1.495,,260311,,,A*7A
$GPVTG,,T,,M,1.495,N,2.769,K,A*20
$GPGGA,130155.00,4927.86359,N,01104.42048,E,1,08,1.09,314.9,M,47.0,M,,*54
$GPRMC,130156.00,A,4927.86235,N,01104.42341,E,0.881,,260311,,,A*70
$GPVTG,,T,,M,0.881,N,1.631,K,A*27
$GPGGA,130156.00,4927.86235,N,01104.42341,E,1,08,1.09,315.2,M,47.0,M,,*5C
$GPRMC,130157.00,A,4927.86115,N,01104.42519,E,2.537,153.76,260311,,,A*61
$GPVTG,153.76,T,,M,2.537,N,4.698,K,A*3B
$GPGGA,130157.00,4927.86115,N,01104.42519,E,1,08,1.06,315.4,M,47.0,M,,*5E
$GPRMC,130158.00,A,4927.85928,N,01104.42674,E,7.289,150.27,260311,,,A*63
$GPVTG,150.27,T,,M,7.289,N,13.499,K,A*0E
$GPGGA,130158.00,4927.85928,N,01104.42674,E,1,08,1.06,315.5,M,47.0,M,,*5D
$GPRMC,130159.00,A,4927.85659,N,01104.42946,E,10.574,145.16,260311,,,A*50
$GPVTG,145.16,T,,M,10.574,N,19.583,K,A*3B
$GPGGA,130159.00,4927.85659,N,01104.42946,E,1,08,1.06,315.5,M,47.0,M,,*5B
$GPRMC,130200.00,A,4927.85337,N,01104.43266,E,11.800,146.14,260311,,,A*54
$GPVTG,146.14,T,,M,11.800,N,21.853,K,A*3E
$GPGGA,130200.00,4927.85337,N,01104.43266,E,1,08,1.06,315.5,M,47.0,M,,*51
$GPRMC,130201.00,A,4927.85031,N,01104.43518,E,12.510,148.45,260311,,,A*5B
$GPVTG,148.45,T,,M,12.510,N,23.168,K,A*38
$GPGGA,130201.00,4927.85031,N,01104.43518,E,1,08,1.06,315.3,M,47.0,M,,*5D
$GPRMC,130202.00,A,4927.84687,N,01104.43599,E,13.988,156.87,260311,,,A*56
$GPVTG,156.87,T,,M,13.988,N,25.906,K,A*33
$GPGGA,130202.00,4927.84687,N,01104.43599,E,1,08,1.12,315.1,M,47.0,M,,*5A
$GPRMC,130203.00,A,4927.84341,N,01104.43702,E,14.386,161.56,260311,,,A*53
$GPVTG,161.56,T,,M,14.386,N,26.642,K,A*34
$GPGGA,130203.00,4927.84341,N,01104.43702,E,1,08,1.12,315.0,M,47.0,M,,*55
$GPRMC,130204.00,A,4927.83964,N,01104.43930,E,14.465,160.73,260311,,,A*5D
$GPVTG,160.73,T,,M,14.465,N,26.790,K,A*36
$GPGGA,130204.00,4927.83964,N,01104.43930,E,1,08,1.12,315.1,M,47.0,M,,*56
$GPRMC,130205.00,A,4927.83555,N,01104.44200,E,15.110,159.71,260311,,,A*53
$GPVTG,159.71,T,,M,15.110,N,27.984,K,A*32
$GPGGA,130205.00,4927.83555,N,01104.44200,E,1,08,1.12,315.2,M,47.0,M,,*55
$GPRMC,130206.00,A,4927.83102,N,01104.44520,E,15.776,157.93,260311,,,A*57
$GPVTG,157.93,T,,M,15.776,N,29.218,K,A*36
$GPGGA,130206.00,4927.83102,N,01104.44520,E,1,08,1.12,315.3,M,47.0,M,,*54
$GPRMC,130207.00,A,4927.82751,N,01104.44837,E,14.712,154.68,260311,,,A*58
$GPVTG,154.68,T,,M,14.712,N,27.247,K,A*36
$GPGGA,130207.00,4927.82751,N,01104.44837,E,1,08,1.12,315.2,M,47.0,M,,*5E
$GPRMC,130208.00,A,4927.82438,N,01104.45043,E,13.018,156.71,260311,,,A*51
$GPVTG,156.71,T,,M,13.018,N,24.109,K,A*3C
$GPGGA,130208.00,4927.82438,N,01104.45043,E,1,08,1.12,315.1,M,47.0,M,,*54
$GPRMC,130209.00,A,4927.82176,N,01104.45241,E,10.802,158.13,260311,,,A*55
$GPVTG,158.13,T,,M,10.802,N,20.006,K,A*3C
$GPGGA,130209.00,4927.82176,N,01104.45241,E,1,08,1.06,314.9,M,47.0,M,,*56
$GPRMC,130210.00,A,4927.81780,N,01104.45744,E,12.670,151.12,260311,,,A*50
$GPVTG,151.12,T,,M,12.670,N,23.464,K,A*3E
$GPGGA,130210.00,4927.81780,N,01104.45744,E,1,08,1.12,314.7,M,47.0,M,,*59
$GPRMC,130211.00,A,4927.81529,N,01104.46062,E,8.754,149.32,260311,,,A*67
$GPVTG,149.32,T,,M,8.754,N,16.212,K,A*08
$GPGGA,130211.00,4927.81529,N,01104.46062,E,1,08,1.12,314.7,M,47.0,M,,*59
$GPRMC,130212.00,A,4927.81314,N,01104.46229,E,5.811,150.56,260311,,,A*68
$GPVTG,150.56,T,,M,5.811,N,10.761,K,A*06
$GPGGA,130212.00,4927.81314,N,01104.46229,E,1,08,1.12,315.0,M,47.0,M,,*59
$GPRMC,130213.00,A,4927.81088,N,01104.46171,E,3.468,,260311,,,A*7C
$GPVTG,,T,,M,3.468,N,6.423,K,A*29
$GPGGA,130213.00,4927.81088,N,01104.46171,E,1,08,1.18,315.1,M,47.0,M,,*5B
$GPRMC,130214.00,A,4927.80976,N,01104.46176,E,1.784,,260311,,,A*76
$GPVTG,,T,,M,1.784,N,3.304,K,A*2D
$GPGGA,130214.00,4927.80976,N,01104.46176,E,1,08,1.06,315.1,M,47.0,M,,*5D
$GPRMC,130215.00,A,4927.80707,N,01104.46708,E,2.210,,260311,,,A*7B
$GPVTG,,T,,M,2.210,N,4.092,K,A*2D
$GPGGA,130215.00,4927.80707,N,01104.46708,E,1,08,1.06,315.3,M,47.0,M,,*59
$GPRMC,130216.00,A,4927.80496,N,01104.46852,E,3.512,,260311,,,A*77
$GPVTG,,T,,M,3.512,N,6.505,K,A*20
$GPGGA,130216.00,4927.80496,N,01104.46852,E,1,08,1.06,315.3,M,47.0,M,,*51
$GPRMC,130217.00,A,4927.80240,N,01104.46882,E,5.288,173.46,260311,,,A*6D
$GPVTG,173.46,T,,M,5.288,N,9.794,K,A*3E
$GPGGA,130217.00,4927.80240,N,01104.46882,E,1,08,1.06,314.9,M,47.0,M,,*5B
$GPRMC,130218.00,A,4927.80144,N,01104.46638,E,8.443,195.72,260311,,,A*69
$GPVTG,195.72,T,,M,8.443,N,15.637,K,A*08
$GPGGA,130218.00,4927.80144,N,01104.46638,E,1,08,1.06,314.4,M,47.0,M,,*51
$GPRMC,130219.00,A,4927.80046,N,01104.46280,E,11.196,218.47,260311,,,A*59
$GPVTG,218.47,T,,M,11.196,N,20.735,K,A*38
$GPGGA,130219.00,4927.80046,N,01104.46280,E,1,08,1.06,313.9,M,47.0,M,,*5E
$GPRMC,130220.00,A,4927.80037,N,01104.45838,E,10.890,236.31,260311,,,A*5C
$GPVTG,236.31,T,,M,10.890,N,20.169,K,A*34
$GPGGA,130220.00,4927.80037,N,01104.45838,E,1,08,1.06,313.7,M,47.0,M,,*56
$GPRMC,130221.00,A,4927.79974,N,01104.45398,E,10.483,248.29,260311,,,A*5A
$GPVTG,248.29,T,,M,10.483,N,19.414,K,A*3F
$GPGGA,130221.00,4927.79974,N,01104.45398,E,1,08,1.06,313.4,M,47.0,M,,*5D
$GPRMC,130222.00,A,4927.79962,N,01104.44994,E,9.916,254.86,260311,,,A*68
$GPVTG,254.86,T,,M,9.916,N,18.365,K,A*0E
$GPGGA,130222.00,4927.79962,N,01104.44994,E,1,08,1.06,313.3,M,47.0,M,,*59
$GPRMC,130223.00,A,4927.79994,N,01104.44603,E,9.630,262.27,260311,,,A*64
$GPVTG,262.27,T,,M,9.630,N,17.835,K,A*0A
$GPGGA,130223.00,4927.79994,N,01104.44603,E,1,08,1.06,313.2,M,47.0,M,,*51
$GPRMC,130224.00,A,4927.79995,N,01104.44213,E,8.730,265.02,260311,,,A*67
$GPVTG,265.02,T,,M,8.730,N,16.168,K,A*0A
$GPGGA,130224.00,4927.79995,N,01104.44213,E,1,08,1.06,313.0,M,47.0,M,,*50
$GPRMC,130225.00,A,4927.80038,N,01104.43890,E,7.541,269.83,260311,,,A*66
$GPVTG,269.83,T,,M,7.541,N,13.966,K,A*07
$GPGGA,130225.00,4927.80038,N,01104.43890,E,1,08,1.06,313.0,M,47.0,M,,*5F
$GPRMC,130226.00,A,4927.80050,N,01104.43631,E,5.120,270.28,260311,,,A*66
$GPVTG,270.28,T,,M,5.120,N,9.482,K,A*33
$GPGGA,130226.00,4927.80050,N,01104.43631,E,1,08,1.53,312.9,M,47.0,M,,*5F
$GPRMC,130227.00,A,4927.79994,N,01104.43500,E,3.227,,260311,,,A*72
$GPVTG,,T,,M,3.227,N,5.976,K,A*2A
$GPGGA,130227.00,4927.79994,N,01104.43500,E,1,08,1.06,313.0,M,47.0,M,,*50
$GPRMC,130228.00,A,4927.79950,N,01104.43390,E,3.028,270.49,260311,,,A*61
$GPVTG,270.49,T,,M,3.028,N,5.607,K,A*38
$GPGGA,130228.00,4927.79950,N,01104.43390,E,1,08,1.06,313.1,M,47.0,M,,*59
$GPRMC,130229.00,A,4927.79928,N,01104.43199,E,5.737,270.15,260311,,,A*62
$GPVTG,270.15,T,,M,5.737,N,10.625,K,A*0A
$GPGGA,130229.00,4927.79928,N,01104.43199,E,1,08,1.06,313.0,M,47.0,M,,*5D
$GPRMC,130230.00,A,4927.79926,N,01104.42961,E,6.544,271.53,260311,,,A*6C
$GPVTG,271.53,T,,M,6.544,N,12.120,K,A*0C
$GPGGA,130230.00,4927.79926,N,01104.42961,E,1,08,1.06,313.0,M,47.0,M,,*55
$GPRMC,130231.00,A,4927.79960,N,01104.42630,E,9.571,274.09,260311,,,A*67
$GPVTG,274.09,T,,M,9.571,N,17.726,K,A*0A
$GPGGA,130231.00,4927.79960,N,01104.42630,E,1,08,1.06,313.0,M,47.0,M,,*5D
$GPRMC,130232.00,A,4927.79975,N,01104.42108,E,11.602,274.85,260311,,,A*56
$GPVTG,274.85,T,,M,11.602,N,21.487,K,A*3D
$GPGGA,130232.00,4927.79975,N,01104.42108,E,1,08,1.06,313.0,M,47.0,M,,*56
$GPRMC,130233.00,A,4927.79955,N,01104.41478,E,13.959,272.97,260311,,,A*52
$GPVTG,272.97,T,,M,13.959,N,25.851,K,A*38
$GPGGA,130233.00,4927.79955,N,01104.41478,E,1,08,1.06,313.1,M,47.0,M,,*55
$GPRMC,130234.00,A,4927.79924,N,01104.40837,E,13.197,272.55,260311,,,A*51
$GPVTG,272.55,T,,M,13.197,N,24.442,K,A*33
$GPGGA,130234.00,4927.79924,N,01104.40837,E,1,08,1.06,313.1,M,47.0,M,,*52
$GPRMC,130235.00,A,4927.79868,N,01104.40313,E,12.286,270.78,260311,,,A*5B
$GPVTG,270.78,T,,M,12.286,N,22.754,K,A*3E
$GPGGA,130235.00,4927.79868,N,01104.40313,E,1,08,1.06,313.1,M,47.0,M,,*57
$GPRMC,130236.00,A,4927.79810,N,01104.39815,E,11.487,269.66,260311,,,A*57
$GPVTG,269.66,T,,M,11.487,N,21.274,K,A*39
$GPGGA,130236.00,4927.79810,N,01104.39815,E,1,08,1.06,313.1,M,47.0,M,,*58
$GPRMC,130237.00,A,4927.79743,N,01104.39392,E,8.998,268.74,260311,,,A*62
$GPVTG,268.74,T,,M,8.998,N,16.663,K,A*06
$GPGGA,130237.00,4927.79743,N,01104.39392,E,1,08,1.06,312.9,M,47.0,M,,*5D
$GPRMC,130238.00,A,4927.79727,N,01104.39104,E,5.749,269.02,260311,,,A*6D
$GPVTG,269.02,T,,M,5.749,N,10.648,K,A*06
$GPGGA,130238.00,4927.79727,N,01104.39104,E,1,08,1.06,312.8,M,47.0,M,,*5C
$GPRMC,130239.00,A,4927.79683,N,01104.38935,E,3.982,267.35,260311,,,A*6D
$GPVTG,267.35,T,,M,3.982,N,7.376,K,A*3D
$GPGGA,130239.00,4927.79683,N,01104.38935,E,1,08,1.06,312.7,M,47.0,M,,*56
$GPRMC,130240.00,A,4927.79592,N,01104.38788,E,4.261,262.63,260311,,,A*6F
$GPVTG,262.63,T,,M,4.261,N,7.892,K,A*3B
$GPGGA,130240.00,4927.79592,N,01104.38788,E,1,08,1.06,312.7,M,47.0,M,,*53
$GPRMC,130241.00,A,4927.79486,N,01104.38637,E,5.229,253.41,260311,,,A*60
$GPVTG,253.41,T,,M,5.229,N,9.683,K,A*34
$GPGGA,130241.00,4927.79486,N,01104.38637,E,1,08,1.06,312.7,M,47.0,M,,*53
$GPRMC,130242.00,A,4927.79325,N,01104.38538,E,5.655,238.79,260311,,,A*68
$GPVTG,238.79,T,,M,5.655,N,10.472,K,A*09
$GPGGA,130242.00,4927.79325,N,01104.38538,E,1,08,1.06,312.8,M,47.0,M,,*5D
$GPRMC,130243.00,A,4927.79074,N,01104.38564,E,6.862,231.15,260311,,,A*6D
$GPVTG,231.15,T,,M,6.862,N,12.708,K,A*0F
$GPGGA,130243.00,4927.79074,N,01104.38564,E,1,08,1.06,313.0,M,47.0,M,,*5B
$GPRMC,130244.00,A,4927.78777,N,01104.38569,E,9.156,213.17,260311,,,A*61
$GPVTG,213.17,T,,M,9.156,N,16.956,K,A*0D
$GPGGA,130244.00,4927.78777,N,01104.38569,E,1,08,1.06,313.3,M,47.0,M,,*57
$GPRMC,130245.00,A,4927.78473,N,01104.38613,E,9.609,202.55,260311,,,A*62
$GPVTG,202.55,T,,M,9.609,N,17.795,K,A*06
$GPGGA,130245.00,4927.78473,N,01104.38613,E,1,08,1.06,313.4,M,47.0,M,,*58
$GPRMC,130246.00,A,4927.78134,N,01104.38613,E,10.062,192.80,260311,,,A*56
$GPVTG,192.80,T,,M,10.062,N,18.636,K,A*30
$GPGGA,130246.00,4927.78134,N,01104.38613,E,1,08,1.06,313.6,M,47.0,M,,*5F
$GPRMC,130247.00,A,4927.77820,N,01104.38627,E,10.035,187.60,260311,,,A*5B
$GPVTG,187.60,T,,M,10.035,N,18.584,K,A*32
$GPGGA,130247.00,4927.77820,N,01104.38627,E,1,08,1.06,313.7,M,47.0,M,,*5B
$GPRMC,130248.00,A,4927.77561,N,01104.38610,E,9.584,185.41,260311,,,A*6E
$GPVTG,185.41,T,,M,9.584,N,17.750,K,A*00
$GPGGA,130248.00,4927.77561,N,01104.38610,E,1,08,1.06,313.7,M,47.0,M,,*58
$GPRMC,130249.00,A,4927.77262,N,01104.38686,E,9.837,177.11,260311,,,A*69
$GPVTG,177.11,T,,M,9.837,N,18.217,K,A*04
$GPGGA,130249.00,4927.77262,N,01104.38686,E,1,08,1.06,313.8,M,47.0,M,,*5D
$GPRMC,130250.00,A,4927.76952,N,01104.38741,E,10.949,175.59,260311,,,A*5C
$GPVTG,175.59,T,,M,10.949,N,20.278,K,A*38
$GPGGA,130250.00,4927.76952,N,01104.38741,E,1,08,1.06,314.0,M,47.0,M,,*59
$GPRMC,130251.00,A,4927.76649,N,01104.38765,E,10.721,176.30,260311,,,A*52
$GPVTG,176.30,T,,M,10.721,N,19.856,K,A*38
$GPGGA,130251.00,4927.76649,N,01104.38765,E,1,08,1.06,314.1,M,47.0,M,,*5A
$GPRMC,130252.00,A,4927.76316,N,01104.38757,E,11.227,177.07,260311,,,A*58
$GPVTG,177.07,T,,M,11.227,N,20.792,K,A*32
$GPGGA,130252.00,4927.76316,N,01104.38757,E,1,08,1.06,314.3,M,47.0,M,,*55
$GPRMC,130253.00,A,4927.75987,N,01104.38803,E,10.128,177.12,260311,,,A*5F
$GPVTG,177.12,T,,M,10.128,N,18.757,K,A*39
$GPGGA,130253.00,4927.75987,N,01104.38803,E,1,08,1.06,314.4,M,47.0,M,,*5C
$GPRMC,130254.00,A,4927.75692,N,01104.38859,E,8.303,178.37,260311,,,A*66
$GPVTG,178.37,T,,M,8.303,N,15.378,K,A*07
$GPGGA,130254.00,4927.75692,N,01104.38859,E,1,08,1.53,314.5,M,47.0,M,,*5E
$GPRMC,130255.00,A,4927.75481,N,01104.38885,E,5.526,177.77,260311,,,A*61
$GPVTG,177.77,T,,M,5.526,N,10.233,K,A*0B
$GPGGA,130255.00,4927.75481,N,01104.38885,E,1,08,1.53,314.6,M,47.0,M,,*5D
$GPRMC,130256.00,A,4927.75313,N,01104.38969,E,4.043,177.16,260311,,,A*6D
$GPVTG,177.16,T,,M,4.043,N,7.488,K,A*3B
$GPGGA,130256.00,4927.75313,N,01104.38969,E,1,08,1.06,314.7,M,47.0,M,,*50
$GPRMC,130257.00,A,4927.75226,N,01104.38966,E,2.668,176.22,260311,,,A*6B
$GPVTG,176.22,T,,M,2.668,N,4.941,K,A*3F
$GPGGA,130257.00,4927.75226,N,01104.38966,E,1,08,1.53,314.7,M,47.0,M,,*59
$GPRMC,130258.00,A,4927.75189,N,01104.38938,E,2.180,174.59,260311,,,A*66
$GPVTG,174.59,T,,M,2.180,N,4.038,K,A*37
$GPGGA,130258.00,4927.75189,N,01104.38938,E,1,08,1.06,314.7,M,47.0,M,,*5B
$GPRMC,130259.00,A,4927.75160,N,01104.38964,E,2.737,164.49,260311,,,A*63
$GPVTG,164.49,T,,M,2.737,N,5.068,K,A*39
$GPGGA,130259.00,4927.75160,N,01104.38964,E,1,08,1.06,314.7,M,47.0,M,,*54
$GPRMC,130300.00,A,4927.75110,N,01104.39065,E,4.344,153.94,260311,,,A*62
$GPVTG,153.94,T,,M,4.344,N,8.046,K,A*3A
$GPGGA,130300.00,4927.75110,N,01104.39065,E,1,08,1.06,314.8,M,47.0,M,,*58
$GPRMC,130301.00,A,4927.75066,N,01104.39243,E,5.309,141.90,260311,,,A*6A
$GPVTG,141.90,T,,M,5.309,N,9.832,K,A*3F
$GPGGA,130301.00,4927.75066,N,01104.39243,E,1,08,1.06,314.7,M,47.0,M,,*50
$GPRMC,130302.00,A,4927.75053,N,01104.39529,E,7.444,114.93,260311,,,A*6B
$GPVTG,114.93,T,,M,7.444,N,13.786,K,A*0B
$GPGGA,130302.00,4927.75053,N,01104.39529,E,1,08,1.06,314.9,M,47.0,M,,*50
$GPRMC,130303.00,A,4927.75046,N,01104.39926,E,10.131,94.81,260311,,,A*66
$GPVTG,94.81,T,,M,10.131,N,18.762,K,A*01
$GPGGA,130303.00,4927.75046,N,01104.39926,E,1,07,1.47,315.1,M,47.0,M,,*55
$GPRMC,130304.00,A,4927.75071,N,01104.40375,E,10.360,87.79,260311,,,A*64
$GPVTG,87.79,T,,M,10.360,N,19.186,K,A*0F
$GPGGA,130304.00,4927.75071,N,01104.40375,E,1,07,1.47,315.2,M,47.0,M,,*57
$GPRMC,130305.00,A,4927.75097,N,01104.40844,E,11.529,86.14,260311,,,A*64
$GPVTG,86.14,T,,M,11.529,N,21.352,K,A*0F
$GPGGA,130305.00,4927.75097,N,01104.40844,E,1,08,1.47,315.3,M,47.0,M,,*59
$GPRMC,130306.00,A,4927.75125,N,01104.41349,E,12.302,85.88,260311,,,A*62
$GPVTG,85.88,T,,M,12.302,N,22.783,K,A*0E
$GPGGA,130306.00,4927.75125,N,01104.41349,E,1,08,1.47,315.3,M,47.0,M,,*55
$GPRMC,130307.00,A,4927.75148,N,01104.41864,E,11.914,87.09,260311,,,A*69
$GPVTG,87.09,T,,M,11.914,N,22.064,K,A*05
$GPGGA,130307.00,4927.75148,N,01104.41864,E,1,08,1.47,315.4,M,47.0,M,,*5C
$GPRMC,130308.00,A,4927.75169,N,01104.42305,E,9.624,87.45,260311,,,A*57
$GPVTG,87.45,T,,M,9.624,N,17.824,K,A*32
$GPGGA,130308.00,4927.75169,N,01104.42305,E,1,07,1.47,315.3,M,47.0,M,,*57
$GPRMC,130309.00,A,4927.75188,N,01104.42702,E,8.986,86.44,260311,,,A*5C
$GPVTG,86.44,T,,M,8.986,N,16.642,K,A*3B
$GPGGA,130309.00,4927.75188,N,01104.42702,E,1,07,1.47,315.4,M,47.0,M,,*5D
$GPRMC,130310.00,A,4927.75217,N,01104.43041,E,7.416,84.85,260311,,,A*54
$GPVTG,84.85,T,,M,7.416,N,13.735,K,A*3B
$GPGGA,130310.00,4927.75217,N,01104.43041,E,1,07,1.47,315.5,M,47.0,M,,*50
$GPRMC,130311.00,A,4927.75250,N,01104.43289,E,4.729,83.96,260311,,,A*59
$GPVTG,83.96,T,,M,4.729,N,8.759,K,A*02
$GPGGA,130311.00,4927.75250,N,01104.43289,E,1,07,1.53,315.5,M,47.0,M,,*51
$GPRMC,130312.00,A,4927.75265,N,01104.43444,E,3.191,84.77,260311,,,A*51
$GPVTG,84.77,T,,M,3.191,N,5.910,K,A*06
$GPGGA,130312.00,4927.75265,N,01104.43444,E,1,08,1.47,315.6,M,47.0,M,,*5A
$GPRMC,130313.00,A,4927.75237,N,01104.43563,E,2.700,112.82,260311,,,A*68
$GPVTG,112.82,T,,M,2.700,N,5.000,K,A*35
$GPGGA,130313.00,4927.75237,N,01104.43563,E,1,07,1.47,315.7,M,47.0,M,,*56
$GPRMC,130314.00,A,4927.75185,N,01104.43624,E,2.793,116.58,260311,,,A*6C
$GPVTG,116.58,T,,M,2.793,N,5.172,K,A*38
$GPGGA,130314.00,4927.75185,N,01104.43624,E,1,07,1.47,315.8,M,47.0,M,,*54
$GPRMC,130315.00,A,4927.75115,N,01104.43679,E,2.747,119.39,260311,,,A*6D
$GPVTG,119.39,T,,M,2.747,N,5.087,K,A*32
$GPGGA,130315.00,4927.75115,N,01104.43679,E,1,08,1.47,315.9,M,47.0,M,,*5A
$GPRMC,130316.00,A,4927.75047,N,01104.43711,E,2.572,142.24,260311,,,A*61
$GPVTG,142.24,T,,M,2.572,N,4.764,K,A*3F
$GPGGA,130316.00,4927.75047,N,01104.43711,E,1,08,1.47,316.0,M,47.0,M,,*5A
$GPRMC,130317.00,A,4927.74984,N,01104.43725,E,2.112,153.67,260311,,,A*65
$GPVTG,153.67,T,,M,2.112,N,3.912,K,A*32
$GPGGA,130317.00,4927.74984,N,01104.43725,E,1,08,1.47,316.2,M,47.0,M,,*59
$GPRMC,130318.00,A,4927.74937,N,01104.43719,E,1.230,157.36,260311,,,A*6D
$GPVTG,157.36,T,,M,1.230,N,2.278,K,A*34
$GPGGA,130318.00,4927.74937,N,01104.43719,E,1,08,1.06,316.1,M,47.0,M,,*57
$GPRMC,130319.00,A,4927.74914,N,01104.43720,E,0.109,,260311,,,A*77
$GPVTG,,T,,M,0.109,N,0.201,K,A*28
$GPGGA,130319.00,4927.74914,N,01104.43720,E,1,08,1.06,316.1,M,47.0,M,,*5D
$GPRMC,130320.00,A,4927.74920,N,01104.43719,E,0.965,150.90,260311,,,A*61
$GPVTG,150.90,T,,M,0.965,N,1.787,K,A*33
$GPGGA,130320.00,4927.74920,N,01104.43719,E,1,08,1.06,316.0,M,47.0,M,,*5B
$GPRMC,130321.00,A,4927.74944,N,01104.43698,E,1.207,,260311,,,A*77
$GPVTG,,T,,M,1.207,N,2.235,K,A*21
$GPGGA,130321.00,4927.74944,N,01104.43698,E,1,08,1.06,315.9,M,47.0,M,,*5A
$GPRMC,130322.00,A,4927.74977,N,01104.43689,E,1.435,145.97,260311,,,A*63
$GPVTG,145.97,T,,M,1.435,N,2.657,K,A*36
$GPGGA,130322.00,4927.74977,N,01104.43689,E,1,08,1.06,315.9,M,47.0,M,,*59
$GPRMC,130323.00,A,4927.75020,N,01104.43698,E,1.655,117.54,260311,,,A*64
$GPVTG,117.54,T,,M,1.655,N,3.065,K,A*3C
$GPGGA,130323.00,4927.75020,N,01104.43698,E,1,08,1.06,316.0,M,47.0,M,,*58
$GPRMC,130324.00,A,4927.75048,N,01104.43708,E,0.404,,260311,,,A*7A
$GPVTG,,T,,M,0.404,N,0.747,K,A*27
$GPGGA,130324.00,4927.75048,N,01104.43708,E,1,08,1.06,316.0,M,47.0,M,,*59
$GPRMC,130325.00,A,4927.75036,N,01104.43700,E,1.346,123.25,260311,,,A*63
$GPVTG,123.25,T,,M,1.346,N,2.492,K,A*37
$GPGGA,130325.00,4927.75036,N,01104.43700,E,1,08,1.06,316.2,M,47.0,M,,*5B
$GPRMC,130326.00,A,4927.74998,N,01104.43694,E,1.267,127.49,260311,,,A*6C
$GPVTG,127.49,T,,M,1.267,N,2.346,K,A*35
$GPGGA,130326.00,4927.74998,N,01104.43694,E,1,08,1.06,316.3,M,47.0,M,,*59
$GPRMC,130327.00,A,4927.74953,N,01104.43676,E,0.958,129.38,260311,,,A*68
$GPVTG,129.38,T,,M,0.958,N,1.774,K,A*3D
$GPGGA,130327.00,4927.74953,N,01104.43676,E,1,07,1.10,316.6,M,47.0,M,,*5E
$GPRMC,130328.00,A,4927.74927,N,01104.43667,E,0.177,,260311,,,A*7E
$GPVTG,,T,,M,0.177,N,0.327,K,A*24
$GPGGA,130328.00,4927.74927,N,01104.43667,E,1,08,1.07,316.5,M,47.0,M,,*58
$GPRMC,130329.00,A,4927.74922,N,01104.43668,E,0.101,,260311,,,A*74
$GPVTG,,T,,M,0.101,N,0.186,K,A*2C
$GPGGA,130329.00,4927.74922,N,01104.43668,E,1,08,1.07,316.4,M,47.0,M,,*52
$GPRMC,130330.00,A,4927.74914,N,01104.43657,E,0.045,,260311,,,A*74
$GPVTG,,T,,M,0.045,N,0.084,K,A*2E
$GPGGA,130330.00,4927.74914,N,01104.43657,E,1,08,1.10,316.6,M,47.0,M,,*57
