$GPRMC,133128.00,A,4927.95387,N,01104.59936,E,0.711,314.38,260311,,,D*60
$GPVTG,314.38,T,,M,0.711,N,1.318,K,D*39
$GPGGA,133128.00,4927.95387,N,01104.59936,E,2,09,1.02,321.7,M,47.0,M,,0000*57
$G
$GPRMC,133130.00,A,4927.95120,N,01104.59937,E,7.152,224.34,260311,,,D*6F
$GPVTG,224.34,T,,M,7.152,N,13.246,K,D*08
$GPGGA,133130.00,4927.95120,N,01104.59937,E,2,09,1.02,321.5,M,47.0,M,,0000*52
$GPRMC,133131.00,A,4927.94894,N,01104.59921,E,8.946,214.27,260311,,,D*6D
$GPVTG,214.27,T,,M,8.946,N,16.568,K,D*05
$GPGGA,133131.00,4927.94894,N,01104.59921,E,2,09,1.02,321.5,M,47.0,M,,0000*53
$GPRMC,133132.00,A,4927.94624,N,01104.59888,E,9.720,203.92,260311,,,D*6E
$GPVTG,203.92,T,,M,9.720,N,18.001,K,D*06
$GPGGA,133132.00,4927.94624,N,01104.59888,E,2,09,1.02,321.5,M,47.0,M,,0000*57
$GPRMC,133133.00,A,4927.94336,N,01104.59867,E,10.512,186.15,260311,,,D*52
$GPVTG,186.15,T,,M,10.512,N,19.469,K,D*37
$GPGGA,133133.00,4927.94336,N,01104.59867,E,2,09,1.02,321.5,M,47.0,M,,0000*51
$GPRMC,133134.00,A,4927.94028,N,01104.59849,E,11.182,181.61,260311,,,D*5D
$GPVTG,181.61,T,,M,11.182,N,20.708,K,D*31
$GPGGA,133134.00,4927.94028,N,01104.59849,E,2,09,1.02,321.5,M,47.0,M,,0000*56
$GPRMC,133135.00,A,4927.93712,N,01104.59849,E,11.381,179.79,260311,,,D*5A
$GPVTG,179.79,T,,M,11.381,N,21.078,K,D*3F
$GPGGA,133135.00,4927.93712,N,01104.59849,E,2,09,1.02,321.5,M,47.0,M,,0000*5E
$GPRMC,133136.00,A,4927.93400,N,01104.59846,E,10.735,180.90,260311,,,D*5D
$GPVTG,180.90,T,,M,10.735,N,19.881,K,D*31
$GPGGA,133136.00,4927.93400,N,01104.59846,E,2,09,1.02,321.4,M,47.0,M,,0000*53
$GPRMC,133137.00,A,4927.93106,N,01104.59830,E,9.838,181.97,260311,,,D*62
$GPVTG,181.97,T,,M,9.838,N,18.221,K,D*0C
$GPGGA,133137.00,4927.93106,N,01104.59830,E,2,09,1.02,321.4,M,47.0,M,,0000*50
$GPRMC,133138.00,A,4927.92834,N,01104.59803,E,9.229,183.27,260311,,,D*67
$GPVTG,183.27,T,,M,9.229,N,17.093,K,D*0B
$GPGGA,133138.00,4927.92834,N,01104.59803,E,2,09,1.02,321.5,M,47.0,M,,0000*57
$GPRMC,133139.00,A,4927.92576,N,01104.59769,E,8.918,184.48,260311,,,D*68
$GPVTG,184.48,T,,M,8.918,N,16.515,K,D*07
$GPGGA,133139.00,4927.92576,N,01104.59769,E,2,09,1.02,321.4,M,47.0,M,,0000*5F
$GPRMC,133140.00,A,4927.92336,N,01104.59728,E,8.322,185.29,260311,,,D*64
$GPVTG,185.29,T,,M,8.322,N,15.413,K,D*06
$GPGGA,133140.00,4927.92336,N,01104.59728,E,2,09,1.02,321.3,M,47.0,M,,0000*51
$GPRMC,133141.00,A,4927.92131,N,01104.59702,E,6.545,185.03,260311,,,D*69
$GPVTG,185.03,T,,M,6.545,N,12.122,K,D*07
$GPGGA,133141.00,4927.92131,N,01104.59702,E,2,09,1.02,321.2,M,47.0,M,,0000*5C
$GPRMC,133142.00,A,4927.91980,N,01104.59666,E,4.132,184.95,260311,,,D*60
$GPVTG,184.95,T,,M,4.132,N,7.652,K,D*3B
$GPGGA,133142.00,4927.91980,N,01104.59666,E,2,09,1.02,321.2,M,47.0,M,,0000*5D
$GPRMC,133143.00,A,4927.91890,N,01104.59652,E,2.519,,260311,,,D*72
$GPVTG,,T,,M,2.519,N,4.665,K,D*28
$GPGGA,133143.00,4927.91890,N,01104.59652,E,2,09,1.02,321.2,M,47.0,M,,0000*5B
$GPRMC,133144.00,A,4927.91806,N,01104.59648,E,3.273,,260311,,,D*7B
$GPVTG,,T,,M,3.273,N,6.061,K,D*22
$GPGGA,133144.00,4927.91806,N,01104.59648,E,2,09,1.02,321.2,M,47.0,M,,0000*58
$GPRMC,133145.00,A,4927.91709,N,01104.59722,E,5.271,174.79,260311,,,D*61
$GPVTG,174.79,T,,M,5.271,N,9.762,K,D*3F
$GPGGA,133145.00,4927.91709,N,01104.59722,E,2,09,1.02,321.1,M,47.0,M,,0000*57
$GPRMC,133146.00,A,4927.91558,N,01104.59922,E,8.186,141.60,260311,,,D*62
$GPVTG,141.60,T,,M,8.186,N,15.161,K,D*0F
$GPGGA,133146.00,4927.91558,N,01104.59922,E,2,09,1.02,321.1,M,47.0,M,,0000*5C
$GPRMC,133147.00,A,4927.91486,N,01104.60293,E,8.783,133.76,260311,,,D*6B
$GPVTG,133.76,T,,M,8.783,N,16.266,K,D*09
$GPGGA,133147.00,4927.91486,N,01104.60293,E,2,09,1.02,321.1,M,47.0,M,,0000*54
$GPRMC,133148.00,A,4927.91529,N,01104.60731,E,9.837,124.01,260311,,,D*6A
$GPVTG,124.01,T,,M,9.837,N,18.219,K,D*08
$GPGGA,133148.00,4927.91529,N,01104.60731,E,2,09,1.02,321.0,M,47.0,M,,0000*53
$GPRMC,133149.00,A,4927.91526,N,01104.61180,E,10.491,115.03,260311,,,D*51
$GPVTG,115.03,T,,M,10.491,N,19.429,K,D*34
$GPGGA,133149.00,4927.91526,N,01104.61180,E,2,09,1.02,321.0,M,47.0,M,,0000*50
$GPRMC,133150.00,A,4927.91574,N,01104.61663,E,11.564,105.51,260311,,,D*58
$GPVTG,105.51,T,,M,11.564,N,21.416,K,D*3F
$GPGGA,133150.00,4927.91574,N,01104.61663,E,2,09,1.02,321.0,M,47.0,M,,0000*55
$GPRMC,133151.00,A,4927.91607,N,01104.62224,E,13.801,98.05,260311,,,D*62
$GPVTG,98.05,T,,M,13.801,N,25.559,K,D*09
$GPGGA,133151.00,4927.91607,N,01104.62224,E,2,09,1.02,321.0,M,47.0,M,,0000*57
$GPRMC,133152.00,A,4927.91615,N,01104.62890,E,14.755,91.99,260311,,,D*62
$GPVTG,91.99,T,,M,14.755,N,27.326,K,D*00
$GPGGA,133152.00,4927.91615,N,01104.62890,E,2,09,1.02,321.0,M,47.0,M,,0000*52
$GPRMC,133153.00,A,4927.91646,N,01104.63540,E,15.003,89.25,260311,,,D*6F
$GPVTG,89.25,T,,M,15.003,N,27.786,K,D*05
$GPGGA,133153.00,4927.91646,N,01104.63540,E,2,09,1.02,321.0,M,47.0,M,,0000*54
$GPRMC,133154.00,A,4927.91666,N,01104.64192,E,15.160,88.20,260311,,,D*66
$GPVTG,88.20,T,,M,15.160,N,28.077,K,D*03
$GPGGA,133154.00,4927.91666,N,01104.64192,E,2,08,1.26,321.0,M,47.0,M,,0000*5A
$GPRMC,133155.00,A,4927.91706,N,01104.64813,E,14.562,87.80,260311,,,D*62
$GPVTG,87.80,T,,M,14.562,N,26.969,K,D*09
$GPGGA,133155.00,4927.91706,N,01104.64813,E,2,08,1.26,321.1,M,47.0,M,,0000*5D
$GPRMC,133156.00,A,4927.91756,N,01104.65444,E,14.602,87.04,260311,,,D*62
$GPVTG,87.04,T,,M,14.602,N,27.043,K,D*00
$GPGGA,133156.00,4927.91756,N,01104.65444,E,2,08,1.26,321.1,M,47.0,M,,0000*54
$GPRMC,133157.00,A,4927.91765,N,01104.66119,E,15.343,87.05,260311,,,D*6D
$GPVTG,87.05,T,,M,15.343,N,28.415,K,D*08
$GPGGA,133157.00,4927.91765,N,01104.66119,E,2,08,1.26,321.2,M,47.0,M,,0000*58
$GPRMC,133158.00,A,4927.91782,N,01104.66792,E,15.467,86.73,260311,,,D*6F
$GPVTG,86.73,T,,M,15.467,N,28.644,K,D*0F
$GPGGA,133158.00,4927.91782,N,01104.66792,E,2,08,1.26,321.3,M,47.0,M,,0000*5A
$GPRMC,133159.00,A,4927.91831,N,01104.67444,E,15.090,85.15,260311,,,D*6F
$GPVTG,85.15,T,,M,15.090,N,27.946,K,D*02
$GPGGA,133159.00,4927.91831,N,01104.67444,E,2,08,1.26,321.3,M,47.0,M,,0000*55
$GPRMC,133200.00,A,4927.91854,N,01104.68096,E,15.071,87.94,260311,,,D*63
$GPVTG,87.94,T,,M,15.071,N,27.912,K,D*07
$GPGGA,133200.00,4927.91854,N,01104.68096,E,2,08,1.44,321.4,M,47.0,M,,0000*5E
$GPRMC,133201.00,A,4927.91907,N,01104.68686,E,13.777,88.13,260311,,,D*65
$GPVTG,88.13,T,,M,13.777,N,25.516,K,D*0A
$GPGGA,133201.00,4927.91907,N,01104.68686,E,2,08,1.26,321.4,M,47.0,M,,0000*5B
$GPRMC,133202.00,A,4927.91921,N,01104.69312,E,13.749,88.68,260311,,,D*6A
$GPVTG,88.68,T,,M,13.749,N,25.464,K,D*0F
$GPGGA,133202.00,4927.91921,N,01104.69312,E,2,09,1.26,321.5,M,47.0,M,,0000*55
$GPRMC,133203.00,A,4927.91882,N,01104.69998,E,13.838,89.25,260311,,,D*6A
$GPVTG,89.25,T,,M,13.838,N,25.627,K,D*0B
$GPGGA,133203.00,4927.91882,N,01104.69998,E,2,08,1.44,321.6,M,47.0,M,,0000*52
$GPRMC,133204.00,A,4927.91834,N,01104.70761,E,14.648,91.64,260311,,,D*62
$GPVTG,91.64,T,,M,14.648,N,27.128,K,D*03
$GPGGA,133204.00,4927.91834,N,01104.70761,E,2,08,1.44,321.8,M,47.0,M,,0000*56
$GPRMC,133205.00,A,4927.91787,N,01104.71446,E,15.210,92.54,260311,,,D*6B
$GPVTG,92.54,T,,M,15.210,N,28.169,K,D*01
$GPGGA,133205.00,4927.91787,N,01104.71446,E,2,08,1.26,321.9,M,47.0,M,,0000*52
$GPRMC,133206.00,A,4927.91747,N,01104.72122,E,15.849,92.73,260311,,,D*63
$GPVTG,92.73,T,,M,15.849,N,29.352,K,D*09
$GPGGA,133206.00,4927.91747,N,01104.72122,E,2,09,1.02,321.9,M,47.0,M,,0000*5E
$GPRMC,133207.00,A,4927.91730,N,01104.72816,E,16.152,90.47,260311,,,D*69
$GPVTG,90.47,T,,M,16.152,N,29.914,K,D*04
$GPGGA,133207.00,4927.91730,N,01104.72816,E,2,09,1.17,322.1,M,47.0,M,,0000*5E
$GPRMC,133208.00,A,4927.91733,N,01104.73507,E,16.470,89.74,260311,,,D*64
$GPVTG,89.74,T,,M,16.470,N,30.503,K,D*0B
$GPGGA,133208.00,4927.91733,N,01104.73507,E,2,09,1.17,322.2,M,47.0,M,,0000*5D
$GPRMC,133209.00,A,4927.91768,N,01104.74188,E,15.807,87.82,260311,,,D*67
$GPVTG,87.82,T,,M,15.807,N,29.274,K,D*0C
$GPGGA,133209.00,4927.91768,N,01104.74188,E,2,09,1.44,322.1,M,47.0,M,,0000*53
$GPRMC,133210.00,A,4927.91788,N,01104.74899,E,17.099,87.54,260311,,,D*6E
$GPVTG,87.54,T,,M,17.099,N,31.667,K,D*05
$GPGGA,133210.00,4927.91788,N,01104.74899,E,2,09,1.17,322.2,M,47.0,M,,0000*59
$GPRMC,133211.00,A,4927.91795,N,01104.75672,E,18.338,87.08,260311,,,D*67
$GPVTG,87.08,T,,M,18.338,N,33.961,K,D*00
$GPGGA,133211.00,4927.91795,N,01104.75672,E,2,09,1.17,322.2,M,47.0,M,,0000*5E
$GPRMC,133212.00,A,4927.91813,N,01104.76477,E,18.946,87.67,260311,,,D*6B
$GPVTG,87.67,T,,M,18.946,N,35.088,K,D*02
$GPGGA,133212.00,4927.91813,N,01104.76477,E,2,08,1.44,322.2,M,47.0,M,,0000*5F
$GPRMC,133213.00,A,4927.91818,N,01104.77296,E,18.738,87.83,260311,,,D*64
$GPVTG,87.83,T,,M,18.738,N,34.703,K,D*0A
$GPGGA,133213.00,4927.91818,N,01104.77296,E,2,08,1.44,322.8,M,47.0,M,,0000*57
$GPRMC,133214.00,A,4927.91849,N,01104.78081,E,17.809,86.23,260311,,,D*65
$GPVTG,86.23,T,,M,17.809,N,32.982,K,D*02
$GPGGA,133214.00,4927.91849,N,01104.78081,E,2,08,1.44,323.2,M,47.0,M,,0000*54
$GPRMC,133215.00,A,4927.91881,N,01104.78833,E,17.178,86.08,260311,,,D*67
$GPVTG,86.08,T,,M,17.178,N,31.814,K,D*09
$GPGGA,133215.00,4927.91881,N,01104.78833,E,2,09,1.02,323.2,M,47.0,M,,0000*53
$GPRMC,133216.00,A,4927.91904,N,01104.79573,E,16.885,85.80,260311,,,D*69
$GPVTG,85.80,T,,M,16.885,N,31.270,K,D*08
$GPGGA,133216.00,4927.91904,N,01104.79573,E,2,09,1.02,323.3,M,47.0,M,,0000*55
$GPRMC,133217.00,A,4927.91937,N,01104.80285,E,16.019,86.57,260311,,,D*64
$GPVTG,86.57,T,,M,16.019,N,29.667,K,D*07
$GPGGA,133217.00,4927.91937,N,01104.80285,E,2,09,1.02,323.4,M,47.0,M,,0000*5B
$GPRMC,133218.00,A,4927.91983,N,01104.80949,E,15.920,85.65,260311,,,D*6D
$GPVTG,85.65,T,,M,15.920,N,29.484,K,D*0A
$GPGGA,133218.00,4927.91983,N,01104.80949,E,2,09,1.17,323.5,M,47.0,M,,0000*55
$GPRMC,133219.00,A,4927.92040,N,01104.81656,E,16.116,85.81,260311,,,D*6D
$GPVTG,85.81,T,,M,16.116,N,29.846,K,D*0C
$GPGGA,133219.00,4927.92040,N,01104.81656,E,2,09,1.17,323.5,M,47.0,M,,0000*51
$GPRMC,133220.00,A,4927.92052,N,01104.82361,E,16.162,86.44,260311,,,D*6F
$GPVTG,86.44,T,,M,16.162,N,29.932,K,D*07
$GPGGA,133220.00,4927.92052,N,01104.82361,E,2,09,1.17,323.6,M,47.0,M,,0000*59
$GPRMC,133221.00,A,4927.92086,N,01104.83042,E,15.794,86.26,260311,,,D*6C
$GPVTG,86.26,T,,M,15.794,N,29.250,K,D*00
$GPGGA,133221.00,4927.92086,N,01104.83042,E,2,09,1.17,323.6,M,47.0,M,,0000*52
$GPRMC,133222.00,A,4927.92102,N,01104.83660,E,14.530,84.04,260311,,,D*6B
$GPVTG,84.04,T,,M,14.530,N,26.910,K,D*0F
$GPGGA,133222.00,4927.92102,N,01104.83660,E,2,09,1.17,323.5,M,47.0,M,,0000*59
$GPRMC,133223.00,A,4927.92164,N,01104.84345,E,15.068,81.57,260311,,,D*65
$GPVTG,81.57,T,,M,15.068,N,27.906,K,D*03
$GPGGA,133223.00,4927.92164,N,01104.84345,E,2,09,1.17,323.6,M,47.0,M,,0000*5E
$GPRMC,133224.00,A,4927.92168,N,01104.85065,E,16.077,82.64,260311,,,D*60
$GPVTG,82.64,T,,M,16.077,N,29.775,K,D*09
$GPGGA,133224.00,4927.92168,N,01104.85065,E,2,09,1.03,323.7,M,47.0,M,,0000*51
$GPRMC,133225.00,A,4927.92126,N,01104.85827,E,17.044,86.56,260311,,,D*61
$GPVTG,86.56,T,,M,17.044,N,31.565,K,D*07
$GPGGA,133225.00,4927.92126,N,01104.85827,E,2,09,1.17,323.6,M,47.0,M,,0000*50
$GPRMC,133226.00,A,4927.92086,N,01104.86619,E,16.236,86.58,260311,,,D*61
$GPVTG,86.58,T,,M,16.236,N,30.069,K,D*07
$GPGGA,133226.00,4927.92086,N,01104.86619,E,2,09,1.02,323.6,M,47.0,M,,0000*5C
$GPRMC,133227.00,A,4927.92154,N,01104.87369,E,15.785,85.66,260311,,,D*6D
$GPVTG,85.66,T,,M,15.785,N,29.234,K,D*05
$GPGGA,133227.00,4927.92154,N,01104.87369,E,2,09,1.17,323.6,M,47.0,M,,0000*54
$GPRMC,133228.00,A,4927.92198,N,01104.88082,E,16.102,83.93,260311,,,D*6D
$GPVTG,83.93,T,,M,16.102,N,29.820,K,D*0C
$GPGGA,133228.00,4927.92198,N,01104.88082,E,2,09,1.17,323.4,M,47.0,M,,0000*50
$GPRMC,133229.00,A,4927.92222,N,01104.88846,E,15.452,83.98,260311,,,D*66
$GPVTG,83.98,T,,M,15.452,N,28.618,K,D*00
$GPGGA,133229.00,4927.92222,N,01104.88846,E,2,09,1.17,323.3,M,47.0,M,,0000*54
$GPRMC,133230.00,A,4927.92213,N,01104.89492,E,13.684,83.93,260311,,,D*6C
$GPVTG,83.93,T,,M,13.684,N,25.342,K,D*03
$GPGGA,133230.00,4927.92213,N,01104.89492,E,2,09,1.17,323.3,M,47.0,M,,0000*5A
$GPRMC,133231.00,A,4927.92168,N,01104.90054,E,11.135,85.47,260311,,,D*64
$GPVTG,85.47,T,,M,11.135,N,20.621,K,D*06
$GPGGA,133231.00,4927.92168,N,01104.90054,E,2,09,1.02,323.3,M,47.0,M,,0000*56
$GPRMC,133232.00,A,4927.92176,N,01104.90422,E,7.426,85.47,260311,,,D*5D
$GPVTG,85.47,T,,M,7.426,N,13.753,K,D*32
$GPGGA,133232.00,4927.92176,N,01104.90422,E,2,09,1.02,323.3,M,47.0,M,,0000*5F
$GPRMC,133233.00,A,4927.92194,N,01104.90664,E,4.381,84.99,260311,,,D*5B
$GPVTG,84.99,T,,M,4.381,N,8.114,K,D*06
$GPGGA,133233.00,4927.92194,N,01104.90664,E,2,09,1.02,323.3,M,47.0,M,,0000*52
$GPRMC,133234.00,A,4927.92152,N,01104.90828,E,1.742,,260311,,,D*7C
$GPVTG,,T,,M,1.742,N,3.227,K,D*22
$GPGGA,133234.00,4927.92152,N,01104.90828,E,2,09,1.02,323.3,M,47.0,M,,0000*59
$GPRMC,133235.00,A,4927.92137,N,01104.90898,E,1.375,,260311,,,D*75
$GPVTG,,T,,M,1.375,N,2.546,K,D*23
$GPGGA,133235.00,4927.92137,N,01104.90898,E,2,09,1.02,323.4,M,47.0,M,,0000*57
$GPRMC,133236.00,A,4927.92118,N,01104.90948,E,0.582,,260311,,,D*78
$GPVTG,,T,,M,0.582,N,1.078,K,D*27
$GPGGA,133236.00,4927.92118,N,01104.90948,E,2,09,1.02,323.4,M,47.0,M,,0000*55
$GPRMC,133237.00,A,4927.92082,N,01104.91011,E,0.489,,260311,,,D*75
$GPVTG,,T,,M,0.489,N,0.907,K,D*2D
$GPGGA,133237.00,4927.92082,N,01104.91011,E,2,09,1.02,323.5,M,47.0,M,,0000*53
$GPRMC,133238.00,A,4927.92061,N,01104.91053,E,0.429,,260311,,,D*7B
$GPVTG,,T,,M,0.429,N,0.795,K,D*22
$GPGGA,133238.00,4927.92061,N,01104.91053,E,2,09,1.02,323.5,M,47.0,M,,0000*57
$GPRMC,133239.00,A,4927.92047,N,01104.91089,E,0.326,,260311,,,D*71
$GPVTG,,T,,M,0.326,N,0.604,K,D*23
$GPGGA,133239.00,4927.92047,N,01104.91089,E,2,09,1.02,323.6,M,47.0,M,,0000*56
$GPRMC,133240.00,A,4927.92035,N,01104.91158,E,1.314,,260311,,,D*77
$GPVTG,,T,,M,1.314,N,2.433,K,D*27
$GPGGA,133240.00,4927.92035,N,01104.91158,E,2,09,1.02,323.6,M,47.0,M,,0000*50
$GPRMC,133241.00,A,4927.92024,N,01104.91307,E,3.816,,260311,,,D*75
$GPVTG,,T,,M,3.816,N,7.067,K,D*2C
$GPGGA,133241.00,4927.92024,N,01104.91307,E,2,09,1.02,323.7,M,47.0,M,,0000*58
$GPRMC,133242.00,A,4927.92023,N,01104.91510,E,4.471,,260311,,,D*7B
$GPVTG,,T,,M,4.471,N,8.280,K,D*22
$GPGGA,133242.00,4927.92023,N,01104.91510,E,2,09,1.02,323.8,M,47.0,M,,0000*53
$GPRMC,133243.00,A,4927.92023,N,01104.91642,E,3.258,,260311,,,D*74
$GPVTG,,T,,M,3.258,N,6.033,K,D*2C
$GPGGA,133243.00,4927.92023,N,01104.91642,E,2,09,1.02,324.2,M,47.0,M,,0000*5B
$GPRMC,133244.00,A,4927.92024,N,01104.91766,E,1.841,,260311,,,D*73
$GPVTG,,T,,M,1.841,N,3.410,K,D*2C
$GPGGA,133244.00,4927.92024,N,01104.91766,E,2,09,1.02,324.3,M,47.0,M,,0000*5D
$GPRMC,133245.00,A,4927.92020,N,01104.91856,E,1.195,,260311,,,D*7A
$GPVTG,,T,,M,1.195,N,2.213,K,D*28
$GPGGA,133245.00,4927.92020,N,01104.91856,E,2,09,1.02,324.4,M,47.0,M,,0000*53
$GPRMC,133246.00,A,4927.92024,N,01104.91938,E,1.762,,260311,,,D*7A
$GPVTG,,T,,M,1.762,N,3.264,K,D*27
$GPGGA,133246.00,4927.92024,N,01104.91938,E,2,09,1.02,324.5,M,47.0,M,,0000*5C
$GPRMC,133247.00,A,4927.92068,N,01104.92094,E,4.310,87.56,260311,,,D*59
$GPVTG,87.56,T,,M,4.310,N,7.981,K,D*05
$GPGGA,133247.00,4927.92068,N,01104.92094,E,2,09,1.02,324.6,M,47.0,M,,0000*5A
$GPRMC,133248.00,A,4927.92015,N,01104.92298,E,6.402,111.30,260311,,,D*6A
$GPVTG,111.30,T,,M,6.402,N,11.856,K,D*01
$GPGGA,133248.00,4927.92015,N,01104.92298,E,2,09,1.02,324.7,M,47.0,M,,0000*50
$GPRMC,133249.00,A,4927.91803,N,01104.92522,E,9.045,129.76,260311,,,D*60
$GPVTG,129.76,T,,M,9.045,N,16.751,K,D*0F
$GPGGA,133249.00,4927.91803,N,01104.92522,E,2,09,1.02,324.8,M,47.0,M,,0000*54
$GPRMC,133250.00,A,4927.91522,N,01104.92630,E,10.144,144.26,260311,,,D*50
$GPVTG,144.26,T,,M,10.144,N,18.787,K,D*3C
$GPGGA,133250.00,4927.91522,N,01104.92630,E,2,09,1.02,324.9,M,47.0,M,,0000*53
$GPRMC,133251.00,A,4927.91235,N,01104.92707,E,10.692,151.91,260311,,,D*51
$GPVTG,151.91,T,,M,10.692,N,19.802,K,D*3B
$GPGGA,133251.00,4927.91235,N,01104.92707,E,2,09,1.02,324.8,M,47.0,M,,0000*57
$GPRMC,133252.00,A,4927.90950,N,01104.92789,E,10.856,156.72,260311,,,D*51
$GPVTG,156.72,T,,M,10.856,N,20.105,K,D*33
$GPGGA,133252.00,4927.90950,N,01104.92789,E,2,09,1.02,324.8,M,47.0,M,,0000*5B
$GPRMC,133253.00,A,4927.90674,N,01104.92832,E,10.317,161.03,260311,,,D*5A
$GPVTG,161.03,T,,M,10.317,N,19.107,K,D*37
$GPGGA,133253.00,4927.90674,N,01104.92832,E,2,09,1.02,324.7,M,47.0,M,,0000*53
$GPRMC,133254.00,A,4927.90488,N,01104.92807,E,7.426,163.52,260311,,,D*6F
$GPVTG,163.52,T,,M,7.426,N,13.753,K,D*0F
$GPGGA,133254.00,4927.90488,N,01104.92807,E,2,09,1.02,324.6,M,47.0,M,,0000*52
$GPRMC,133255.00,A,4927.90341,N,01104.92697,E,6.049,167.59,260311,,,D*68
$GPVTG,167.59,T,,M,6.049,N,11.203,K,D*0E
$GPGGA,133255.00,4927.90341,N,01104.92697,E,2,09,1.02,324.5,M,47.0,M,,0000*55
$GPRMC,133256.00,A,4927.90160,N,01104.92551,E,5.763,173.21,260311,,,D*65
$GPVTG,173.21,T,,M,5.763,N,10.673,K,D*0A
$GPGGA,133256.00,4927.90160,N,01104.92551,E,2,09,1.26,324.2,M,47.0,M,,0000*5F
$GPRMC,133257.00,A,4927.89947,N,01104.92525,E,4.316,174.62,260311,,,D*65
$GPVTG,174.62,T,,M,4.316,N,7.994,K,D*3D
$GPGGA,133257.00,4927.89947,N,01104.92525,E,2,09,1.26,324.2,M,47.0,M,,0000*58
$GPRMC,133258.00,A,4927.89515,N,01104.92676,E,5.289,174.18,260311,,,D*6F
$GPVTG,174.18,T,,M,5.289,N,9.795,K,D*37
$GPGGA,133258.00,4927.89515,N,01104.92676,E,2,08,1.26,324.1,M,47.0,M,,0000*5B
$GPRMC,133259.00,A,4927.89276,N,01104.92679,E,4.698,175.77,260311,,,D*6E
$GPVTG,175.77,T,,M,4.698,N,8.700,K,D*37
$GPGGA,133259.00,4927.89276,N,01104.92679,E,2,09,1.26,324.1,M,47.0,M,,0000*56
$GPRMC,133300.00,A,4927.89107,N,01104.92645,E,2.711,,260311,,,D*72
$GPVTG,,T,,M,2.711,N,5.021,K,D*25
$GPGGA,133300.00,4927.89107,N,01104.92645,E,2,09,1.26,324.0,M,47.0,M,,0000*50
$GPRMC,133301.00,A,4927.88996,N,01104.92620,E,1.479,,260311,,,D*7F
$GPVTG,,T,,M,1.479,N,2.739,K,D*22
$GPGGA,133301.00,4927.88996,N,01104.92620,E,2,09,1.26,323.9,M,47.0,M,,0000*5D
$GPRMC,133302.00,A,4927.88925,N,01104.92610,E,0.858,,260311,,,D*79
$GPVTG,,T,,M,0.858,N,1.589,K,D*26
$GPGGA,133302.00,4927.88925,N,01104.92610,E,2,09,1.02,323.9,M,47.0,M,,0000*53
$GPRMC,133303.00,A,4927.88875,N,01104.92608,E,0.456,,260311,,,D*77
$GPVTG,,T,,M,0.456,N,0.844,K,D*29
$GPGGA,133303.00,4927.88875,N,01104.92608,E,2,09,1.02,323.8,M,47.0,M,,0000*5E
$GPRMC,133304.00,A,4927.88816,N,01104.92576,E,0.629,,260311,,,D*75
$GPVTG,,T,,M,0.629,N,1.165,K,D*28
$GPGGA,133304.00,4927.88816,N,01104.92576,E,2,09,1.02,323.8,M,47.0,M,,0000*56
$GPRMC,133305.00,A,4927.88751,N,01104.92546,E,0.656,,260311,,,D*73
$GPVTG,,T,,M,0.656,N,1.215,K,D*24
$GPGGA,133305.00,4927.88751,N,01104.92546,E,2,09,1.02,323.9,M,47.0,M,,0000*59
$GPRMC,133306.00,A,4927.88682,N,01104.92511,E,2.113,,260311,,,D*79
$GPVTG,,T,,M,2.113,N,3.914,K,D*28
$GPGGA,133306.00,4927.88682,N,01104.92511,E,2,09,1.02,324.0,M,47.0,M,,0000*59
$GPRMC,133307.00,A,4927.88577,N,01104.92454,E,3.929,176.80,260311,,,D*67
$GPVTG,176.80,T,,M,3.929,N,7.276,K,D*35
$GPGGA,133307.00,4927.88577,N,01104.92454,E,2,09,1.02,324.0,M,47.0,M,,0000*51
$GPRMC,133308.00,A,4927.88445,N,01104.92428,E,4.186,176.57,260311,,,D*63
$GPVTG,176.57,T,,M,4.186,N,7.752,K,D*36
$GPGGA,133308.00,4927.88445,N,01104.92428,E,2,09,1.02,324.1,M,47.0,M,,0000*54
$GPRMC,133309.00,A,4927.88214,N,01104.92520,E,5.317,175.35,260311,,,D*65
$GPVTG,175.35,T,,M,5.317,N,9.846,K,D*3E
$GPGGA,133309.00,4927.88214,N,01104.92520,E,2,09,1.02,324.2,M,47.0,M,,0000*5D
$GPRMC,133310.00,A,4927.88019,N,01104.92489,E,5.607,175.82,260311,,,D*68
$GPVTG,175.82,T,,M,5.607,N,10.383,K,D*0C
$GPGGA,133310.00,4927.88019,N,01104.92489,E,2,09,1.02,324.3,M,47.0,M,,0000*59
$GPRMC,133311.00,A,4927.87871,N,01104.92469,E,4.628,,260311,,,D*75
$GPVTG,,T,,M,4.628,N,8.572,K,D*26
$GPGGA,133311.00,4927.87871,N,01104.92469,E,2,09,1.02,324.3,M,47.0,M,,0000*5F
$GPRMC,133312.00,A,4927.87734,N,01104.92472,E,3.997,,260311,,,D*7E
$GPVTG,,T,,M,3.997,N,7.403,K,D*22
$GPGGA,133312.00,4927.87734,N,01104.92472,E,2,09,1.02,324.3,M,47.0,M,,0000*58
$GPRMC,133313.00,A,4927.87517,N,01104.92654,E,5.549,175.67,260311,,,D*6F
$GPVTG,175.67,T,,M,5.549,N,10.277,K,D*04
$GPGGA,133313.00,4927.87517,N,01104.92654,E,2,09,1.02,324.4,M,47.0,M,,0000*5B
$GPRMC,133314.00,A,4927.87124,N,01104.92691,E,7.598,171.41,260311,,,D*6B
$GPVTG,171.41,T,,M,7.598,N,14.071,K,D*0A
$GPGGA,133314.00,4927.87124,N,01104.92691,E,2,09,1.02,324.3,M,47.0,M,,0000*56
$GPRMC,133315.00,A,4927.86719,N,01104.92861,E,8.665,149.99,260311,,,D*62
$GPVTG,149.99,T,,M,8.665,N,16.048,K,D*02
$GPGGA,133315.00,4927.86719,N,01104.92861,E,2,09,1.02,324.3,M,47.0,M,,0000*5F
$GPRMC,133316.00,A,4927.86525,N,01104.93283,E,10.321,116.91,260311,,,D*55
$GPVTG,116.91,T,,M,10.321,N,19.114,K,D*3B
$GPGGA,133316.00,4927.86525,N,01104.93283,E,2,09,1.02,324.3,M,47.0,M,,0000*56
$GPRMC,133317.00,A,4927.86383,N,01104.93789,E,9.057,108.53,260311,,,D*6A
$GPVTG,108.53,T,,M,9.057,N,16.774,K,D*0F
$GPGGA,133317.00,4927.86383,N,01104.93789,E,2,09,1.02,324.1,M,47.0,M,,0000*50
$GPRMC,133318.00,A,4927.86313,N,01104.94212,E,8.566,104.52,260311,,,D*67
$GPVTG,104.52,T,,M,8.566,N,15.863,K,D*0E
$GPGGA,133318.00,4927.86313,N,01104.94212,E,2,09,1.02,323.8,M,47.0,M,,0000*58
$GPRMC,133319.00,A,4927.86257,N,01104.94583,E,7.557,102.05,260311,,,D*61
$GPVTG,102.05,T,,M,7.557,N,13.996,K,D*0A
$GPGGA,133319.00,4927.86257,N,01104.94583,E,2,09,1.02,323.6,M,47.0,M,,0000*59
$GPRMC,133320.00,A,4927.86224,N,01104.94899,E,6.301,97.91,260311,,,D*5D
$GPVTG,97.91,T,,M,6.301,N,11.670,K,D*3B
$GPGGA,133320.00,4927.86224,N,01104.94899,E,2,09,1.02,323.4,M,47.0,M,,0000*53
$GPRMC,133321.00,A,4927.86200,N,01104.95156,E,5.005,95.09,260311,,,D*56
$GPVTG,95.09,T,,M,5.005,N,9.269,K,D*09
$GPGGA,133321.00,4927.86200,N,01104.95156,E,2,09,1.02,323.3,M,47.0,M,,0000*58
$GPRMC,133322.00,A,4927.86184,N,01104.95345,E,2.990,94.71,260311,,,D*56
$GPVTG,94.71,T,,M,2.990,N,5.538,K,D*0A
$GPGGA,133322.00,4927.86184,N,01104.95345,E,2,09,1.02,323.5,M,47.0,M,,0000*52
$GPRMC,133323.00,A,4927.86153,N,01104.95352,E,0.340,,260311,,,D*7B
$GPVTG,,T,,M,0.340,N,0.630,K,D*24
$GPGGA,133323.00,4927.86153,N,01104.95352,E,2,09,1.02,323.7,M,47.0,M,,0000*5D
$GPRMC,133324.00,A,4927.86129,N,01104.95298,E,0.011,,260311,,,D*71
$GPVTG,,T,,M,0.011,N,0.020,K,D*24
$GPGGA,133324.00,4927.86129,N,01104.95298,E,2,09,1.02,323.9,M,47.0,M,,0000*5E
$GPRMC,133325.00,A,4927.86127,N,01104.95275,E,0.198,,260311,,,D*7D
$GPVTG,,T,,M,0.198,N,0.367,K,D*24
$GPGGA,133325.00,4927.86127,N,01104.95275,E,2,08,1.35,324.0,M,47.0,M,,0000*59
$GPRMC,133326.00,A,4927.86138,N,01104.95264,E,0.145,,260311,,,D*70
$GPVTG,,T,,M,0.145,N,0.268,K,D*2A
$GPGGA,133326.00,4927.86138,N,01104.95264,E,2,09,1.35,324.0,M,47.0,M,,0000*55
$GPRMC,133327.00,A,4927.86137,N,01104.95223,E,0.049,,260311,,,D*70
$GPVTG,,T,,M,0.049,N,0.090,K,D*22
$GPGGA,133327.00,4927.86137,N,01104.95223,E,2,09,1.35,324.3,M,47.0,M,,0000*5B
$GPRMC,133328.00,A,4927.86127,N,01104.95240,E,0.199,,260311,,,D*77
$GPVTG,,T,,M,0.199,N,0.368,K,D*2A
$GPGGA,133328.00,4927.86127,N,01104.95240,E,2,09,1.02,324.6,M,47.0,M,,0000*51
$GPRMC,133329.00,A,4927.86115,N,01104.95231,E,0.114,,260311,,,D*74
$GPVTG,,T,,M,0.114,N,0.211,K,D*20
$GPGGA,133329.00,4927.86115,N,01104.95231,E,2,09,1.02,324.8,M,47.0,M,,0000*59
$GPRMC,133330.00,A,4927.86081,N,01104.95258,E,0.137,,260311,,,D*7E
$GPVTG,,T,,M,0.137,N,0.254,K,D*20
$GPGGA,133330.00,4927.86081,N,01104.95258,E,2,09,1.02,325.1,M,47.0,M,,0000*5A
$GPRMC,133331.00,A,4927.86034,N,01104.95332,E,0.013,,260311,,,D*7B
$GPVTG,,T,,M,0.013,N,0.025,K,D*23
$GPGGA,133331.00,4927.86034,N,01104.95332,E,2,09,1.02,325.3,M,47.0,M,,0000*5A
$GPRMC,133332.00,A,4927.85998,N,01104.95388,E,0.127,,260311,,,D*73
$GPVTG,,T,,M,0.127,N,0.236,K,D*25
$GPGGA,133332.00,4927.85998,N,01104.95388,E,2,09,1.02,325.7,M,47.0,M,,0000*50
$GPRMC,133333.00,A,4927.85961,N,01104.95456,E,0.071,,260311,,,D*72
$GPVTG,,T,,M,0.071,N,0.132,K,D*20
$GPGGA,133333.00,4927.85961,N,01104.95456,E,2,09,1.02,326.0,M,47.0,M,,0000*57
$GPRMC,133334.00,A,4927.85925,N,01104.95517,E,0.027,,260311,,,D*72
$GPVTG,,T,,M,0.027,N,0.049,K,D*2E
$GPGGA,133334.00,4927.85925,N,01104.95517,E,2,09,1.02,326.4,M,47.0,M,,0000*50
$GPRMC,133335.00,A,4927.85887,N,01104.95581,E,0.163,,260311,,,D*74
$GPVTG,,T,,M,0.163,N,0.302,K,D*23
$GPGGA,133335.00,4927.85887,N,01104.95581,E,2,09,1.02,327.0,M,47.0,M,,0000*52
$GPRMC,133336.00,A,4927.85864,N,01104.95630,E,0.242,,260311,,,D*73
$GPVTG,,T,,M,0.242,N,0.449,K,D*2B
$GPGGA,133336.00,4927.85864,N,01104.95630,E,2,09,1.02,327.5,M,47.0,M,,0000*50
$GPRMC,133337.00,A,4927.85842,N,01104.95680,E,0.401,,260311,,,D*7C
$GPVTG,,T,,M,0.401,N,0.743,K,D*23
$GPGGA,133337.00,4927.85842,N,01104.95680,E,2,09,1.02,328.0,M,47.0,M,,0000*54
$GPRMC,133338.00,A,4927.85819,N,01104.95736,E,0.266,,260311,,,D*76
$GPVTG,,T,,M,0.266,N,0.492,K,D*2B
$GPGGA,133338.00,4927.85819,N,01104.95736,E,2,09,1.02,328.6,M,47.0,M,,0000*5F
$GPRMC,133339.00,A,4927.85804,N,01104.95784,E,0.375,,260311,,,D*71
$GPVTG,,T,,M,0.375,N,0.694,K,D*2C
$GPGGA,133339.00,4927.85804,N,01104.95784,E,2,09,1.02,329.3,M,47.0,M,,0000*5F
$GPRMC,133340.00,A,4927.85790,N,01104.95825,E,0.253,,260311,,,D*7C
$GPVTG,,T,,M,0.253,N,0.469,K,D*29
$GPGGA,133340.00,4927.85790,N,01104.95825,E,2,09,1.02,329.9,M,47.0,M,,0000*5D
$GPRMC,133341.00,A,4927.85778,N,01104.95862,E,0.358,,260311,,,D*72
$GPVTG,,T,,M,0.358,N,0.663,K,D*2B
$GPGGA,133341.00,4927.85778,N,01104.95862,E,2,09,1.02,330.5,M,47.0,M,,0000*5D
$GPRMC,133342.00,A,4927.85781,N,01104.95877,E,0.346,,260311,,,D*7C
$GPVTG,,T,,M,0.346,N,0.641,K,D*24
$GPGGA,133342.00,4927.85781,N,01104.95877,E,2,09,1.18,330.7,M,47.0,M,,0000*55
$GPRMC,133343.00,A,4927.85789,N,01104.95884,E,0.252,,260311,,,D*7D
$GPVTG,,T,,M,0.252,N,0.467,K,D*26
$GPGGA,133343.00,4927.85789,N,01104.95884,E,2,09,1.18,330.8,M,47.0,M,,0000*5F
$GPRMC,133344.00,A,4927.85796,N,01104.95882,E,0.205,,260311,,,D*70
$GPVTG,,T,,M,0.205,N,0.380,K,D*2A
$GPGGA,133344.00,4927.85796,N,01104.95882,E,2,09,1.18,330.9,M,47.0,M,,0000*51
$GPRMC,133345.00,A,4927.85803,N,01104.95882,E,0.201,,260311,,,D*76
$GPVTG,,T,,M,0.201,N,0.373,K,D*22
$GPGGA,133345.00,4927.85803,N,01104.95882,E,2,09,1.18,331.0,M,47.0,M,,0000*5B
$GPRMC,133346.00,A,4927.85807,N,01104.95884,E,0.199,,260311,,,D*75
$GPVTG,,T,,M,0.199,N,0.369,K,D*2B
$GPGGA,133346.00,4927.85807,N,01104.95884,E,2,09,1.18,331.1,M,47.0,M,,0000*5B
$GPRMC,133347.00,A,4927.85809,N,01104.95895,E,0.291,,260311,,,D*71
$GPVTG,,T,,M,0.291,N,0.538,K,D*22
$GPGGA,133347.00,4927.85809,N,01104.95895,E,2,09,1.18,331.4,M,47.0,M,,0000*51
$GPRMC,133348.00,A,4927.85807,N,01104.95912,E,0.186,,260311,,,D*7B
$GPVTG,,T,,M,0.186,N,0.344,K,D*2A
$GPGGA,133348.00,4927.85807,N,01104.95912,E,2,09,1.18,331.6,M,47.0,M,,0000*5C
$GPRMC,133349.00,A,4927.85815,N,01104.95924,E,0.054,,260311,,,D*72
$GPVTG,,T,,M,0.054,N,0.101,K,D*27
$GPGGA,133349.00,4927.85815,N,01104.95924,E,2,09,1.18,331.7,M,47.0,M,,0000*5A
$GPRMC,133350.00,A,4927.85821,N,01104.95934,E,0.129,,260311,,,D*77
$GPVTG,,T,,M,0.129,N,0.238,K,D*25
$GPGGA,133350.00,4927.85821,N,01104.95934,E,2,09,1.18,331.9,M,47.0,M,,0000*5A
$GPRMC,133351.00,A,4927.85825,N,01104.95942,E,0.118,,260311,,,D*71
$GPVTG,,T,,M,0.118,N,0.219,K,D*24
$GPGGA,133351.00,4927.85825,N,01104.95942,E,2,09,1.18,332.1,M,47.0,M,,0000*55
$GPRMC,133352.00,A,4927.85829,N,01104.95949,E,0.066,,260311,,,D*7D
$GPVTG,,T,,M,0.066,N,0.123,K,D*26
$GPGGA,133352.00,4927.85829,N,01104.95949,E,2,09,1.18,332.2,M,47.0,M,,0000*52
$GPRMC,133353.00,A,4927.85831,N,01104.95956,E,0.318,,260311,,,D*71
$GPVTG,,T,,M,0.318,N,0.590,K,D*20
$GPGGA,133353.00,4927.85831,N,01104.95956,E,2,09,1.18,332.4,M,47.0,M,,0000*52
$GPRMC,133354.00,A,4927.85824,N,01104.95971,E,0.276,,260311,,,D*7E
$GPVTG,,T,,M,0.276,N,0.510,K,D*21
$GPGGA,133354.00,4927.85824,N,01104.95971,E,2,09,1.18,332.7,M,47.0,M,,0000*57
$GPRMC,133355.00,A,4927.85820,N,01104.95985,E,0.256,,260311,,,D*72
$GPVTG,,T,,M,0.256,N,0.475,K,D*21
$GPGGA,133355.00,4927.85820,N,01104.95985,E,2,09,1.18,332.9,M,47.0,M,,0000*57
$GPRMC,133356.00,A,4927.85813,N,01104.96005,E,0.108,,260311,,,D*7B
$GPVTG,,T,,M,0.108,N,0.201,K,D*2C
$GPGGA,133356.00,4927.85813,N,01104.96005,E,2,09,1.18,333.2,M,47.0,M,,0000*5C
$GPRMC,133357.00,A,4927.85805,N,01104.96021,E,0.054,,260311,,,D*73
$GPVTG,,T,,M,0.054,N,0.100,K,D*26
$GPGGA,133357.00,4927.85805,N,01104.96021,E,2,09,1.18,333.4,M,47.0,M,,0000*5A
$GPRMC,133358.00,A,4927.85798,N,01104.96037,E,0.027,,260311,,,D*74
$GPVTG,,T,,M,0.027,N,0.049,K,D*2E
$GPGGA,133358.00,4927.85798,N,01104.96037,E,2,09,1.18,333.6,M,47.0,M,,0000*5B
$GPRMC,133359.00,A,4927.85789,N,01104.96055,E,0.167,,260311,,,D*74
$GPVTG,,T,,M,0.167,N,0.310,K,D*24
$GPGGA,133359.00,4927.85789,N,01104.96055,E,2,09,1.18,333.9,M,47.0,M,,0000*51
$GPRMC,133400.00,A,4927.85780,N,01104.96070,E,0.124,,260311,,,D*76
$GPVTG,,T,,M,0.124,N,0.229,K,D*28
$GPGGA,133400.00,4927.85780,N,01104.96070,E,2,09,1.18,334.2,M,47.0,M,,0000*58
$GPRMC,133401.00,A,4927.85778,N,01104.96071,E,0.134,,260311,,,D*70
$GPVTG,,T,,M,0.134,N,0.249,K,D*2F
$GPGGA,133401.00,4927.85778,N,01104.96071,E,2,09,1.18,334.4,M,47.0,M,,0000*59
$GPRMC,133402.00,A,4927.85781,N,01104.96062,E,0.132,,260311,,,D*71
$GPVTG,,T,,M,0.132,N,0.244,K,D*24
$GPGGA,133402.00,4927.85781,N,01104.96062,E,2,09,1.18,334.4,M,47.0,M,,0000*5E
$GPRMC,133403.00,A,4927.85788,N,01104.96027,E,0.012,,260311,,,D*7B
$GPVTG,,T,,M,0.012,N,0.022,K,D*25
$GPGGA,133403.00,4927.85788,N,01104.96027,E,2,09,1.18,334.0,M,47.0,M,,0000*53
$GPRMC,133404.00,A,4927.85795,N,01104.95999,E,0.037,,260311,,,D*78
$GPVTG,,T,,M,0.037,N,0.068,K,D*2C
$GPGGA,133404.00,4927.85795,N,01104.95999,E,2,09,1.18,333.6,M,47.0,M,,0000*56
$GPRMC,133405.00,A,4927.85800,N,01104.95978,E,0.021,,260311,,,D*72
$GPVTG,,T,,M,0.021,N,0.039,K,D*2F
$GPGGA,133405.00,4927.85800,N,01104.95978,E,2,09,1.18,333.2,M,47.0,M,,0000*5F
$GPRMC,133406.00,A,4927.85810,N,01104.95954,E,0.014,,260311,,,D*78
$GPVTG,,T,,M,0.014,N,0.027,K,D*26
$GPGGA,133406.00,4927.85810,N,01104.95954,E,2,09,1.18,332.8,M,47.0,M,,0000*58
$GPRMC,133407.00,A,4927.85819,N,01104.95936,E,0.059,,260311,,,D*7D
$GPVTG,,T,,M,0.059,N,0.110,K,D*2A
$GPGGA,133407.00,4927.85819,N,01104.95936,E,2,09,1.18,332.5,M,47.0,M,,0000*59
$GPRMC,133408.00,A,4927.85828,N,01104.95915,E,0.020,,260311,,,D*7F
$GPVTG,,T,,M,0.020,N,0.036,K,D*21
$GPGGA,133408.00,4927.85828,N,01104.95915,E,2,09,1.18,332.0,M,47.0,M,,0000*50
$GPRMC,133409.00,A,4927.85830,N,01104.95904,E,0.012,,260311,,,D*76
$GPVTG,,T,,M,0.012,N,0.022,K,D*25
$GPGGA,133409.00,4927.85830,N,01104.95904,E,2,09,1.18,331.5,M,47.0,M,,0000*5E
$GPRMC,133410.00,A,4927.85836,N,01104.95883,E,0.200,,260311,,,D*77
$GPVTG,,T,,M,0.200,N,0.370,K,D*20
$GPGGA,133410.00,4927.85836,N,01104.95883,E,2,09,1.18,331.1,M,47.0,M,,0000*5A
$GPRMC,133411.00,A,4927.85841,N,01104.95868,E,0.040,,260311,,,D*75
$GPVTG,,T,,M,0.040,N,0.074,K,D*21
$GPGGA,133411.00,4927.85841,N,01104.95868,E,2,08,1.18,330.8,M,47.0,M,,0000*57
$GPRMC,133412.00,A,4927.85844,N,01104.95854,E,0.069,,260311,,,D*77
$GPVTG,,T,,M,0.069,N,0.128,K,D*22
$GPGGA,133412.00,4927.85844,N,01104.95854,E,2,08,1.18,330.4,M,47.0,M,,0000*52
$GPRMC,133413.00,A,4927.85844,N,01104.95843,E,0.043,,260311,,,D*78
$GPVTG,,T,,M,0.043,N,0.079,K,D*2F
$GPGGA,133413.00,4927.85844,N,01104.95843,E,2,08,1.18,330.0,M,47.0,M,,0000*51
$GPRMC,133414.00,A,4927.85840,N,01104.95833,E,0.018,,260311,,,D*72
$GPVTG,,T,,M,0.018,N,0.033,K,D*2F
$GPGGA,133414.00,4927.85840,N,01104.95833,E,2,08,1.18,329.6,M,47.0,M,,0000*5B
$GPRMC,133415.00,A,4927.85837,N,01104.95823,E,0.057,,260311,,,D*79
$GPVTG,,T,,M,0.057,N,0.105,K,D*20
$GPGGA,133415.00,4927.85837,N,01104.95823,E,2,08,1.18,329.3,M,47.0,M,,0000*5E
$GPRMC,133416.00,A,4927.85835,N,01104.95811,E,0.090,,260311,,,D*72
$GPVTG,,T,,M,0.090,N,0.166,K,D*2E
$GPGGA,133416.00,4927.85835,N,01104.95811,E,2,08,1.18,328.9,M,47.0,M,,0000*55
$GPRMC,133417.00,A,4927.85831,N,01104.95803,E,0.043,,260311,,,D*7A
$GPVTG,,T,,M,0.043,N,0.079,K,D*2F
$GPGGA,133417.00,4927.85831,N,01104.95803,E,2,08,1.18,328.7,M,47.0,M,,0000*5D
$GPRMC,133418.00,A,4927.85827,N,01104.95799,E,0.016,,260311,,,D*7E
$GPVTG,,T,,M,0.016,N,0.029,K,D*2A
$GPGGA,133418.00,4927.85827,N,01104.95799,E,2,08,1.18,328.5,M,47.0,M,,0000*5B
$GPRMC,133419.00,A,4927.85824,N,01104.95793,E,0.021,,260311,,,D*72
$GPVTG,,T,,M,0.021,N,0.038,K,D*2E
$GPGGA,133419.00,4927.85824,N,01104.95793,E,2,08,1.18,328.4,M,47.0,M,,0000*52
$GPRMC,133420.00,A,4927.85821,N,01104.95786,E,0.008,,260311,,,D*72
$GPVTG,,T,,M,0.008,N,0.016,K,D*29
$GPGGA,133420.00,4927.85821,N,01104.95786,E,2,08,1.18,328.2,M,47.0,M,,0000*5F
$GPRMC,133421.00,A,4927.85819,N,01104.95774,E,0.060,,260311,,,D*7B
$GPVTG,,T,,M,0.060,N,0.112,K,D*22
$GPGGA,133421.00,4927.85819,N,01104.95774,E,2,08,1.18,327.9,M,47.0,M,,0000*5C
$GPRMC,133422.00,A,4927.85816,N,01104.95766,E,0.015,,260311,,,D*76
$GPVTG,,T,,M,0.015,N,0.028,K,D*28
$GPGGA,133422.00,4927.85816,N,01104.95766,E,2,08,1.18,327.7,M,47.0,M,,0000*5D
$GPRMC,133423.00,A,4927.85811,N,01104.95761,E,0.084,,260311,,,D*7F
$GPVTG,,T,,M,0.084,N,0.155,K,D*2B
$GPGGA,133423.00,4927.85811,N,01104.95761,E,2,08,1.18,327.5,M,47.0,M,,0000*5E
$GPRMC,133424.00,A,4927.85806,N,01104.95757,E,0.012,,260311,,,D*74
$GPVTG,,T,,M,0.012,N,0.022,K,D*25
$GPGGA,133424.00,4927.85806,N,01104.95757,E,2,08,1.18,327.3,M,47.0,M,,0000*5C
$GPRMC,133425.00,A,4927.85801,N,01104.95751,E,0.052,,260311,,,D*70
$GPVTG,,T,,M,0.052,N,0.097,K,D*2F
$GPGGA,133425.00,4927.85801,N,01104.95751,E,2,08,1.18,327.1,M,47.0,M,,0000*5E
$GPRMC,133426.00,A,4927.85794,N,01104.95748,E,0.050,,260311,,,D*7A
$GPVTG,,T,,M,0.050,N,0.092,K,D*28
$GPGGA,133426.00,4927.85794,N,01104.95748,E,2,08,1.46,326.8,M,47.0,M,,0000*55
$GPRMC,133427.00,A,4927.85784,N,01104.95751,E,0.024,,260311,,,D*71
$GPVTG,,T,,M,0.024,N,0.044,K,D*20
$GPGGA,133427.00,4927.85784,N,01104.95751,E,2,08,1.18,326.6,M,47.0,M,,0000*58
$GPRMC,133428.00,A,4927.85779,N,01104.95750,E,0.007,,260311,,,D*7C
$GPVTG,,T,,M,0.007,N,0.013,K,D*23
$GPGGA,133428.00,4927.85779,N,01104.95750,E,2,08,1.18,326.5,M,47.0,M,,0000*57
$GPRMC,133429.00,A,4927.85773,N,01104.95750,E,0.040,,260311,,,D*74
$GPVTG,,T,,M,0.040,N,0.073,K,D*26
$GPGGA,133429.00,4927.85773,N,01104.95750,E,2,08,1.18,326.4,M,47.0,M,,0000*5D
$GPRMC,133430.00,A,4927.85767,N,01104.95749,E,0.015,,260311,,,D*71
$GPVTG,,T,,M,0.015,N,0.028,K,D*28
$GPGGA,133430.00,4927.85767,N,01104.95749,E,2,09,1.18,326.4,M,47.0,M,,0000*59
$GPRMC,133431.00,A,4927.85761,N,01104.95748,E,0.015,,260311,,,D*77
$GPVTG,,T,,M,0.015,N,0.028,K,D*28
$GPGGA,133431.00,4927.85761,N,01104.95748,E,2,09,1.18,326.2,M,47.0,M,,0000*59
$GPRMC,133432.00,A,4927.85750,N,01104.95750,E,0.016,,260311,,,D*7C
$GPVTG,,T,,M,0.016,N,0.030,K,D*22
$GPGGA,133432.00,4927.85750,N,01104.95750,E,2,09,1.18,326.1,M,47.0,M,,0000*52
$GPRMC,133433.00,A,4927.85744,N,01104.95749,E,0.028,,260311,,,D*7D
$GPVTG,,T,,M,0.028,N,0.051,K,D*28
$GPGGA,133433.00,4927.85744,N,01104.95749,E,2,09,1.18,326.0,M,47.0,M,,0000*5F
$GPRMC,133434.00,A,4927.85743,N,01104.95748,E,0.010,,260311,,,D*77
$GPVTG,,T,,M,0.010,N,0.018,K,D*2E
$GPGGA,133434.00,4927.85743,N,01104.95748,E,2,09,1.18,325.9,M,47.0,M,,0000*54
$GPRMC,133435.00,A,4927.85739,N,01104.95748,E,0.008,,260311,,,D*72
$GPVTG,,T,,M,0.008,N,0.015,K,D*2A
$GPGGA,133435.00,4927.85739,N,01104.95748,E,2,09,1.18,325.8,M,47.0,M,,0000*59
$GPRMC,133436.00,A,4927.85733,N,01104.95751,E,0.041,,260311,,,D*7E
$GPVTG,,T,,M,0.041,N,0.076,K,D*22
$GPGGA,133436.00,4927.85733,N,01104.95751,E,2,09,1.18,325.7,M,47.0,M,,0000*57
$GPRMC,133437.00,A,4927.85737,N,01104.95752,E,0.012,,260311,,,D*7E
$GPVTG,,T,,M,0.012,N,0.023,K,D*24
$GPGGA,133437.00,4927.85737,N,01104.95752,E,2,09,1.18,325.6,M,47.0,M,,0000*50
$GPRMC,133438.00,A,4927.85742,N,01104.95753,E,0.013,,260311,,,D*73
$GPVTG,,T,,M,0.013,N,0.024,K,D*22
$GPGGA,133438.00,4927.85742,N,01104.95753,E,2,09,1.18,325.5,M,47.0,M,,0000*5F
$GPRMC,133439.00,A,4927.85752,N,01104.95754,E,0.069,,260311,,,D*79
$GPVTG,,T,,M,0.069,N,0.128,K,D*22
$GPGGA,133439.00,4927.85752,N,01104.95754,E,2,09,1.18,325.5,M,47.0,M,,0000*58
$GPRMC,133440.00,A,4927.85760,N,01104.95757,E,0.009,,260311,,,D*73
$GPVTG,,T,,M,0.009,N,0.016,K,D*28
$GPGGA,133440.00,4927.85760,N,01104.95757,E,2,09,1.18,325.6,M,47.0,M,,0000*57
$GPRMC,133441.00,A,4927.85767,N,01104.95759,E,0.025,,260311,,,D*75
$GPVTG,,T,,M,0.025,N,0.046,K,D*23
$GPGGA,133441.00,4927.85767,N,01104.95759,E,2,09,1.18,325.6,M,47.0,M,,0000*5F
$GPRMC,133442.00,A,4927.85772,N,01104.95762,E,0.019,,260311,,,D*75
$GPVTG,,T,,M,0.019,N,0.036,K,D*2B
$GPGGA,133442.00,4927.85772,N,01104.95762,E,2,09,1.18,325.6,M,47.0,M,,0000*50
$GPRMC,133443.00,A,4927.85779,N,01104.95765,E,0.026,,260311,,,D*74
$GPVTG,,T,,M,0.026,N,0.048,K,D*2E
$GPGGA,133443.00,4927.85779,N,01104.95765,E,2,09,1.19,325.5,M,47.0,M,,0000*5F
$GPRMC,133444.00,A,4927.85789,N,01104.95769,E,0.024,,260311,,,D*72
$GPVTG,,T,,M,0.024,N,0.044,K,D*20
$GPGGA,133444.00,4927.85789,N,01104.95769,E,2,09,1.19,325.5,M,47.0,M,,0000*5B
$GPRMC,133445.00,A,4927.85800,N,01104.95776,E,0.027,,260311,,,D*70
$GPVTG,,T,,M,0.027,N,0.051,K,D*27
$GPGGA,133445.00,4927.85800,N,01104.95776,E,2,09,1.19,325.5,M,47.0,M,,0000*5A
$GPRMC,133446.00,A,4927.85813,N,01104.95781,E,0.023,,260311,,,D*7D
$GPVTG,,T,,M,0.023,N,0.042,K,D*21
$GPGGA,133446.00,4927.85813,N,01104.95781,E,2,09,1.19,325.4,M,47.0,M,,0000*52
$GPRMC,133447.00,A,4927.85827,N,01104.95787,E,0.121,,260311,,,D*7E
$GPVTG,,T,,M,0.121,N,0.224,K,D*20
$GPGGA,133447.00,4927.85827,N,01104.95787,E,2,09,1.19,325.4,M,47.0,M,,0000*52
$GPRMC,133448.00,A,4927.85840,N,01104.95792,E,0.016,,260311,,,D*71
$GPVTG,,T,,M,0.016,N,0.029,K,D*2A
$GPGGA,133448.00,4927.85840,N,01104.95792,E,2,09,1.19,325.3,M,47.0,M,,0000*5F
$GPRMC,133449.00,A,4927.85852,N,01104.95795,E,0.019,,260311,,,D*7B
$GPVTG,,T,,M,0.019,N,0.035,K,D*28
$GPGGA,133449.00,4927.85852,N,01104.95795,E,2,09,1.19,325.2,M,47.0,M,,0000*5B
$GPRMC,133450.00,A,4927.85862,N,01104.95795,E,0.026,,260311,,,D*7C
$GPVTG,,T,,M,0.026,N,0.048,K,D*2E
$GPGGA,133450.00,4927.85862,N,01104.95795,E,2,09,1.19,325.2,M,47.0,M,,0000*50
$GPRMC,133451.00,A,4927.85869,N,01104.95795,E,0.059,,260311,,,D*7E
$GPVTG,,T,,M,0.059,N,0.109,K,D*22
$GPGGA,133451.00,4927.85869,N,01104.95795,E,2,09,1.19,325.1,M,47.0,M,,0000*59
$GPRMC,133452.00,A,4927.85875,N,01104.95795,E,0.033,,260311,,,D*7C
$GPVTG,,T,,M,0.033,N,0.061,K,D*21
$GPGGA,133452.00,4927.85875,N,01104.95795,E,2,09,1.19,324.9,M,47.0,M,,0000*5E
$GPRMC,133453.00,A,4927.85884,N,01104.95793,E,0.017,,260311,,,D*73
$GPVTG,,T,,M,0.017,N,0.032,K,D*21
$GPGGA,133453.00,4927.85884,N,01104.95793,E,2,09,1.19,324.9,M,47.0,M,,0000*57
$GPRMC,133454.00,A,4927.85893,N,01104.95790,E,0.020,,260311,,,D*75
$GPVTG,,T,,M,0.020,N,0.036,K,D*21
$GPGGA,133454.00,4927.85893,N,01104.95790,E,2,09,1.19,324.8,M,47.0,M,,0000*54
$GPRMC,133455.00,A,4927.85898,N,01104.95791,E,0.026,,260311,,,D*78
$GPVTG,,T,,M,0.026,N,0.047,K,D*21
$GPGGA,133455.00,4927.85898,N,01104.95791,E,2,09,1.19,324.8,M,47.0,M,,0000*5F
$GPRMC,133456.00,A,4927.85902,N,01104.95796,E,0.049,,260311,,,D*77
$GPVTG,,T,,M,0.049,N,0.091,K,D*23
$GPGGA,133456.00,4927.85902,N,01104.95796,E,2,09,1.19,324.7,M,47.0,M,,0000*56
$GPRMC,133457.00,A,4927.85910,N,01104.95800,E,0.037,,260311,,,D*7C
$GPVTG,,T,,M,0.037,N,0.069,K,D*2D
$GPGGA,133457.00,4927.85910,N,01104.95800,E,2,09,1.19,324.6,M,47.0,M,,0000*55
$GPRMC,133458.00,A,4927.85917,N,01104.95803,E,0.024,,260311,,,D*75
$GPVTG,,T,,M,0.024,N,0.044,K,D*20
$GPGGA,133458.00,4927.85917,N,01104.95803,E,2,09,1.19,324.6,M,47.0,M,,0000*5E
$GPRMC,133459.00,A,4927.85924,N,01104.95809,E,0.028,,260311,,,D*72
$GPVTG,,T,,M,0.028,N,0.051,K,D*28
$GPGGA,133459.00,4927.85924,N,01104.95809,E,2,09,1.19,324.6,M,47.0,M,,0000*55
$GPRMC,133500.00,A,4927.85932,N,01104.95813,E,0.101,,260311,,,D*79
$GPVTG,,T,,M,0.101,N,0.187,K,D*28
$GPGGA,133500.00,4927.85932,N,01104.95813,E,2,09,1.19,324.5,M,47.0,M,,0000*57
$GPRMC,133501.00,A,4927.85937,N,01104.95819,E,0.069,,260311,,,D*78
$GPVTG,,T,,M,0.069,N,0.127,K,D*2D
$GPGGA,133501.00,4927.85937,N,01104.95819,E,2,09,1.19,324.4,M,47.0,M,,0000*58
$GPRMC,133502.00,A,4927.85940,N,01104.95826,E,0.009,,260311,,,D*71
$GPVTG,,T,,M,0.009,N,0.017,K,D*29
$GPGGA,133502.00,4927.85940,N,01104.95826,E,2,09,1.19,324.3,M,47.0,M,,0000*50
$GPRMC,133503.00,A,4927.85940,N,01104.95833,E,0.015,,260311,,,D*79
$GPVTG,,T,,M,0.015,N,0.028,K,D*28
$GPGGA,133503.00,4927.85940,N,01104.95833,E,2,09,1.19,324.3,M,47.0,M,,0000*55
$GPRMC,133504.00,A,4927.85942,N,01104.95837,E,0.058,,260311,,,D*71
$GPVTG,,T,,M,0.058,N,0.108,K,D*22
$GPGGA,133504.00,4927.85942,N,01104.95837,E,2,09,1.19,324.3,M,47.0,M,,0000*54
$GPRMC,133505.00,A,4927.85948,N,01104.95842,E,0.053,,260311,,,D*73
$GPVTG,,T,,M,0.053,N,0.098,K,D*21
$GPGGA,133505.00,4927.85948,N,01104.95842,E,2,09,1.19,324.3,M,47.0,M,,0000*5D
$GPRMC,133506.00,A,4927.85954,N,01104.95845,E,0.033,,260311,,,D*7C
$GPVTG,,T,,M,0.033,N,0.060,K,D*20
$GPGGA,133506.00,4927.85954,N,01104.95845,E,2,09,1.19,324.1,M,47.0,M,,0000*56
$GPRMC,133507.00,A,4927.85962,N,01104.95848,E,0.069,,260311,,,D*7A
$GPVTG,,T,,M,0.069,N,0.128,K,D*22
$GPGGA,133507.00,4927.85962,N,01104.95848,E,2,09,1.19,323.9,M,47.0,M,,0000*50
$GPRMC,133508.00,A,4927.85968,N,01104.95853,E,0.033,,260311,,,D*7A
$GPVTG,,T,,M,0.033,N,0.060,K,D*20
$GPGGA,133508.00,4927.85968,N,01104.95853,E,2,09,1.19,323.8,M,47.0,M,,0000*5E
$GPRMC,133509.00,A,4927.85975,N,01104.95857,E,0.059,,260311,,,D*7F
$GPVTG,,T,,M,0.059,N,0.109,K,D*22
$GPGGA,133509.00,4927.85975,N,01104.95857,E,2,09,1.19,323.6,M,47.0,M,,0000*59
$GPRMC,133510.00,A,4927.85980,N,01104.95861,E,0.036,,260311,,,D*71
$GPVTG,,T,,M,0.036,N,0.067,K,D*22
$GPGGA,133510.00,4927.85980,N,01104.95861,E,2,09,1.19,323.4,M,47.0,M,,0000*5C
$GPRMC,133511.00,A,4927.85984,N,01104.95863,E,0.032,,260311,,,D*72
$GPVTG,,T,,M,0.032,N,0.059,K,D*2B
$GPGGA,133511.00,4927.85984,N,01104.95863,E,2,08,1.46,323.2,M,47.0,M,,0000*56
$GPRMC,133512.00,A,4927.85989,N,01104.95862,E,0.053,,260311,,,D*7A
$GPVTG,,T,,M,0.053,N,0.099,K,D*20
$GPGGA,133512.00,4927.85989,N,01104.95862,E,2,08,1.46,323.1,M,47.0,M,,0000*5A
$GPRMC,133513.00,A,4927.85994,N,01104.95862,E,0.017,,260311,,,D*77
$GPVTG,,T,,M,0.017,N,0.031,K,D*22
$GPGGA,133513.00,4927.85994,N,01104.95862,E,2,08,1.59,323.0,M,47.0,M,,0000*58
$GPRMC,133514.00,A,4927.85997,N,01104.95861,E,0.087,,260311,,,D*79
$GPVTG,,T,,M,0.087,N,0.162,K,D*2C
$GPGGA,133514.00,4927.85997,N,01104.95861,E,2,09,1.59,322.9,M,47.0,M,,0000*56
$GPRMC,133515.00,A,4927.86004,N,01104.95855,E,0.023,,260311,,,D*71
$GPVTG,,T,,M,0.023,N,0.042,K,D*21
$GPGGA,133515.00,4927.86004,N,01104.95855,E,2,09,1.59,322.6,M,47.0,M,,0000*5F
$GPRMC,133516.00,A,4927.86010,N,01104.95851,E,0.095,,260311,,,D*7E
$GPVTG,,T,,M,0.095,N,0.175,K,D*29
$GPGGA,133516.00,4927.86010,N,01104.95851,E,2,08,1.26,322.4,M,47.0,M,,0000*56
$GPRMC,133517.00,A,4927.86014,N,01104.95847,E,0.054,,260311,,,D*71
$GPVTG,,T,,M,0.054,N,0.100,K,D*26
$GPGGA,133517.00,4927.86014,N,01104.95847,E,2,08,1.26,322.3,M,47.0,M,,0000*53
$GPRMC,133518.00,A,4927.86017,N,01104.95843,E,0.020,,260311,,,D*7A
$GPVTG,,T,,M,0.020,N,0.038,K,D*2F
$GPGGA,133518.00,4927.86017,N,01104.95843,E,2,08,1.26,322.2,M,47.0,M,,0000*5A
$GPRMC,133519.00,A,4927.86021,N,01104.95839,E,0.025,,260311,,,D*76
$GPVTG,,T,,M,0.025,N,0.047,K,D*22
$GPGGA,133519.00,4927.86021,N,01104.95839,E,2,08,1.26,322.0,M,47.0,M,,0000*51
$GPRMC,133520.00,A,4927.86026,N,01104.95831,E,0.052,,260311,,,D*73
$GPVTG,,T,,M,0.052,N,0.096,K,D*2E
$GPGGA,133520.00,4927.86026,N,01104.95831,E,2,08,1.59,321.8,M,47.0,M,,0000*57
$GPRMC,133521.00,A,4927.86026,N,01104.95830,E,0.125,,260311,,,D*72
$GPVTG,,T,,M,0.125,N,0.231,K,D*20
$GPGGA,133521.00,4927.86026,N,01104.95830,E,2,08,1.59,321.7,M,47.0,M,,0000*58
$GPRMC,133522.00,A,4927.86030,N,01104.95820,E,0.236,,260311,,,D*76
$GPVTG,,T,,M,0.236,N,0.437,K,D*21
$GPGGA,133522.00,4927.86030,N,01104.95820,E,2,09,1.59,321.6,M,47.0,M,,0000*5D
$GPRMC,133523.00,A,4927.85999,N,01104.95856,E,0.237,,260311,,,D*7E
$GPVTG,,T,,M,0.237,N,0.440,K,D*20
$GPGGA,133523.00,4927.85999,N,01104.95856,E,2,09,1.46,322.0,M,47.0,M,,0000*5F
$GPRMC,133524.00,A,4927.85975,N,01104.95883,E,0.148,,260311,,,D*78
$GPVTG,,T,,M,0.148,N,0.275,K,D*2B
$GPGGA,133524.00,4927.85975,N,01104.95883,E,2,09,1.46,322.3,M,47.0,M,,0000*51
$GPRMC,133525.00,A,4927.85950,N,01104.95911,E,0.103,,260311,,,D*7B
$GPVTG,,T,,M,0.103,N,0.191,K,D*2D
$GPGGA,133525.00,4927.85950,N,01104.95911,E,2,09,1.46,322.6,M,47.0,M,,0000*58
$GPRMC,133526.00,A,4927.85915,N,01104.95947,E,0.139,,260311,,,D*73
$GPVTG,,T,,M,0.139,N,0.258,K,D*22
$GPGGA,133526.00,4927.85915,N,01104.95947,E,2,09,1.46,323.0,M,47.0,M,,0000*5E
$GPRMC,133527.00,A,4927.85892,N,01104.96002,E,1.743,93.75,260311,,,D*5B
$GPVTG,93.75,T,,M,1.743,N,3.228,K,D*0A
$GPGGA,133527.00,4927.85892,N,01104.96002,E,2,09,1.19,323.3,M,47.0,M,,0000*53
$GPRMC,133528.00,A,4927.85883,N,01104.96122,E,4.077,94.47,260311,,,D*54
$GPVTG,94.47,T,,M,4.077,N,7.550,K,D*05
$GPGGA,133528.00,4927.85883,N,01104.96122,E,2,09,1.19,323.1,M,47.0,M,,0000*5D
$GPRMC,133529.00,A,4927.85875,N,01104.96327,E,5.705,94.47,260311,,,D*58
$GPVTG,94.47,T,,M,5.705,N,10.566,K,D*35
$GPGGA,133529.00,4927.85875,N,01104.96327,E,2,09,1.19,323.0,M,47.0,M,,0000*53
$GPRMC,133530.00,A,4927.85882,N,01104.96558,E,5.103,90.51,260311,,,D*55
$GPVTG,90.51,T,,M,5.103,N,9.452,K,D*08
$GPGGA,133530.00,4927.85882,N,01104.96558,E,2,09,1.19,323.1,M,47.0,M,,0000*5C
$GPRMC,133531.00,A,4927.85906,N,01104.96720,E,2.369,,260311,,,D*7E
$GPVTG,,T,,M,2.369,N,4.387,K,D*20
$GPGGA,133531.00,4927.85906,N,01104.96720,E,2,08,1.47,323.5,M,47.0,M,,0000*53
$GPRMC,133532.00,A,4927.85922,N,01104.96752,E,0.219,,260311,,,D*7A
$GPVTG,,T,,M,0.219,N,0.405,K,D*2D
$GPGGA,133532.00,4927.85922,N,01104.96752,E,2,08,1.47,323.4,M,47.0,M,,0000*52
$GPRMC,133533.00,A,4927.85904,N,01104.96697,E,2.319,,260311,,,D*74
$GPVTG,,T,,M,2.319,N,4.295,K,D*25
$GPGGA,133533.00,4927.85904,N,01104.96697,E,2,09,1.47,323.6,M,47.0,M,,0000*5C
$GPRMC,133534.00,A,4927.85892,N,01104.96498,E,3.514,99.77,260311,,,D*54
$GPVTG,99.77,T,,M,3.514,N,6.507,K,D*0F
$GPGGA,133534.00,4927.85892,N,01104.96498,E,2,08,1.47,323.3,M,47.0,M,,0000*5C
$GPRMC,133535.00,A,4927.85838,N,01104.96360,E,2.577,,260311,,,D*7F
$GPVTG,,T,,M,2.577,N,4.772,K,D*27
$GPGGA,133535.00,4927.85838,N,01104.96360,E,2,09,1.47,323.5,M,47.0,M,,0000*5A
$GPRMC,133536.00,A,4927.85817,N,01104.96254,E,0.932,,260311,,,D*78
$GPVTG,,T,,M,0.932,N,1.727,K,D*2D
$GPGGA,133536.00,4927.85817,N,01104.96254,E,2,09,1.47,323.9,M,47.0,M,,0000*5E
$GPRMC,133537.00,A,4927.85823,N,01104.96208,E,0.635,92.69,260311,,,D*55
$GPVTG,92.69,T,,M,0.635,N,1.177,K,D*0C
$GPGGA,133537.00,4927.85823,N,01104.96208,E,2,09,1.47,323.9,M,47.0,M,,0000*51
$GPRMC,133538.00,A,4927.85970,N,01104.96049,E,3.207,40.02,260311,,,D*5E
$GPVTG,40.02,T,,M,3.207,N,5.939,K,D*0E
$GPGGA,133538.00,4927.85970,N,01104.96049,E,2,09,1.19,323.2,M,47.0,M,,0000*5E
$GPRMC,133539.00,A,4927.86060,N,01104.95909,E,4.787,15.86,260311,,,D*5C
$GPVTG,15.86,T,,M,4.787,N,8.866,K,D*0E
$GPGGA,133539.00,4927.86060,N,01104.95909,E,2,09,1.19,322.9,M,47.0,M,,0000*50
$GPRMC,133540.00,A,4927.86043,N,01104.95687,E,7.019,7.18,260311,,,D*6D
$GPVTG,7.18,T,,M,7.019,N,13.000,K,D*0B
$GPGGA,133540.00,4927.86043,N,01104.95687,E,2,09,1.19,322.8,M,47.0,M,,0000*57
$GPRMC,133541.00,A,4927.86008,N,01104.95342,E,8.589,353.61,260311,,,D*60
$GPVTG,353.61,T,,M,8.589,N,15.907,K,D*0C
$GPGGA,133541.00,4927.86008,N,01104.95342,E,2,09,1.19,322.5,M,47.0,M,,0000*58
$GPRMC,133542.00,A,4927.86058,N,01104.94853,E,8.823,333.90,260311,,,D*69
$GPVTG,333.90,T,,M,8.823,N,16.341,K,D*02
$GPGGA,133542.00,4927.86058,N,01104.94853,E,2,09,1.19,321.8,M,47.0,M,,0000*5A
$GPRMC,133543.00,A,4927.86079,N,01104.94526,E,4.655,329.17,260311,,,D*63
$GPVTG,329.17,T,,M,4.655,N,8.621,K,D*39
$GPGGA,133543.00,4927.86079,N,01104.94526,E,2,09,1.19,321.3,M,47.0,M,,0000*5C
$GPRMC,133544.00,A,4927.86126,N,01104.94283,E,2.053,,260311,,,D*71
$GPVTG,,T,,M,2.053,N,3.802,K,D*2B
$GPGGA,133544.00,4927.86126,N,01104.94283,E,2,09,1.19,320.6,M,47.0,M,,0000*5C
$GPRMC,133545.00,A,4927.86141,N,01104.94193,E,1.651,,260311,,,D*74
$GPVTG,,T,,M,1.651,N,3.057,K,D*24
$GPGGA,133545.00,4927.86141,N,01104.94193,E,2,09,1.19,320.4,M,47.0,M,,0000*5C
$GPRMC,133546.00,A,4927.86176,N,01104.94111,E,0.841,,260311,,,D*77
$GPVTG,,T,,M,0.841,N,1.557,K,D*2D
$GPGGA,133546.00,4927.86176,N,01104.94111,E,2,09,1.19,319.7,M,47.0,M,,0000*58
$GPRMC,133547.00,A,4927.86197,N,01104.94060,E,0.256,,260311,,,D*72
$GPVTG,,T,,M,0.256,N,0.475,K,D*21
$GPGGA,133547.00,4927.86197,N,01104.94060,E,2,09,1.02,318.2,M,47.0,M,,0000*5F
$GPRMC,133548.00,A,4927.86211,N,01104.94011,E,0.030,,260311,,,D*74
$GPVTG,,T,,M,0.030,N,0.056,K,D*26
$GPGGA,133548.00,4927.86211,N,01104.94011,E,2,09,1.02,317.4,M,47.0,M,,0000*52
$GPRMC,133549.00,A,4927.86218,N,01104.94002,E,0.098,,260311,,,D*7C
$GPVTG,,T,,M,0.098,N,0.182,K,D*2C
$GPGGA,133549.00,4927.86218,N,01104.94002,E,2,09,1.19,316.7,M,47.0,M,,0000*50
$GPRMC,133550.00,A,4927.86234,N,01104.93997,E,0.070,,260311,,,D*7E
$GPVTG,,T,,M,0.070,N,0.129,K,D*2B
$GPGGA,133550.00,4927.86234,N,01104.93997,E,2,09,1.19,316.4,M,47.0,M,,0000*57
$GPRMC,133551.00,A,4927.86237,N,01104.93997,E,0.062,,260311,,,D*7F
$GPVTG,,T,,M,0.062,N,0.116,K,D*24
$GPGGA,133551.00,4927.86237,N,01104.93997,E,2,09,1.19,316.0,M,47.0,M,,0000*51
$GPRMC,133552.00,A,4927.86246,N,01104.93994,E,0.048,,260311,,,D*71
$GPVTG,,T,,M,0.048,N,0.090,K,D*23
$GPGGA,133552.00,4927.86246,N,01104.93994,E,2,09,1.19,315.6,M,47.0,M,,0000*52
$GPRMC,133553.00,A,4927.86245,N,01104.93976,E,0.102,,260311,,,D*70
$GPVTG,,T,,M,0.102,N,0.189,K,D*25
$GPGGA,133553.00,4927.86245,N,01104.93976,E,2,09,1.19,315.4,M,47.0,M,,0000*5E
$GPRMC,133554.00,A,4927.86244,N,01104.93969,E,0.040,,260311,,,D*7F
$GPVTG,,T,,M,0.040,N,0.075,K,D*20
$GPGGA,133554.00,4927.86244,N,01104.93969,E,2,09,1.19,315.1,M,47.0,M,,0000*53
$GPRMC,133555.00,A,4927.86242,N,01104.93966,E,0.088,,260311,,,D*73
$GPVTG,,T,,M,0.088,N,0.163,K,D*22
$GPGGA,133555.00,4927.86242,N,01104.93966,E,2,09,1.19,314.7,M,47.0,M,,0000*5C
$GPRMC,133556.00,A,4927.86241,N,01104.93962,E,0.070,,260311,,,D*70
$GPVTG,,T,,M,0.070,N,0.129,K,D*2B
$GPGGA,133556.00,4927.86241,N,01104.93962,E,2,09,1.19,314.5,M,47.0,M,,0000*5A
$GPRMC,133557.00,A,4927.86232,N,01104.93941,E,0.064,,260311,,,D*71
$GPVTG,,T,,M,0.064,N,0.118,K,D*2C
$GPGGA,133557.00,4927.86232,N,01104.93941,E,2,09,1.02,314.6,M,47.0,M,,0000*57
$GPRMC,133558.00,A,4927.86225,N,01104.93931,E,0.073,,260311,,,D*79
$GPVTG,,T,,M,0.073,N,0.135,K,D*25
$GPGGA,133558.00,4927.86225,N,01104.93931,E,2,09,1.02,314.2,M,47.0,M,,0000*5D
$GPRMC,133559.00,A,4927.86221,N,01104.93927,E,0.015,,260311,,,D*7B
$GPVTG,,T,,M,0.015,N,0.029,K,D*29
$GPGGA,133559.00,4927.86221,N,01104.93927,E,2,09,1.19,313.8,M,47.0,M,,0000*58
$GPRMC,133600.00,A,4927.86220,N,01104.93929,E,0.024,,260311,,,D*79
$GPVTG,,T,,M,0.024,N,0.045,K,D*21
$GPGGA,133600.00,4927.86220,N,01104.93929,E,2,09,1.19,313.5,M,47.0,M,,0000*55
$GPRMC,133601.00,A,4927.86220,N,01104.93923,E,0.050,,260311,,,D*71
$GPVTG,,T,,M,0.050,N,0.093,K,D*29
$GPGGA,133601.00,4927.86220,N,01104.93923,E,2,09,1.19,313.2,M,47.0,M,,0000*59
$GPRMC,133602.00,A,4927.86217,N,01104.93926,E,0.069,,260311,,,D*79
$GPVTG,,T,,M,0.069,N,0.128,K,D*22
$GPGGA,133602.00,4927.86217,N,01104.93926,E,2,09,1.19,313.0,M,47.0,M,,0000*59
$GPRMC,133603.00,A,4927.86218,N,01104.93930,E,0.026,,260311,,,D*7B
$GPVTG,,T,,M,0.026,N,0.049,K,D*2F
$GPGGA,133603.00,4927.86218,N,01104.93930,E,2,09,1.19,312.7,M,47.0,M,,0000*56
$GPRMC,133604.00,A,4927.86220,N,01104.93934,E,0.045,,260311,,,D*76
$GPVTG,,T,,M,0.045,N,0.083,K,D*2C
$GPGGA,133604.00,4927.86220,N,01104.93934,E,2,09,1.19,312.6,M,47.0,M,,0000*5F
$GPRMC,133605.00,A,4927.86223,N,01104.93938,E,0.027,,260311,,,D*7C
$GPVTG,,T,,M,0.027,N,0.050,K,D*26
$GPGGA,133605.00,4927.86223,N,01104.93938,E,2,09,1.19,312.5,M,47.0,M,,0000*52
$GPRMC,133606.00,A,4927.86225,N,01104.93942,E,0.052,,260311,,,D*76
$GPVTG,,T,,M,0.052,N,0.097,K,D*2F
$GPGGA,133606.00,4927.86225,N,01104.93942,E,2,09,1.19,312.4,M,47.0,M,,0000*5B
$GPRMC,133607.00,A,4927.86228,N,01104.93942,E,0.022,,260311,,,D*7D
$GPVTG,,T,,M,0.022,N,0.040,K,D*22
$GPGGA,133607.00,4927.86228,N,01104.93942,E,2,09,1.19,312.3,M,47.0,M,,0000*50
$GPRMC,133608.00,A,4927.86232,N,01104.93944,E,0.039,,260311,,,D*75
$GPVTG,,T,,M,0.039,N,0.073,K,D*28
$GPGGA,133608.00,4927.86232,N,01104.93944,E,2,09,1.19,312.1,M,47.0,M,,0000*50
$GPRMC,133609.00,A,4927.86233,N,01104.93946,E,0.015,,260311,,,D*79
$GPVTG,,T,,M,0.015,N,0.029,K,D*29
$GPGGA,133609.00,4927.86233,N,01104.93946,E,2,09,1.19,312.1,M,47.0,M,,0000*52
$GPRMC,133610.00,A,4927.86234,N,01104.93950,E,0.180,,260311,,,D*7C
$GPVTG,,T,,M,0.180,N,0.333,K,D*2C
$GPGGA,133610.00,4927.86234,N,01104.93950,E,2,09,1.19,311.9,M,47.0,M,,0000*51
$GPRMC,133611.00,A,4927.86233,N,01104.93952,E,0.037,,260311,,,D*75
$GPVTG,,T,,M,0.037,N,0.068,K,D*2C
$GPGGA,133611.00,4927.86233,N,01104.93952,E,2,09,1.19,311.8,M,47.0,M,,0000*54
$GPRMC,133612.00,A,4927.86235,N,01104.93953,E,0.026,,260311,,,D*71
$GPVTG,,T,,M,0.026,N,0.048,K,D*2E
$GPGGA,133612.00,4927.86235,N,01104.93953,E,2,09,1.19,311.7,M,47.0,M,,0000*5F
$GPRMC,133613.00,A,4927.86235,N,01104.93951,E,0.075,,260311,,,D*74
$GPVTG,,T,,M,0.075,N,0.139,K,D*2F
$GPGGA,133613.00,4927.86235,N,01104.93951,E,2,08,1.19,311.6,M,47.0,M,,0000*5C
$GPRMC,133614.00,A,4927.86236,N,01104.93951,E,0.053,,260311,,,D*74
$GPVTG,,T,,M,0.053,N,0.099,K,D*20
$GPGGA,133614.00,4927.86236,N,01104.93951,E,2,08,1.19,311.5,M,47.0,M,,0000*5B
$GPRMC,133615.00,A,4927.86236,N,01104.93950,E,0.064,,260311,,,D*70
$GPVTG,,T,,M,0.064,N,0.118,K,D*2C
$GPGGA,133615.00,4927.86236,N,01104.93950,E,2,08,1.19,311.4,M,47.0,M,,0000*5A
$GPRMC,133616.00,A,4927.86235,N,01104.93950,E,0.083,,260311,,,D*79
$GPVTG,,T,,M,0.083,N,0.154,K,D*2D
$GPGGA,133616.00,4927.86235,N,01104.93950,E,2,08,1.19,311.3,M,47.0,M,,0000*5D
$GPRMC,133617.00,A,4927.86234,N,01104.93949,E,0.019,,260311,,,D*72
$GPVTG,,T,,M,0.019,N,0.035,K,D*28
$GPGGA,133617.00,4927.86234,N,01104.93949,E,2,09,1.19,311.2,M,47.0,M,,0000*55
$GPRMC,133618.00,A,4927.86234,N,01104.93949,E,0.034,,260311,,,D*72
$GPVTG,,T,,M,0.034,N,0.062,K,D*25
$GPGGA,133618.00,4927.86234,N,01104.93949,E,2,09,1.19,311.1,M,47.0,M,,0000*59
$GPRMC,133619.00,A,4927.86233,N,01104.93950,E,0.068,,260311,,,D*75
$GPVTG,,T,,M,0.068,N,0.127,K,D*2C
$GPGGA,133619.00,4927.86233,N,01104.93950,E,2,09,1.19,311.0,M,47.0,M,,0000*56
$GPRMC,133620.00,A,4927.86218,N,01104.93953,E,0.028,,260311,,,D*71
$GPVTG,,T,,M,0.028,N,0.052,K,D*2B
$GPGGA,133620.00,4927.86218,N,01104.93953,E,2,09,1.19,310.9,M,47.0,M,,0000*5E
$GPRMC,133621.00,A,4927.86214,N,01104.93951,E,0.115,,260311,,,D*71
$GPVTG,,T,,M,0.115,N,0.214,K,D*24
$GPGGA,133621.00,4927.86214,N,01104.93951,E,2,09,1.19,310.8,M,47.0,M,,0000*50
$GPRMC,133622.00,A,4927.86211,N,01104.93945,E,0.263,,260311,,,D*70
$GPVTG,,T,,M,0.263,N,0.488,K,D*25
$GPGGA,133622.00,4927.86211,N,01104.93945,E,2,09,1.19,310.7,M,47.0,M,,0000*5C
$GPRMC,133623.00,A,4927.86214,N,01104.93886,E,2.440,,260311,,,D*7F
$GPVTG,,T,,M,2.440,N,4.519,K,D*2D
$GPGGA,133623.00,4927.86214,N,01104.93886,E,2,09,1.19,310.7,M,47.0,M,,0000*56
$GPRMC,133624.00,A,4927.86225,N,01104.93690,E,6.084,297.67,260311,,,D*68
$GPVTG,297.67,T,,M,6.084,N,11.267,K,D*0C
$GPGGA,133624.00,4927.86225,N,01104.93690,E,2,09,1.19,310.8,M,47.0,M,,0000*55
$GPRMC,133625.00,A,4927.86271,N,01104.93430,E,6.089,297.50,260311,,,D*69
$GPVTG,297.50,T,,M,6.089,N,11.278,K,D*0B
$GPGGA,133625.00,4927.86271,N,01104.93430,E,2,09,1.19,310.9,M,47.0,M,,0000*5C
$GPRMC,133626.00,A,4927.86346,N,01104.93297,E,4.080,300.20,260311,,,D*67
$GPVTG,300.20,T,,M,4.080,N,7.555,K,D*37
$GPGGA,133626.00,4927.86346,N,01104.93297,E,2,09,1.19,311.0,M,47.0,M,,0000*59
$GPRMC,133627.00,A,4927.86490,N,01104.93199,E,6.815,308.88,260311,,,D*6B
$GPVTG,308.88,T,,M,6.815,N,12.621,K,D*0F
$GPGGA,133627.00,4927.86490,N,01104.93199,E,2,09,1.19,311.2,M,47.0,M,,0000*5B
$GPRMC,133628.00,A,4927.86739,N,01104.93103,E,9.532,319.03,260311,,,D*63
$GPVTG,319.03,T,,M,9.532,N,17.653,K,D*0B
$GPGGA,133628.00,4927.86739,N,01104.93103,E,2,09,1.20,311.2,M,47.0,M,,0000*5D
$GPRMC,133629.00,A,4927.87144,N,01104.93060,E,15.048,349.52,260311,,,D*5F
$GPVTG,349.52,T,,M,15.048,N,27.869,K,D*3B
$GPGGA,133629.00,4927.87144,N,01104.93060,E,2,09,1.20,311.6,M,47.0,M,,0000*51
$GPRMC,133630.00,A,4927.87529,N,01104.93069,E,14.111,354.21,260311,,,D*55
$GPVTG,354.21,T,,M,14.111,N,26.134,K,D*3F
$GPGGA,133630.00,4927.87529,N,01104.93069,E,2,09,1.20,311.7,M,47.0,M,,0000*5E
$GPRMC,133631.00,A,4927.88004,N,01104.93067,E,16.825,356.88,260311,,,D*52
$GPVTG,356.88,T,,M,16.825,N,31.160,K,D*35
$GPGGA,133631.00,4927.88004,N,01104.93067,E,2,09,1.20,311.7,M,47.0,M,,0000*54
$GPRMC,133632.00,A,4927.88500,N,01104.93128,E,18.645,0.38,260311,,,D*57
$GPVTG,0.38,T,,M,18.645,N,34.530,K,D*3C
$GPGGA,133632.00,4927.88500,N,01104.93128,E,2,08,1.26,311.8,M,47.0,M,,0000*54
$GPRMC,133633.00,A,4927.89199,N,01104.93148,E,21.536,0.40,260311,,,D*57
$GPVTG,0.40,T,,M,21.536,N,39.884,K,D*31
$GPGGA,133633.00,4927.89199,N,01104.93148,E,2,08,1.47,311.8,M,47.0,M,,0000*51
$GPRMC,133634.00,A,4927.89960,N,01104.93093,E,23.059,359.45,260311,,,D*5D
$GPVTG,359.45,T,,M,23.059,N,42.705,K,D*3F
$GPGGA,133634.00,4927.89960,N,01104.93093,E,2,09,1.47,312.1,M,47.0,M,,0000*54
$GPRMC,133635.00,A,4927.90783,N,01104.92977,E,24.039,357.25,260311,,,D*5C
$GPVTG,357.25,T,,M,24.039,N,44.520,K,D*35
$GPGGA,133635.00,4927.90783,N,01104.92977,E,2,08,1.47,312.4,M,47.0,M,,0000*58
$GPRMC,133636.00,A,4927.91603,N,01104.92798,E,24.277,354.49,260311,,,D*59
$GPVTG,354.49,T,,M,24.277,N,44.961,K,D*3D
$GPGGA,133636.00,4927.91603,N,01104.92798,E,2,08,1.47,312.6,M,47.0,M,,0000*5E
$GPRMC,133637.00,A,4927.92327,N,01104.92663,E,25.219,352.84,260311,,,D*53
$GPVTG,352.84,T,,M,25.219,N,46.705,K,D*3D
$GPGGA,133637.00,4927.92327,N,01104.92663,E,2,08,1.47,313.1,M,47.0,M,,0000*5C
$GPRMC,133638.00,A,4927.93026,N,01104.92507,E,24.797,351.23,260311,,,D*52
$GPVTG,351.23,T,,M,24.797,N,45.924,K,D*3F
$GPGGA,133638.00,4927.93026,N,01104.92507,E,2,09,1.47,313.2,M,47.0,M,,0000*53
$GPRMC,133639.00,A,4927.93725,N,01104.92333,E,24.420,349.96,260311,,,D*5E
$GPVTG,349.96,T,,M,24.420,N,45.226,K,D*3E
$GPGGA,133639.00,4927.93725,N,01104.92333,E,2,08,1.47,313.2,M,47.0,M,,0000*56
$GPRMC,133640.00,A,4927.94418,N,01104.92090,E,24.267,348.22,260311,,,D*5B
$GPVTG,348.22,T,,M,24.267,N,44.943,K,D*3C
$GPGGA,133640.00,4927.94418,N,01104.92090,E,2,09,1.47,313.4,M,47.0,M,,0000*5F
$GPRMC,133641.00,A,4927.95127,N,01104.91844,E,24.240,348.90,260311,,,D*5C
$GPVTG,348.90,T,,M,24.240,N,44.893,K,D*3C
$GPGGA,133641.00,4927.95127,N,01104.91844,E,2,09,1.47,313.9,M,47.0,M,,0000*59
$GPRMC,133642.00,A,4927.95927,N,01104.91551,E,24.660,349.38,260311,,,D*5B
$GPVTG,349.38,T,,M,24.660,N,45.670,K,D*3B
$GPGGA,133642.00,4927.95927,N,01104.91551,E,2,09,1.20,314.0,M,47.0,M,,0000*54
$GPRMC,133643.00,A,4927.96675,N,01104.91275,E,25.721,349.43,260311,,,D*59
$GPVTG,349.43,T,,M,25.721,N,47.635,K,D*31
$GPGGA,133643.00,4927.96675,N,01104.91275,E,2,09,1.20,314.3,M,47.0,M,,0000*5C
$GPRMC,133644.00,A,4927.97404,N,01104.91095,E,26.164,348.95,260311,,,D*59
$GPVTG,348.95,T,,M,26.164,N,48.456,K,D*37
$GPGGA,133644.00,4927.97404,N,01104.91095,E,2,09,1.20,314.4,M,47.0,M,,0000*55
$GPRMC,133645.00,A,4927.98125,N,01104.90893,E,26.397,349.55,260311,,,D*5D
$GPVTG,349.55,T,,M,26.397,N,48.888,K,D*3B
$GPGGA,133645.00,4927.98125,N,01104.90893,E,2,09,1.20,314.6,M,47.0,M,,0000*50
$GPRMC,133646.00,A,4927.98867,N,01104.90693,E,26.252,349.71,260311,,,D*51
$GPVTG,349.71,T,,M,26.252,N,48.618,K,D*32
$GPGGA,133646.00,4927.98867,N,01104.90693,E,2,09,1.20,314.6,M,47.0,M,,0000*52
$GPRMC,133647.00,A,4927.99591,N,01104.90495,E,25.912,350.04,260311,,,D*57
$GPVTG,350.04,T,,M,25.912,N,47.990,K,D*34
$GPGGA,133647.00,4927.99591,N,01104.90495,E,2,08,1.20,314.5,M,47.0,M,,0000*50
$GPRMC,133648.00,A,4928.00300,N,01104.90320,E,25.136,350.79,260311,,,D*54
$GPVTG,350.79,T,,M,25.136,N,46.551,K,D*30
$GPGGA,133648.00,4928.00300,N,01104.90320,E,2,08,1.20,314.9,M,47.0,M,,0000*5B
$GPRMC,133649.00,A,4928.01005,N,01104.90180,E,25.181,352.21,260311,,,D*59
