$GPRMC,135028.00,A,4928.29667,N,01104.97740,E,6.544,179.19,260311,,,D*67
$GPVTG,179.19,T,,M,6.544,N,12.119,K,D*06
$GPGGA,135028.00,4928.29667,N,01104.97740,E,2,10,1.05,316.7,M,47.0,M,,0000*55
$G
$GPRMC,135030.00,A,4928.29333,N,01104.97804,E,5.089,177.60,260311,,,D*62
$GPVTG,177.60,T,,M,5.089,N,9.426,K,D*32
$GPGGA,135030.00,4928.29333,N,01104.97804,E,2,10,0.92,317.2,M,47.0,M,,0000*5C
$GPRMC,135031.00,A,4928.29187,N,01104.97815,E,4.936,178.09,260311,,,D*62
$GPVTG,178.09,T,,M,4.936,N,9.141,K,D*3A
$GPGGA,135031.00,4928.29187,N,01104.97815,E,2,10,1.12,317.5,M,47.0,M,,0000*5E
$GPRMC,135032.00,A,4928.29048,N,01104.97821,E,4.802,178.69,260311,,,D*64
$GPVTG,178.69,T,,M,4.802,N,8.894,K,D*3A
$GPGGA,135032.00,4928.29048,N,01104.97821,E,2,10,1.12,317.5,M,47.0,M,,0000*58
$GPRMC,135033.00,A,4928.28910,N,01104.97808,E,4.801,179.02,260311,,,D*64
$GPVTG,179.02,T,,M,4.801,N,8.892,K,D*33
$GPGGA,135033.00,4928.28910,N,01104.97808,E,2,10,0.92,317.6,M,47.0,M,,0000*5D
$GPRMC,135034.00,A,4928.28797,N,01104.97734,E,4.258,189.53,260311,,,D*6F
$GPVTG,189.53,T,,M,4.258,N,7.885,K,D*37
$GPGGA,135034.00,4928.28797,N,01104.97734,E,2,10,0.92,317.6,M,47.0,M,,0000*5B
$GPRMC,135035.00,A,4928.28729,N,01104.97616,E,3.756,203.09,260311,,,D*68
$GPVTG,203.09,T,,M,3.756,N,6.955,K,D*38
$GPGGA,135035.00,4928.28729,N,01104.97616,E,2,10,0.92,317.6,M,47.0,M,,0000*5E
$GPRMC,135036.00,A,4928.28708,N,01104.97451,E,3.971,211.13,260311,,,D*6A
$GPVTG,211.13,T,,M,3.971,N,7.354,K,D*31
$GPGGA,135036.00,4928.28708,N,01104.97451,E,2,10,0.92,317.6,M,47.0,M,,0000*5F
$GPRMC,135037.00,A,4928.28704,N,01104.97257,E,4.799,219.21,260311,,,D*61
$GPVTG,219.21,T,,M,4.799,N,8.887,K,D*3D
$GPGGA,135037.00,4928.28704,N,01104.97257,E,2,10,0.92,317.7,M,47.0,M,,0000*53
$GPRMC,135038.00,A,4928.28698,N,01104.97020,E,5.533,230.87,260311,,,D*6C
$GPVTG,230.87,T,,M,5.533,N,10.247,K,D*06
$GPGGA,135038.00,4928.28698,N,01104.97020,E,2,10,0.92,317.6,M,47.0,M,,0000*5B
$GPRMC,135039.00,A,4928.28690,N,01104.96732,E,7.003,245.65,260311,,,D*6A
$GPVTG,245.65,T,,M,7.003,N,12.970,K,D*01
$GPGGA,135039.00,4928.28690,N,01104.96732,E,2,10,0.92,317.5,M,47.0,M,,0000*54
$GPRMC,135040.00,A,4928.28682,N,01104.96378,E,8.377,261.86,260311,,,D*69
$GPVTG,261.86,T,,M,8.377,N,15.514,K,D*0C
$GPGGA,135040.00,4928.28682,N,01104.96378,E,2,10,0.92,317.7,M,47.0,M,,0000*51
$GPRMC,135041.00,A,4928.28677,N,01104.95995,E,9.196,264.09,260311,,,D*66
$GPVTG,264.09,T,,M,9.196,N,17.031,K,D*02
$GPGGA,135041.00,4928.28677,N,01104.95995,E,2,10,0.92,317.8,M,47.0,M,,0000*5F
$GPRMC,135042.00,A,4928.28674,N,01104.95579,E,9.250,265.92,260311,,,D*62
$GPVTG,265.92,T,,M,9.250,N,17.131,K,D*09
$GPGGA,135042.00,4928.28674,N,01104.95579,E,2,10,0.92,317.8,M,47.0,M,,0000*51
$GPRMC,135043.00,A,4928.28671,N,01104.95176,E,8.869,267.08,260311,,,D*6D
$GPVTG,267.08,T,,M,8.869,N,16.426,K,D*0B
$GPGGA,135043.00,4928.28671,N,01104.95176,E,2,10,0.92,317.9,M,47.0,M,,0000*5F
$GPRMC,135044.00,A,4928.28676,N,01104.94790,E,8.380,268.11,260311,,,D*69
$GPVTG,268.11,T,,M,8.380,N,15.520,K,D*04
$GPGGA,135044.00,4928.28676,N,01104.94790,E,2,10,0.92,318.2,M,47.0,M,,0000*54
$GPRMC,135045.00,A,4928.28678,N,01104.94441,E,7.867,269.86,260311,,,D*6B
$GPVTG,269.86,T,,M,7.867,N,14.570,K,D*02
$GPGGA,135045.00,4928.28678,N,01104.94441,E,2,10,0.92,318.3,M,47.0,M,,0000*55
$GPRMC,135046.00,A,4928.28679,N,01104.94113,E,7.196,268.52,260311,,,D*64
$GPVTG,268.52,T,,M,7.196,N,13.327,K,D*0E
$GPGGA,135046.00,4928.28679,N,01104.94113,E,2,10,0.92,318.6,M,47.0,M,,0000*50
$GPRMC,135047.00,A,4928.28682,N,01104.93841,E,5.096,266.48,260311,,,D*6E
$GPVTG,266.48,T,,M,5.096,N,9.438,K,D*3A
$GPGGA,135047.00,4928.28682,N,01104.93841,E,2,10,0.92,319.2,M,47.0,M,,0000*59
$GPRMC,135048.00,A,4928.28685,N,01104.93720,E,1.257,,260311,,,D*75
$GPVTG,,T,,M,1.257,N,2.328,K,D*2C
$GPGGA,135048.00,4928.28685,N,01104.93720,E,2,10,0.92,319.0,M,47.0,M,,0000*5B
$GPRMC,135049.00,A,4928.28690,N,01104.93699,E,0.107,,260311,,,D*74
$GPVTG,,T,,M,0.107,N,0.198,K,D*20
$GPGGA,135049.00,4928.28690,N,01104.93699,E,2,10,0.92,319.2,M,47.0,M,,0000*5F
$GPRMC,135050.00,A,4928.28689,N,01104.93701,E,0.028,,260311,,,D*78
$GPVTG,,T,,M,0.028,N,0.052,K,D*2B
$GPGGA,135050.00,4928.28689,N,01104.93701,E,2,10,0.92,319.3,M,47.0,M,,0000*5E
$GPRMC,135051.00,A,4928.28694,N,01104.93698,E,0.089,,260311,,,D*7F
$GPVTG,,T,,M,0.089,N,0.165,K,D*25
$GPGGA,135051.00,4928.28694,N,01104.93698,E,2,10,0.92,319.5,M,47.0,M,,0000*54
$GPRMC,135052.00,A,4928.28701,N,01104.93690,E,0.041,,260311,,,D*7D
$GPVTG,,T,,M,0.041,N,0.076,K,D*22
$GPGGA,135052.00,4928.28701,N,01104.93690,E,2,10,0.92,319.7,M,47.0,M,,0000*50
$GPRMC,135053.00,A,4928.28715,N,01104.93683,E,0.031,,260311,,,D*7C
$GPVTG,,T,,M,0.031,N,0.058,K,D*29
$GPGGA,135053.00,4928.28715,N,01104.93683,E,2,10,0.92,320.0,M,47.0,M,,0000*5B
$GPRMC,135054.00,A,4928.28719,N,01104.93661,E,0.946,,260311,,,D*72
$GPVTG,,T,,M,0.946,N,1.752,K,D*2C
$GPGGA,135054.00,4928.28719,N,01104.93661,E,2,10,0.92,320.1,M,47.0,M,,0000*5D
$GPRMC,135055.00,A,4928.28714,N,01104.93558,E,3.642,266.43,260311,,,D*64
$GPVTG,266.43,T,,M,3.642,N,6.745,K,D*3E
$GPGGA,135055.00,4928.28714,N,01104.93558,E,2,10,0.92,320.1,M,47.0,M,,0000*58
$GPRMC,135056.00,A,4928.28691,N,01104.93344,E,5.040,263.50,260311,,,D*65
$GPVTG,263.50,T,,M,5.040,N,9.334,K,D*36
$GPGGA,135056.00,4928.28691,N,01104.93344,E,2,10,0.92,320.3,M,47.0,M,,0000*5E
$GPRMC,135057.00,A,4928.28666,N,01104.93104,E,4.795,262.98,260311,,,D*61
$GPVTG,262.98,T,,M,4.795,N,8.879,K,D*3E
$GPGGA,135057.00,4928.28666,N,01104.93104,E,2,10,0.92,320.4,M,47.0,M,,0000*56
$GPRMC,135058.00,A,4928.28649,N,01104.92878,E,4.429,263.04,260311,,,D*60
$GPVTG,263.04,T,,M,4.429,N,8.202,K,D*38
$GPGGA,135058.00,4928.28649,N,01104.92878,E,2,10,0.92,320.7,M,47.0,M,,0000*54
$GPRMC,135059.00,A,4928.28638,N,01104.92688,E,3.903,263.31,260311,,,D*62
$GPVTG,263.31,T,,M,3.903,N,7.229,K,D*3A
$GPGGA,135059.00,4928.28638,N,01104.92688,E,2,10,0.92,320.9,M,47.0,M,,0000*5C
$GPRMC,135100.00,A,4928.28640,N,01104.92561,E,2.597,,260311,,,D*7F
$GPVTG,,T,,M,2.597,N,4.810,K,D*22
$GPGGA,135100.00,4928.28640,N,01104.92561,E,2,10,0.92,320.9,M,47.0,M,,0000*5A
$GPRMC,135101.00,A,4928.28638,N,01104.92512,E,0.957,,260311,,,D*77
$GPVTG,,T,,M,0.957,N,1.772,K,D*2E
$GPGGA,135101.00,4928.28638,N,01104.92512,E,2,10,0.92,320.9,M,47.0,M,,0000*50
$GPRMC,135102.00,A,4928.28640,N,01104.92497,E,0.373,,260311,,,D*7B
$GPVTG,,T,,M,0.373,N,0.691,K,D*2F
$GPGGA,135102.00,4928.28640,N,01104.92497,E,2,10,0.92,321.0,M,47.0,M,,0000*58
$GPRMC,135103.00,A,4928.28640,N,01104.92494,E,0.223,,260311,,,D*7D
$GPVTG,,T,,M,0.223,N,0.412,K,D*22
$GPGGA,135103.00,4928.28640,N,01104.92494,E,2,10,0.92,321.1,M,47.0,M,,0000*5B
$GPRMC,135104.00,A,4928.28644,N,01104.92498,E,0.230,,260311,,,D*70
$GPVTG,,T,,M,0.230,N,0.425,K,D*24
$GPGGA,135104.00,4928.28644,N,01104.92498,E,2,10,0.92,321.2,M,47.0,M,,0000*57
$GPRMC,135105.00,A,4928.28652,N,01104.92485,E,0.587,,260311,,,D*71
$GPVTG,,T,,M,0.587,N,1.088,K,D*2D
$GPGGA,135105.00,4928.28652,N,01104.92485,E,2,10,0.92,320.6,M,47.0,M,,0000*58
$GPRMC,135106.00,A,4928.28644,N,01104.92475,E,0.348,,260311,,,D*7F
$GPVTG,,T,,M,0.348,N,0.644,K,D*2F
$GPGGA,135106.00,4928.28644,N,01104.92475,E,2,10,0.92,320.6,M,47.0,M,,0000*53
$GPRMC,135107.00,A,4928.28639,N,01104.92455,E,0.225,,260311,,,D*7C
$GPVTG,,T,,M,0.225,N,0.417,K,D*21
$GPGGA,135107.00,4928.28639,N,01104.92455,E,2,10,0.92,320.7,M,47.0,M,,0000*5B
$GPRMC,135108.00,A,4928.28637,N,01104.92447,E,0.127,,260311,,,D*7F
$GPVTG,,T,,M,0.127,N,0.235,K,D*26
$GPGGA,135108.00,4928.28637,N,01104.92447,E,2,10,0.92,320.8,M,47.0,M,,0000*56
$GPRMC,135109.00,A,4928.28638,N,01104.92447,E,0.126,,260311,,,D*70
$GPVTG,,T,,M,0.126,N,0.234,K,D*26
$GPGGA,135109.00,4928.28638,N,01104.92447,E,2,10,0.92,320.8,M,47.0,M,,0000*58
$GPRMC,135110.00,A,4928.28639,N,01104.92441,E,0.132,,260311,,,D*7A
$GPVTG,,T,,M,0.132,N,0.244,K,D*24
$GPGGA,135110.00,4928.28639,N,01104.92441,E,2,10,0.92,320.9,M,47.0,M,,0000*56
$GPRMC,135111.00,A,4928.28644,N,01104.92447,E,0.068,,260311,,,D*79
$GPVTG,,T,,M,0.068,N,0.127,K,D*2C
$GPGGA,135111.00,4928.28644,N,01104.92447,E,2,10,0.92,320.9,M,47.0,M,,0000*5B
$GPRMC,135112.00,A,4928.28648,N,01104.92447,E,0.039,,260311,,,D*72
$GPVTG,,T,,M,0.039,N,0.073,K,D*28
$GPGGA,135112.00,4928.28648,N,01104.92447,E,2,10,0.92,321.0,M,47.0,M,,0000*5C
$GPRMC,135113.00,A,4928.28651,N,01104.92447,E,0.004,,260311,,,D*75
$GPVTG,,T,,M,0.004,N,0.008,K,D*2A
$GPGGA,135113.00,4928.28651,N,01104.92447,E,2,10,0.92,321.0,M,47.0,M,,0000*55
$GPRMC,135114.00,A,4928.28659,N,01104.92455,E,0.063,,260311,,,D*78
$GPVTG,,T,,M,0.063,N,0.117,K,D*24
$GPGGA,135114.00,4928.28659,N,01104.92455,E,2,10,0.92,321.0,M,47.0,M,,0000*59
$GPRMC,135115.00,A,4928.28661,N,01104.92447,E,0.053,,260311,,,D*72
$GPVTG,,T,,M,0.053,N,0.097,K,D*2E
$GPGGA,135115.00,4928.28661,N,01104.92447,E,2,10,0.92,321.1,M,47.0,M,,0000*51
$GPRMC,135116.00,A,4928.28663,N,01104.92434,E,0.010,,260311,,,D*70
$GPVTG,,T,,M,0.010,N,0.019,K,D*2F
$GPGGA,135116.00,4928.28663,N,01104.92434,E,2,10,0.92,321.0,M,47.0,M,,0000*55
$GPRMC,135117.00,A,4928.28669,N,01104.92435,E,0.061,,260311,,,D*7C
$GPVTG,,T,,M,0.061,N,0.112,K,D*23
$GPGGA,135117.00,4928.28669,N,01104.92435,E,2,10,0.92,321.1,M,47.0,M,,0000*5E
$GPRMC,135118.00,A,4928.28673,N,01104.92435,E,0.023,,260311,,,D*7E
$GPVTG,,T,,M,0.023,N,0.043,K,D*20
$GPGGA,135118.00,4928.28673,N,01104.92435,E,2,10,0.92,320.9,M,47.0,M,,0000*53
$GPRMC,135119.00,A,4928.28678,N,01104.92430,E,0.147,,260311,,,D*72
$GPVTG,,T,,M,0.147,N,0.272,K,D*23
$GPGGA,135119.00,4928.28678,N,01104.92430,E,2,10,0.92,320.8,M,47.0,M,,0000*5D
$GPRMC,135120.00,A,4928.28681,N,01104.92415,E,0.033,,260311,,,D*7B
$GPVTG,,T,,M,0.033,N,0.062,K,D*22
$GPGGA,135120.00,4928.28681,N,01104.92415,E,2,10,0.92,320.8,M,47.0,M,,0000*56
$GPRMC,135121.00,A,4928.28707,N,01104.92401,E,0.135,,260311,,,D*77
$GPVTG,,T,,M,0.135,N,0.250,K,D*26
$GPGGA,135121.00,4928.28707,N,01104.92401,E,2,10,0.92,320.8,M,47.0,M,,0000*5D
$GPRMC,135122.00,A,4928.28721,N,01104.92393,E,0.028,,260311,,,D*71
$GPVTG,,T,,M,0.028,N,0.052,K,D*2B
$GPGGA,135122.00,4928.28721,N,01104.92393,E,2,10,0.92,320.9,M,47.0,M,,0000*57
$GPRMC,135123.00,A,4928.28731,N,01104.92384,E,0.102,,260311,,,D*7E
$GPVTG,,T,,M,0.102,N,0.189,K,D*25
$GPGGA,135123.00,4928.28731,N,01104.92384,E,2,10,0.92,320.9,M,47.0,M,,0000*51
$GPRMC,135124.00,A,4928.28736,N,01104.92370,E,0.233,,260311,,,D*74
$GPVTG,,T,,M,0.233,N,0.432,K,D*21
$GPGGA,135124.00,4928.28736,N,01104.92370,E,2,10,0.92,320.9,M,47.0,M,,0000*5A
$GPRMC,135125.00,A,4928.28739,N,01104.92295,E,2.879,263.87,260311,,,D*60
$GPVTG,263.87,T,,M,2.879,N,5.331,K,D*30
$GPGGA,135125.00,4928.28739,N,01104.92295,E,2,10,0.92,321.0,M,47.0,M,,0000*56
$GPRMC,135126.00,A,4928.28725,N,01104.92083,E,5.582,264.45,260311,,,D*6C
$GPVTG,264.45,T,,M,5.582,N,10.338,K,D*0A
$GPGGA,135126.00,4928.28725,N,01104.92083,E,2,10,0.92,321.2,M,47.0,M,,0000*5F
$GPRMC,135127.00,A,4928.28705,N,01104.91852,E,4.812,264.30,260311,,,D*6F
$GPVTG,264.30,T,,M,4.812,N,8.913,K,D*37
$GPGGA,135127.00,4928.28705,N,01104.91852,E,2,10,0.92,321.2,M,47.0,M,,0000*5B
$GPRMC,135128.00,A,4928.28684,N,01104.91597,E,5.327,265.85,260311,,,D*6F
$GPVTG,265.85,T,,M,5.327,N,9.866,K,D*36
$GPGGA,135128.00,4928.28684,N,01104.91597,E,2,10,0.92,321.0,M,47.0,M,,0000*5A
$GPRMC,135129.00,A,4928.28673,N,01104.91383,E,4.323,266.69,260311,,,D*61
$GPVTG,266.69,T,,M,4.323,N,8.007,K,D*3C
$GPGGA,135129.00,4928.28673,N,01104.91383,E,2,10,0.92,321.1,M,47.0,M,,0000*51
$GPRMC,135130.00,A,4928.28659,N,01104.91145,E,4.536,267.04,260311,,,D*61
$GPVTG,267.04,T,,M,4.536,N,8.401,K,D*36
$GPGGA,135130.00,4928.28659,N,01104.91145,E,2,10,0.92,321.0,M,47.0,M,,0000*58
$GPRMC,135131.00,A,4928.28648,N,01104.90907,E,4.901,267.43,260311,,,D*64
$GPVTG,267.43,T,,M,4.901,N,9.076,K,D*38
$GPGGA,135131.00,4928.28648,N,01104.90907,E,2,10,0.92,320.9,M,47.0,M,,0000*5E
$GPRMC,135132.00,A,4928.28624,N,01104.90606,E,6.032,267.43,260311,,,D*68
$GPVTG,267.43,T,,M,6.032,N,11.172,K,D*0F
$GPGGA,135132.00,4928.28624,N,01104.90606,E,2,10,0.92,320.7,M,47.0,M,,0000*57
$GPRMC,135133.00,A,4928.28626,N,01104.90282,E,8.021,269.09,260311,,,D*6F
$GPVTG,269.09,T,,M,8.021,N,14.855,K,D*0A
$GPGGA,135133.00,4928.28626,N,01104.90282,E,2,10,0.92,320.6,M,47.0,M,,0000*5D
$GPRMC,135134.00,A,4928.28615,N,01104.89904,E,8.858,256.90,260311,,,D*6F
$GPVTG,256.90,T,,M,8.858,N,16.405,K,D*0B
$GPGGA,135134.00,4928.28615,N,01104.89904,E,2,10,0.92,320.2,M,47.0,M,,0000*53
$GPRMC,135135.00,A,4928.28496,N,01104.89548,E,10.126,236.07,260311,,,D*52
$GPVTG,236.07,T,,M,10.126,N,18.754,K,D*33
$GPGGA,135135.00,4928.28496,N,01104.89548,E,2,10,0.92,319.9,M,47.0,M,,0000*5E
$GPRMC,135136.00,A,4928.28243,N,01104.89249,E,12.758,210.21,260311,,,D*54
$GPVTG,210.21,T,,M,12.758,N,23.628,K,D*3C
$GPGGA,135136.00,4928.28243,N,01104.89249,E,2,10,0.92,319.4,M,47.0,M,,0000*58
$GPRMC,135137.00,A,4928.27853,N,01104.89093,E,15.908,194.22,260311,,,D*54
$GPVTG,194.22,T,,M,15.908,N,29.462,K,D*3A
$GPGGA,135137.00,4928.27853,N,01104.89093,E,2,10,0.92,319.5,M,47.0,M,,0000*59
$GPRMC,135138.00,A,4928.27383,N,01104.89080,E,16.839,180.71,260311,,,D*5C
$GPVTG,180.71,T,,M,16.839,N,31.186,K,D*3F
$GPGGA,135138.00,4928.27383,N,01104.89080,E,2,10,0.92,319.2,M,47.0,M,,0000*55
$GPRMC,135139.00,A,4928.26908,N,01104.89100,E,16.640,180.73,260311,,,D*5E
$GPVTG,180.73,T,,M,16.640,N,30.818,K,D*32
$GPGGA,135139.00,4928.26908,N,01104.89100,E,2,10,0.92,319.3,M,47.0,M,,0000*54
$GPRMC,135140.00,A,4928.26447,N,01104.89135,E,15.784,180.64,260311,,,D*5C
$GPVTG,180.64,T,,M,15.784,N,29.231,K,D*37
$GPGGA,135140.00,4928.26447,N,01104.89135,E,2,10,0.92,319.2,M,47.0,M,,0000*5B
$GPRMC,135141.00,A,4928.26007,N,01104.89167,E,13.982,180.88,260311,,,D*56
$GPVTG,180.88,T,,M,13.982,N,25.894,K,D*32
$GPGGA,135141.00,4928.26007,N,01104.89167,E,2,10,0.92,319.3,M,47.0,M,,0000*5C
$GPRMC,135142.00,A,4928.25640,N,01104.89179,E,11.734,180.97,260311,,,D*53
$GPVTG,180.97,T,,M,11.734,N,21.730,K,D*38
$GPGGA,135142.00,4928.25640,N,01104.89179,E,2,10,0.92,318.6,M,47.0,M,,0000*52
$GPRMC,135143.00,A,4928.25327,N,01104.89179,E,9.675,181.33,260311,,,D*64
$GPVTG,181.33,T,,M,9.675,N,17.919,K,D*0A
$GPGGA,135143.00,4928.25327,N,01104.89179,E,2,10,0.92,318.2,M,47.0,M,,0000*53
$GPRMC,135144.00,A,4928.25060,N,01104.89148,E,8.005,182.18,260311,,,D*6B
$GPVTG,182.18,T,,M,8.005,N,14.825,K,D*0D
$GPGGA,135144.00,4928.25060,N,01104.89148,E,2,10,0.92,318.0,M,47.0,M,,0000*54
$GPRMC,135145.00,A,4928.24864,N,01104.89162,E,6.738,182.76,260311,,,D*60
$GPVTG,182.76,T,,M,6.738,N,12.478,K,D*00
$GPGGA,135145.00,4928.24864,N,01104.89162,E,2,10,0.92,317.7,M,47.0,M,,0000*58
$GPRMC,135146.00,A,4928.24699,N,01104.89170,E,5.702,182.68,260311,,,D*69
$GPVTG,182.68,T,,M,5.702,N,10.560,K,D*0F
$GPGGA,135146.00,4928.24699,N,01104.89170,E,2,10,0.92,317.4,M,47.0,M,,0000*57
$GPRMC,135147.00,A,4928.24548,N,01104.89162,E,5.306,182.77,260311,,,D*6A
$GPVTG,182.77,T,,M,5.306,N,9.827,K,D*37
$GPGGA,135147.00,4928.24548,N,01104.89162,E,2,09,1.05,317.3,M,47.0,M,,0000*5A
$GPRMC,135148.00,A,4928.24414,N,01104.89121,E,4.431,183.21,260311,,,D*6A
$GPVTG,183.21,T,,M,4.431,N,8.207,K,D*3E
$GPGGA,135148.00,4928.24414,N,01104.89121,E,2,09,1.05,317.7,M,47.0,M,,0000*5E
$GPRMC,135149.00,A,4928.24309,N,01104.89087,E,3.368,183.41,260311,,,D*67
$GPVTG,183.41,T,,M,3.368,N,6.237,K,D*39
$GPGGA,135149.00,4928.24309,N,01104.89087,E,2,09,1.05,318.0,M,47.0,M,,0000*51
$GPRMC,135150.00,A,4928.24226,N,01104.89019,E,2.029,183.46,260311,,,D*64
$GPVTG,183.46,T,,M,2.029,N,3.758,K,D*30
$GPGGA,135150.00,4928.24226,N,01104.89019,E,2,09,1.05,318.8,M,47.0,M,,0000*5A
$GPRMC,135151.00,A,4928.24200,N,01104.89019,E,0.431,,260311,,,D*78
$GPVTG,,T,,M,0.431,N,0.799,K,D*27
$GPGGA,135151.00,4928.24200,N,01104.89019,E,2,09,1.05,318.7,M,47.0,M,,0000*50
$GPRMC,135152.00,A,4928.24203,N,01104.89019,E,0.054,,260311,,,D*7F
$GPVTG,,T,,M,0.054,N,0.100,K,D*26
$GPGGA,135152.00,4928.24203,N,01104.89019,E,2,09,1.05,318.7,M,47.0,M,,0000*50
$GPRMC,135153.00,A,4928.24212,N,01104.89017,E,0.014,,260311,,,D*74
$GPVTG,,T,,M,0.014,N,0.027,K,D*26
$GPGGA,135153.00,4928.24212,N,01104.89017,E,2,09,1.05,318.7,M,47.0,M,,0000*5F
$GPRMC,135154.00,A,4928.24217,N,01104.89011,E,0.028,,260311,,,D*7F
$GPVTG,,T,,M,0.028,N,0.052,K,D*2B
$GPGGA,135154.00,4928.24217,N,01104.89011,E,2,09,1.05,318.8,M,47.0,M,,0000*54
$GPRMC,135155.00,A,4928.24202,N,01104.88994,E,0.834,182.96,260311,,,D*60
$GPVTG,182.96,T,,M,0.834,N,1.544,K,D*37
$GPGGA,135155.00,4928.24202,N,01104.88994,E,2,09,1.05,318.9,M,47.0,M,,0000*55
$GPRMC,135156.00,A,4928.24159,N,01104.88996,E,2.371,182.42,260311,,,D*6D
$GPVTG,182.42,T,,M,2.371,N,4.391,K,D*3D
$GPGGA,135156.00,4928.24159,N,01104.88996,E,2,09,1.05,318.7,M,47.0,M,,0000*57
$GPRMC,135157.00,A,4928.24067,N,01104.88995,E,4.128,182.48,260311,,,D*61
$GPVTG,182.48,T,,M,4.128,N,7.645,K,D*30
$GPGGA,135157.00,4928.24067,N,01104.88995,E,2,09,1.05,318.5,M,47.0,M,,0000*5B
$GPRMC,135158.00,A,4928.23945,N,01104.88996,E,4.640,182.23,260311,,,D*67
$GPVTG,182.23,T,,M,4.640,N,8.593,K,D*33
$GPGGA,135158.00,4928.23945,N,01104.88996,E,2,09,1.05,318.7,M,47.0,M,,0000*5B
$GPRMC,135159.00,A,4928.23814,N,01104.88991,E,4.621,182.85,260311,,,D*6F
$GPVTG,182.85,T,,M,4.621,N,8.559,K,D*3E
$GPGGA,135159.00,4928.23814,N,01104.88991,E,2,09,1.05,318.7,M,47.0,M,,0000*58
$GPRMC,135200.00,A,4928.23687,N,01104.88980,E,4.478,183.20,260311,,,D*64
$GPVTG,183.20,T,,M,4.478,N,8.294,K,D*38
$GPGGA,135200.00,4928.23687,N,01104.88980,E,2,09,1.05,318.7,M,47.0,M,,0000*53
$GPRMC,135201.00,A,4928.23564,N,01104.88965,E,4.339,183.47,260311,,,D*63
$GPVTG,183.47,T,,M,4.339,N,8.036,K,D*31
$GPGGA,135201.00,4928.23564,N,01104.88965,E,2,09,1.05,318.7,M,47.0,M,,0000*57
$GPRMC,135202.00,A,4928.23428,N,01104.88952,E,5.300,184.41,260311,,,D*67
$GPVTG,184.41,T,,M,5.300,N,9.816,K,D*30
$GPGGA,135202.00,4928.23428,N,01104.88952,E,2,10,1.05,318.7,M,47.0,M,,0000*51
$GPRMC,135203.00,A,4928.23236,N,01104.88918,E,8.328,185.09,260311,,,D*6B
$GPVTG,185.09,T,,M,8.328,N,15.424,K,D*0A
$GPGGA,135203.00,4928.23236,N,01104.88918,E,2,09,1.05,318.8,M,47.0,M,,0000*50
$GPRMC,135204.00,A,4928.22957,N,01104.88850,E,11.245,187.01,260311,,,D*54
$GPVTG,187.01,T,,M,11.245,N,20.826,K,D*3A
$GPGGA,135204.00,4928.22957,N,01104.88850,E,2,09,1.05,319.0,M,47.0,M,,0000*5E
$GPRMC,135205.00,A,4928.22623,N,01104.88773,E,12.260,188.47,260311,,,D*5E
$GPVTG,188.47,T,,M,12.260,N,22.705,K,D*3F
$GPGGA,135205.00,4928.22623,N,01104.88773,E,2,09,1.05,318.7,M,47.0,M,,0000*5B
$GPRMC,135206.00,A,4928.22264,N,01104.88679,E,13.340,189.03,260311,,,D*52
$GPVTG,189.03,T,,M,13.340,N,24.706,K,D*39
$GPGGA,135206.00,4928.22264,N,01104.88679,E,2,09,1.05,318.6,M,47.0,M,,0000*55
$GPRMC,135207.00,A,4928.21863,N,01104.88589,E,15.383,188.11,260311,,,D*5A
$GPVTG,188.11,T,,M,15.383,N,28.490,K,D*32
$GPGGA,135207.00,4928.21863,N,01104.88589,E,2,10,1.46,318.3,M,47.0,M,,0000*5C
$GPRMC,135208.00,A,4928.21399,N,01104.88486,E,17.173,187.22,260311,,,D*55
$GPVTG,187.22,T,,M,17.173,N,31.805,K,D*3A
$GPGGA,135208.00,4928.21399,N,01104.88486,E,2,09,1.46,317.9,M,47.0,M,,0000*5E
$GPRMC,135209.00,A,4928.20918,N,01104.88415,E,17.552,186.19,260311,,,D*52
$GPVTG,186.19,T,,M,17.552,N,32.507,K,D*38
$GPGGA,135209.00,4928.20918,N,01104.88415,E,2,08,1.46,317.6,M,47.0,M,,0000*59
$GPRMC,135210.00,A,4928.20435,N,01104.88360,E,17.007,185.00,260311,,,D*53
$GPVTG,185.00,T,,M,17.007,N,31.497,K,D*3D
$GPGGA,135210.00,4928.20435,N,01104.88360,E,2,09,1.46,317.2,M,47.0,M,,0000*53
$GPRMC,135211.00,A,4928.19973,N,01104.88262,E,16.019,184.93,260311,,,D*51
$GPVTG,184.93,T,,M,16.019,N,29.668,K,D*33
$GPGGA,135211.00,4928.19973,N,01104.88262,E,2,07,1.66,317.9,M,47.0,M,,0000*53
$GPRMC,135212.00,A,4928.19534,N,01104.88187,E,15.704,185.70,260311,,,D*51
$GPVTG,185.70,T,,M,15.704,N,29.084,K,D*33
$GPGGA,135212.00,4928.19534,N,01104.88187,E,2,08,1.66,318.0,M,47.0,M,,0000*5E
$GPRMC,135213.00,A,4928.19041,N,01104.88134,E,19.005,185.02,260311,,,D*50
$GPVTG,185.02,T,,M,19.005,N,35.197,K,D*32
$GPGGA,135213.00,4928.19041,N,01104.88134,E,2,08,1.07,318.4,M,47.0,M,,0000*53
$GPRMC,135214.00,A,4928.18471,N,01104.88081,E,20.991,185.34,260311,,,D*55
$GPVTG,185.34,T,,M,20.991,N,38.875,K,D*31
$GPGGA,135214.00,4928.18471,N,01104.88081,E,2,09,1.27,318.7,M,47.0,M,,0000*5D
$GPRMC,135215.00,A,4928.17853,N,01104.88076,E,20.574,184.00,260311,,,D*5E
$GPVTG,184.00,T,,M,20.574,N,38.103,K,D*38
$GPGGA,135215.00,4928.17853,N,01104.88076,E,2,08,1.27,319.0,M,47.0,M,,0000*50
$GPRMC,135216.00,A,4928.17265,N,01104.88054,E,19.705,183.44,260311,,,D*5B
$GPVTG,183.44,T,,M,19.705,N,36.493,K,D*33
$GPGGA,135216.00,4928.17265,N,01104.88054,E,2,09,1.48,319.1,M,47.0,M,,0000*55
$GPRMC,135217.00,A,4928.16696,N,01104.88089,E,19.063,182.61,260311,,,D*52
$GPVTG,182.61,T,,M,19.063,N,35.304,K,D*38
$GPGGA,135217.00,4928.16696,N,01104.88089,E,2,09,1.48,318.9,M,47.0,M,,0000*54
$GPRMC,135218.00,A,4928.16162,N,01104.88104,E,19.560,179.74,260311,,,D*53
$GPVTG,179.74,T,,M,19.560,N,36.226,K,D*3C
$GPGGA,135218.00,4928.16162,N,01104.88104,E,2,09,1.27,318.6,M,47.0,M,,0000*55
$GPRMC,135219.00,A,4928.15632,N,01104.88175,E,20.534,177.32,260311,,,D*52
$GPVTG,177.32,T,,M,20.534,N,38.028,K,D*39
$GPGGA,135219.00,4928.15632,N,01104.88175,E,2,09,1.12,317.8,M,47.0,M,,0000*54
$GPRMC,135220.00,A,4928.15051,N,01104.88231,E,21.762,174.93,260311,,,D*50
$GPVTG,174.93,T,,M,21.762,N,40.302,K,D*35
$GPGGA,135220.00,4928.15051,N,01104.88231,E,2,09,1.12,317.5,M,47.0,M,,0000*53
$GPRMC,135221.00,A,4928.14434,N,01104.88329,E,22.821,173.73,260311,,,D*5D
$GPVTG,173.73,T,,M,22.821,N,42.264,K,D*34
$GPGGA,135221.00,4928.14434,N,01104.88329,E,2,10,1.12,317.7,M,47.0,M,,0000*56
$GPRMC,135222.00,A,4928.13796,N,01104.88458,E,22.950,172.77,260311,,,D*51
$GPVTG,172.77,T,,M,22.950,N,42.503,K,D*30
$GPGGA,135222.00,4928.13796,N,01104.88458,E,2,09,1.64,317.9,M,47.0,M,,0000*5F
$GPRMC,135223.00,A,4928.13177,N,01104.88578,E,21.854,173.50,260311,,,D*58
$GPVTG,173.50,T,,M,21.854,N,40.473,K,D*36
$GPGGA,135223.00,4928.13177,N,01104.88578,E,2,09,1.27,318.3,M,47.0,M,,0000*56
$GPRMC,135224.00,A,4928.12596,N,01104.88665,E,20.586,175.01,260311,,,D*5B
$GPVTG,175.01,T,,M,20.586,N,38.125,K,D*3E
$GPGGA,135224.00,4928.12596,N,01104.88665,E,2,09,1.27,318.9,M,47.0,M,,0000*5E
$GPRMC,135225.00,A,4928.12067,N,01104.88718,E,17.822,176.64,260311,,,D*5D
$GPVTG,176.64,T,,M,17.822,N,33.007,K,D*33
$GPGGA,135225.00,4928.12067,N,01104.88718,E,2,09,1.64,319.2,M,47.0,M,,0000*52
$GPRMC,135226.00,A,4928.11628,N,01104.88772,E,14.132,176.51,260311,,,D*51
$GPVTG,176.51,T,,M,14.132,N,26.173,K,D*38
$GPGGA,135226.00,4928.11628,N,01104.88772,E,2,07,1.64,318.8,M,47.0,M,,0000*56
$GPRMC,135227.00,A,4928.11320,N,01104.88801,E,9.473,175.48,260311,,,D*61
$GPVTG,175.48,T,,M,9.473,N,17.543,K,D*0A
$GPGGA,135227.00,4928.11320,N,01104.88801,E,2,07,1.64,318.6,M,47.0,M,,0000*5F
$GPRMC,135228.00,A,4928.11181,N,01104.88758,E,3.368,175.62,260311,,,D*6B
$GPVTG,175.62,T,,M,3.368,N,6.237,K,D*31
$GPGGA,135228.00,4928.11181,N,01104.88758,E,2,07,1.64,318.5,M,47.0,M,,0000*59
$GPRMC,135229.00,A,4928.11141,N,01104.88656,E,0.830,,260311,,,D*75
$GPVTG,,T,,M,0.830,N,1.537,K,D*2D
$GPGGA,135229.00,4928.11141,N,01104.88656,E,2,07,1.64,319.6,M,47.0,M,,0000*59
$GPRMC,135230.00,A,4928.11128,N,01104.88680,E,0.342,,260311,,,D*77
$GPVTG,,T,,M,0.342,N,0.634,K,D*22
$GPGGA,135230.00,4928.11128,N,01104.88680,E,2,07,1.64,319.2,M,47.0,M,,0000*51
$GPRMC,135231.00,A,4928.11161,N,01104.88673,E,0.356,,260311,,,D*72
$GPVTG,,T,,M,0.356,N,0.659,K,D*2C
$GPGGA,135231.00,4928.11161,N,01104.88673,E,2,09,1.64,318.3,M,47.0,M,,0000*5F
$GPRMC,135232.00,A,4928.11153,N,01104.88653,E,0.879,175.18,260311,,,D*60
$GPVTG,175.18,T,,M,0.879,N,1.627,K,D*36
$GPGGA,135232.00,4928.11153,N,01104.88653,E,2,08,1.64,318.4,M,47.0,M,,0000*59
$GPRMC,135233.00,A,4928.11107,N,01104.88676,E,3.134,171.91,260311,,,D*61
$GPVTG,171.91,T,,M,3.134,N,5.804,K,D*3B
$GPGGA,135233.00,4928.11107,N,01104.88676,E,2,08,1.48,318.2,M,47.0,M,,0000*56
$GPRMC,135234.00,A,4928.10996,N,01104.88776,E,6.580,159.32,260311,,,D*6B
$GPVTG,159.32,T,,M,6.580,N,12.187,K,D*02
$GPGGA,135234.00,4928.10996,N,01104.88776,E,2,08,1.48,318.4,M,47.0,M,,0000*57
$GPRMC,135235.00,A,4928.10863,N,01104.89121,E,10.506,123.03,260311,,,D*52
$GPVTG,123.03,T,,M,10.506,N,19.457,K,D*37
$GPGGA,135235.00,4928.10863,N,01104.89121,E,2,09,1.15,318.5,M,47.0,M,,0000*50
$GPRMC,135236.00,A,4928.10783,N,01104.89664,E,13.522,106.03,260311,,,D*54
$GPVTG,106.03,T,,M,13.522,N,25.043,K,D*3B
$GPGGA,135236.00,4928.10783,N,01104.89664,E,2,09,1.72,318.9,M,47.0,M,,0000*59
$GPRMC,135237.00,A,4928.10778,N,01104.90312,E,15.073,95.13,260311,,,D*60
$GPVTG,95.13,T,,M,15.073,N,27.915,K,D*0E
$GPGGA,135237.00,4928.10778,N,01104.90312,E,2,09,1.48,319.1,M,47.0,M,,0000*50
$GPRMC,135238.00,A,4928.10788,N,01104.91025,E,17.041,91.22,260311,,,D*63
$GPVTG,91.22,T,,M,17.041,N,31.559,K,D*08
$GPGGA,135238.00,4928.10788,N,01104.91025,E,2,09,1.12,319.4,M,47.0,M,,0000*5C
$GPRMC,135239.00,A,4928.10785,N,01104.91896,E,21.281,90.26,260311,,,D*61
$GPVTG,90.26,T,,M,21.281,N,39.412,K,D*00
$GPGGA,135239.00,4928.10785,N,01104.91896,E,2,09,1.12,319.9,M,47.0,M,,0000*5D
$GPRMC,135240.00,A,4928.10807,N,01104.92866,E,23.112,89.42,260311,,,D*67
$GPVTG,89.42,T,,M,23.112,N,42.804,K,D*06
$GPGGA,135240.00,4928.10807,N,01104.92866,E,2,09,1.12,320.2,M,47.0,M,,0000*5B
$GPRMC,135241.00,A,4928.10835,N,01104.93910,E,23.787,89.29,260311,,,D*61
$GPVTG,89.29,T,,M,23.787,N,44.053,K,D*0D
$GPGGA,135241.00,4928.10835,N,01104.93910,E,2,09,1.12,320.4,M,47.0,M,,0000*5C
$GPRMC,135242.00,A,4928.10864,N,01104.94962,E,23.542,89.44,260311,,,D*64
$GPVTG,89.44,T,,M,23.542,N,43.600,K,D*0A
$GPGGA,135242.00,4928.10864,N,01104.94962,E,2,09,1.12,320.6,M,47.0,M,,0000*5B
$GPRMC,135243.00,A,4928.10879,N,01104.95969,E,22.877,89.64,260311,,,D*6B
$GPVTG,89.64,T,,M,22.877,N,42.367,K,D*07
$GPGGA,135243.00,4928.10879,N,01104.95969,E,2,09,1.12,320.7,M,47.0,M,,0000*5D
$GPRMC,135244.00,A,4928.10898,N,01104.96942,E,22.563,89.74,260311,,,D*60
$GPVTG,89.74,T,,M,22.563,N,41.786,K,D*06
$GPGGA,135244.00,4928.10898,N,01104.96942,E,2,10,1.12,320.7,M,47.0,M,,0000*57
$GPRMC,135245.00,A,4928.10912,N,01104.97929,E,22.868,90.21,260311,,,D*60
$GPVTG,90.21,T,,M,22.868,N,42.352,K,D*06
$GPGGA,135245.00,4928.10912,N,01104.97929,E,2,10,1.12,320.7,M,47.0,M,,0000*59
$GPRMC,135246.00,A,4928.10910,N,01104.98917,E,23.054,90.92,260311,,,D*6D
$GPVTG,90.92,T,,M,23.054,N,42.695,K,D*06
$GPGGA,135246.00,4928.10910,N,01104.98917,E,2,10,1.12,320.5,M,47.0,M,,0000*58
$GPRMC,135247.00,A,4928.10889,N,01104.99926,E,22.795,91.55,260311,,,D*6F
$GPVTG,91.55,T,,M,22.795,N,42.216,K,D*08
$GPGGA,135247.00,4928.10889,N,01104.99926,E,2,10,1.12,320.2,M,47.0,M,,0000*5C
$GPRMC,135248.00,A,4928.10880,N,01105.00895,E,21.973,91.81,260311,,,D*6D
$GPVTG,91.81,T,,M,21.973,N,40.694,K,D*08
$GPGGA,135248.00,4928.10880,N,01105.00895,E,2,10,1.12,320.1,M,47.0,M,,0000*51
$GPRMC,135249.00,A,4928.10876,N,01105.01831,E,21.434,90.84,260311,,,D*60
$GPVTG,90.84,T,,M,21.434,N,39.695,K,D*0D
$GPGGA,135249.00,4928.10876,N,01105.01831,E,2,09,1.12,320.1,M,47.0,M,,0000*5E
$GPRMC,135250.00,A,4928.10957,N,01105.02732,E,20.392,88.51,260311,,,D*6E
$GPVTG,88.51,T,,M,20.392,N,37.766,K,D*05
$GPGGA,135250.00,4928.10957,N,01105.02732,E,2,09,1.12,320.2,M,47.0,M,,0000*58
$GPRMC,135251.00,A,4928.11012,N,01105.03500,E,16.919,89.69,260311,,,D*62
$GPVTG,89.69,T,,M,16.919,N,31.334,K,D*06
$GPGGA,135251.00,4928.11012,N,01105.03500,E,2,09,1.12,320.0,M,47.0,M,,0000*50
$GPRMC,135252.00,A,4928.10974,N,01105.04109,E,13.777,105.04,260311,,,D*5E
$GPVTG,105.04,T,,M,13.777,N,25.514,K,D*3A
$GPGGA,135252.00,4928.10974,N,01105.04109,E,2,09,1.26,319.5,M,47.0,M,,0000*59
$GPRMC,135253.00,A,4928.10854,N,01105.04454,E,12.064,135.12,260311,,,D*51
$GPVTG,135.12,T,,M,12.064,N,22.343,K,D*39
$GPGGA,135253.00,4928.10854,N,01105.04454,E,2,08,1.26,318.2,M,47.0,M,,0000*51
$GPRMC,135254.00,A,4928.10524,N,01105.04698,E,13.358,153.06,260311,,,D*56
$GPVTG,153.06,T,,M,13.358,N,24.739,K,D*3E
$GPGGA,135254.00,4928.10524,N,01105.04698,E,2,09,1.26,317.6,M,47.0,M,,0000*54
$GPRMC,135255.00,A,4928.09999,N,01105.04856,E,16.751,174.35,260311,,,D*54
$GPVTG,174.35,T,,M,16.751,N,31.022,K,D*3A
$GPGGA,135255.00,4928.09999,N,01105.04856,E,2,09,1.26,317.4,M,47.0,M,,0000*59
$GPRMC,135256.00,A,4928.09415,N,01105.04919,E,20.184,178.45,260311,,,D*54
$GPVTG,178.45,T,,M,20.184,N,37.380,K,D*37
$GPGGA,135256.00,4928.09415,N,01105.04919,E,2,09,1.26,317.1,M,47.0,M,,0000*5C
$GPRMC,135257.00,A,4928.08791,N,01105.04954,E,21.759,178.52,260311,,,D*53
$GPVTG,178.52,T,,M,21.759,N,40.297,K,D*31
$GPGGA,135257.00,4928.08791,N,01105.04954,E,2,08,1.26,316.8,M,47.0,M,,0000*53
$GPRMC,135258.00,A,4928.08166,N,01105.04960,E,21.286,179.52,260311,,,D*53
$GPVTG,179.52,T,,M,21.286,N,39.422,K,D*31
$GPGGA,135258.00,4928.08166,N,01105.04960,E,2,08,1.26,316.2,M,47.0,M,,0000*5F
$GPRMC,135259.00,A,4928.07592,N,01105.04954,E,19.762,179.04,260311,,,D*52
$GPVTG,179.04,T,,M,19.762,N,36.600,K,D*3B
$GPGGA,135259.00,4928.07592,N,01105.04954,E,2,08,1.26,316.1,M,47.0,M,,0000*5A
$GPRMC,135300.00,A,4928.07057,N,01105.04960,E,18.506,177.65,260311,,,D*5C
$GPVTG,177.65,T,,M,18.506,N,34.273,K,D*31
$GPGGA,135300.00,4928.07057,N,01105.04960,E,2,08,1.26,316.1,M,47.0,M,,0000*5C
$GPRMC,135301.00,A,4928.06560,N,01105.04972,E,17.059,171.70,260311,,,D*5C
$GPVTG,171.70,T,,M,17.059,N,31.593,K,D*3F
$GPGGA,135301.00,4928.06560,N,01105.04972,E,2,09,1.26,317.6,M,47.0,M,,0000*59
$GPRMC,135302.00,A,4928.06146,N,01105.05120,E,13.611,165.87,260311,,,D*52
$GPVTG,165.87,T,,M,13.611,N,25.207,K,D*33
$GPGGA,135302.00,4928.06146,N,01105.05120,E,2,09,1.26,317.5,M,47.0,M,,0000*57
$GPRMC,135303.00,A,4928.05844,N,01105.05278,E,10.400,162.87,260311,,,D*53
$GPVTG,162.87,T,,M,10.400,N,19.261,K,D*3A
$GPGGA,135303.00,4928.05844,N,01105.05278,E,2,09,1.26,317.4,M,47.0,M,,0000*51
$GPRMC,135304.00,A,4928.05625,N,01105.05275,E,7.879,166.36,260311,,,D*6A
$GPVTG,166.36,T,,M,7.879,N,14.593,K,D*07
$GPGGA,135304.00,4928.05625,N,01105.05275,E,2,09,1.26,318.1,M,47.0,M,,0000*58
$GPRMC,135305.00,A,4928.05423,N,01105.05295,E,5.789,171.62,260311,,,D*64
$GPVTG,171.62,T,,M,5.789,N,10.722,K,D*0E
$GPGGA,135305.00,4928.05423,N,01105.05295,E,2,09,1.26,318.2,M,47.0,M,,0000*50
$GPRMC,135306.00,A,4928.05293,N,01105.05299,E,2.669,173.19,260311,,,D*60
$GPVTG,173.19,T,,M,2.669,N,4.944,K,D*33
$GPGGA,135306.00,4928.05293,N,01105.05299,E,2,09,1.04,318.1,M,47.0,M,,0000*51
$GPRMC,135307.00,A,4928.05263,N,01105.05288,E,0.525,,260311,,,D*74
$GPVTG,,T,,M,0.525,N,0.973,K,D*29
$GPGGA,135307.00,4928.05263,N,01105.05288,E,2,09,1.26,318.2,M,47.0,M,,0000*5C
$GPRMC,135308.00,A,4928.05288,N,01105.05261,E,0.034,,260311,,,D*7C
$GPVTG,,T,,M,0.034,N,0.062,K,D*25
$GPGGA,135308.00,4928.05288,N,01105.05261,E,2,09,1.26,318.1,M,47.0,M,,0000*52
$GPRMC,135309.00,A,4928.05293,N,01105.05254,E,0.068,,260311,,,D*78
$GPVTG,,T,,M,0.068,N,0.126,K,D*2D
$GPGGA,135309.00,4928.05293,N,01105.05254,E,2,09,1.26,317.9,M,47.0,M,,0000*58
