$GPRMC,160625.00,A,4928.05271,N,01105.04895,E,1.986,,260311,,,A*74
$GPVTG,,T,,M,1.986,N,3.678,K,A*2F
$GPGGA,160625.00,4928.05271,N,01105.04895,E,1,03,3.52,326.3,M,47.0,M,,*59
$G
$GPRMC,160627.00,A,4928.05226,N,01105.04764,E,2.017,,260311,,,A*77
$GPVTG,,T,,M,2.017,N,3.735,K,A*25
$GPGGA,160627.00,4928.05226,N,01105.04764,E,1,03,3.52,326.3,M,47.0,M,,*58
$GPRMC,160628.00,A,4928.05214,N,01105.04716,E,0.255,,260311,,,A*7A
$GPVTG,,T,,M,0.255,N,0.473,K,A*21
$GPGGA,160628.00,4928.05214,N,01105.04716,E,1,03,3.51,326.3,M,47.0,M,,*50
$GPRMC,160629.00,A,4928.05185,N,01105.04584,E,2.424,,260311,,,A*7B
$GPVTG,,T,,M,2.424,N,4.489,K,A*22
$GPGGA,160629.00,4928.05185,N,01105.04584,E,1,03,3.51,326.2,M,47.0,M,,*52
$GPRMC,160630.00,A,4928.05145,N,01105.04430,E,2.875,162.10,260311,,,A*63
$GPVTG,162.10,T,,M,2.875,N,5.324,K,A*31
$GPGGA,160630.00,4928.05145,N,01105.04430,E,1,03,3.51,326.2,M,47.0,M,,*58
$GPRMC,160631.00,A,4928.05096,N,01105.04281,E,2.806,,260311,,,A*7F
$GPVTG,,T,,M,2.806,N,5.197,K,A*25
$GPGGA,160631.00,4928.05096,N,01105.04281,E,1,03,3.51,326.2,M,47.0,M,,*5A
$GPRMC,160632.00,A,4928.05048,N,01105.04152,E,3.339,176.13,260311,,,A*68
$GPVTG,176.13,T,,M,3.339,N,6.184,K,A*3E
$GPGGA,160632.00,4928.05048,N,01105.04152,E,1,03,3.51,326.2,M,47.0,M,,*57
$GPRMC,160633.00,A,4928.04994,N,01105.04035,E,3.586,185.02,260311,,,A*6E
$GPVTG,185.02,T,,M,3.586,N,6.641,K,A*3E
$GPGGA,160633.00,4928.04994,N,01105.04035,E,1,03,3.51,326.2,M,47.0,M,,*5F
$GPRMC,160634.00,A,4928.04949,N,01105.03933,E,3.010,,260311,,,A*7B
$GPVTG,,T,,M,3.010,N,5.575,K,A*23
$GPGGA,160634.00,4928.04949,N,01105.03933,E,1,03,3.51,326.2,M,47.0,M,,*50
$GPRMC,160635.00,A,4928.04940,N,01105.03923,E,0.878,,260311,,,A*77
$GPVTG,,T,,M,0.878,N,1.626,K,A*27
$GPGGA,160635.00,4928.04940,N,01105.03923,E,1,03,3.51,326.2,M,47.0,M,,*59
$GPRMC,160636.00,A,4928.04945,N,01105.03931,E,0.933,,260311,,,A*7C
$GPVTG,,T,,M,0.933,N,1.727,K,A*29
$GPGGA,160636.00,4928.04945,N,01105.03931,E,1,03,3.51,326.2,M,47.0,M,,*5C
$GPRMC,160637.00,A,4928.04894,N,01105.03880,E,1.282,,260311,,,A*7B
$GPVTG,,T,,M,1.282,N,2.374,K,A*28
$GPGGA,160637.00,4928.04894,N,01105.03880,E,1,03,3.51,326.2,M,47.0,M,,*5B
$GPRMC,160638.00,A,4928.04871,N,01105.03847,E,0.996,,260311,,,A*7B
$GPVTG,,T,,M,0.996,N,1.844,K,A*2C
$GPGGA,160638.00,4928.04871,N,01105.03847,E,1,03,3.51,326.2,M,47.0,M,,*54
$GPRMC,160639.00,A,4928.04869,N,01105.03939,E,0.372,,260311,,,A*7B
$GPVTG,,T,,M,0.372,N,0.690,K,A*2A
$GPGGA,160639.00,4928.04869,N,01105.03939,E,1,03,3.51,326.2,M,47.0,M,,*54
$GPRMC,160640.00,A,4928.04854,N,01105.03952,E,0.250,,260311,,,A*77
$GPVTG,,T,,M,0.250,N,0.464,K,A*22
$GPGGA,160640.00,4928.04854,N,01105.03952,E,1,03,3.51,326.3,M,47.0,M,,*58
$GPRMC,160641.00,A,4928.04860,N,01105.03840,E,0.898,,260311,,,A*7D
$GPVTG,,T,,M,0.898,N,1.663,K,A*28
$GPGGA,160641.00,4928.04860,N,01105.03840,E,1,03,3.51,326.2,M,47.0,M,,*5D
$GPRMC,160642.00,A,4928.04849,N,01105.03665,E,0.277,,260311,,,A*77
$GPVTG,,T,,M,0.277,N,0.514,K,A*21
$GPGGA,160642.00,4928.04849,N,01105.03665,E,1,03,3.51,326.2,M,47.0,M,,*5C
$GPRMC,160643.00,A,4928.04831,N,01105.03605,E,0.364,,260311,,,A*7C
$GPVTG,,T,,M,0.364,N,0.673,K,A*20
$GPGGA,160643.00,4928.04831,N,01105.03605,E,1,03,3.51,326.2,M,47.0,M,,*54
$GPRMC,160644.00,A,4928.04845,N,01105.03623,E,0.202,,260311,,,A*7D
$GPVTG,,T,,M,0.202,N,0.374,K,A*23
$GPGGA,160644.00,4928.04845,N,01105.03623,E,1,03,3.51,326.2,M,47.0,M,,*54
$GPRMC,160645.00,A,4928.04852,N,01105.03620,E,0.212,,260311,,,A*78
$GPVTG,,T,,M,0.212,N,0.392,K,A*2A
$GPGGA,160645.00,4928.04852,N,01105.03620,E,1,03,3.51,326.2,M,47.0,M,,*50
$GPRMC,160646.00,A,4928.04858,N,01105.03614,E,0.164,,260311,,,A*74
$GPVTG,,T,,M,0.164,N,0.304,K,A*27
$GPGGA,160646.00,4928.04858,N,01105.03614,E,1,03,3.51,326.1,M,47.0,M,,*5D
$GPRMC,160647.00,A,4928.04862,N,01105.03541,E,0.794,,260311,,,A*76
$GPVTG,,T,,M,0.794,N,1.470,K,A*2B
$GPGGA,160647.00,4928.04862,N,01105.03541,E,1,03,3.51,326.1,M,47.0,M,,*56
$GPRMC,160648.00,A,4928.04897,N,01105.03534,E,1.751,,260311,,,A*79
$GPVTG,,T,,M,1.751,N,3.244,K,A*20
$GPGGA,160648.00,4928.04897,N,01105.03534,E,1,03,3.50,326.1,M,47.0,M,,*50
$GPRMC,160649.00,A,4928.05017,N,01105.03741,E,4.863,159.53,260311,,,A*67
$GPVTG,159.53,T,,M,4.863,N,9.006,K,A*30
$GPGGA,160649.00,4928.05017,N,01105.03741,E,1,03,3.50,326.1,M,47.0,M,,*50
$GPRMC,160650.00,A,4928.05107,N,01105.03872,E,3.797,,260311,,,A*76
$GPVTG,,T,,M,3.797,N,7.032,K,A*2F
$GPGGA,160650.00,4928.05107,N,01105.03872,E,1,03,3.50,326.1,M,47.0,M,,*57
$GPRMC,160651.00,A,4928.05146,N,01105.03975,E,3.503,,260311,,,A*7B
$GPVTG,,T,,M,3.503,N,6.487,K,A*2B
$GPGGA,160651.00,4928.05146,N,01105.03975,E,1,03,3.50,326.2,M,47.0,M,,*56
$GPRMC,160652.00,A,4928.05191,N,01105.04107,E,2.972,,260311,,,A*73
$GPVTG,,T,,M,2.972,N,5.505,K,A*28
$GPGGA,160652.00,4928.05191,N,01105.04107,E,1,03,3.50,326.2,M,47.0,M,,*55
$GPRMC,160653.00,A,4928.05217,N,01105.04134,E,1.952,,260311,,,A*7E
$GPVTG,,T,,M,1.952,N,3.616,K,A*2E
$GPGGA,160653.00,4928.05217,N,01105.04134,E,1,03,3.50,326.2,M,47.0,M,,*59
$GPRMC,160654.00,A,4928.05235,N,01105.04200,E,1.444,,260311,,,A*77
$GPVTG,,T,,M,1.444,N,2.675,K,A*20
$GPGGA,160654.00,4928.05235,N,01105.04200,E,1,03,3.50,326.2,M,47.0,M,,*5A
$GPRMC,160655.00,A,4928.05287,N,01105.04131,E,1.681,,260311,,,A*75
$GPVTG,,T,,M,1.681,N,3.113,K,A*2D
$GPGGA,160655.00,4928.05287,N,01105.04131,E,1,03,3.50,326.2,M,47.0,M,,*53
$GPRMC,160656.00,A,4928.05427,N,01105.04076,E,4.610,,260311,,,A*75
$GPVTG,,T,,M,4.610,N,8.537,K,A*29
$GPGGA,160656.00,4928.05427,N,01105.04076,E,1,03,3.50,326.2,M,47.0,M,,*5E
$GPRMC,160657.00,A,4928.05564,N,01105.03904,E,5.555,,260311,,,A*7A
$GPVTG,,T,,M,5.555,N,10.287,K,A*1F
$GPGGA,160657.00,4928.05564,N,01105.03904,E,1,03,3.50,326.2,M,47.0,M,,*52
$GPRMC,160658.00,A,4928.05787,N,01105.03684,E,7.000,,260311,,,A*7A
$GPVTG,,T,,M,7.000,N,12.963,K,A*1B
$GPGGA,160658.00,4928.05787,N,01105.03684,E,1,03,3.50,326.2,M,47.0,M,,*55
$GPRMC,160659.00,A,4928.06134,N,01105.03744,E,10.104,105.13,260311,,,A*50
$GPVTG,105.13,T,,M,10.104,N,18.712,K,A*32
$GPGGA,160659.00,4928.06134,N,01105.03744,E,1,03,3.50,326.2,M,47.0,M,,*54
$GPRMC,160700.00,A,4928.06541,N,01105.03819,E,13.038,64.56,260311,,,A*66
$GPVTG,64.56,T,,M,13.038,N,24.146,K,A*00
$GPGGA,160700.00,4928.06541,N,01105.03819,E,1,03,3.50,326.2,M,47.0,M,,*58
$GPRMC,160701.00,A,4928.06992,N,01105.03806,E,15.382,34.15,260311,,,A*6D
$GPVTG,34.15,T,,M,15.382,N,28.487,K,A*02
$GPGGA,160701.00,4928.06992,N,01105.03806,E,1,03,3.50,326.2,M,47.0,M,,*55
$GPRMC,160702.00,A,4928.07485,N,01105.03773,E,17.732,16.30,260311,,,A*63
$GPVTG,16.30,T,,M,17.732,N,32.839,K,A*0A
$GPGGA,160702.00,4928.07485,N,01105.03773,E,1,03,3.50,326.2,M,47.0,M,,*51
$GPRMC,160703.00,A,4928.08018,N,01105.03715,E,18.659,7.24,260311,,,A*5B
$GPVTG,7.24,T,,M,18.659,N,34.557,K,A*3F
$GPGGA,160703.00,4928.08018,N,01105.03715,E,1,03,3.50,326.2,M,47.0,M,,*5F
$GPRMC,160704.00,A,4928.08575,N,01105.03712,E,19.486,4.33,260311,,,A*51
$GPVTG,4.33,T,,M,19.486,N,36.087,K,A*31
$GPGGA,160704.00,4928.08575,N,01105.03712,E,1,03,3.50,326.2,M,47.0,M,,*51
$GPRMC,160705.00,A,4928.09103,N,01105.03716,E,18.945,3.61,260311,,,A*53
$GPVTG,3.61,T,,M,18.945,N,35.085,K,A*33
$GPGGA,160705.00,4928.09103,N,01105.03716,E,1,03,3.50,326.2,M,47.0,M,,*50
$GPRMC,160706.00,A,4928.09548,N,01105.03691,E,16.656,3.45,260311,,,A*50
$GPVTG,3.45,T,,M,16.656,N,30.847,K,A*35
$GPGGA,160706.00,4928.09548,N,01105.03691,E,1,03,3.50,326.2,M,47.0,M,,*56
$GPRMC,160707.00,A,4928.09884,N,01105.03626,E,12.905,3.00,260311,,,A*5C
$GPVTG,3.00,T,,M,12.905,N,23.901,K,A*38
$GPGGA,160707.00,4928.09884,N,01105.03626,E,1,03,3.50,326.2,M,47.0,M,,*56
$GPRMC,160708.00,A,4928.10131,N,01105.03588,E,9.456,3.25,260311,,,A*6D
$GPVTG,3.25,T,,M,9.456,N,17.513,K,A*06
$GPGGA,160708.00,4928.10131,N,01105.03588,E,1,03,3.49,326.2,M,47.0,M,,*59
$GPRMC,160709.00,A,4928.10288,N,01105.03574,E,6.144,,260311,,,A*7D
$GPVTG,,T,,M,6.144,N,11.379,K,A*19
$GPGGA,160709.00,4928.10288,N,01105.03574,E,1,03,3.49,326.2,M,47.0,M,,*5A
$GPRMC,160710.00,A,4928.10404,N,01105.03605,E,4.696,,260311,,,A*78
$GPVTG,,T,,M,4.696,N,8.697,K,A*2E
$GPGGA,160710.00,4928.10404,N,01105.03605,E,1,03,3.49,326.2,M,47.0,M,,*55
$GPRMC,160711.00,A,4928.10517,N,01105.03692,E,4.475,,260311,,,A*7B
$GPVTG,,T,,M,4.475,N,8.288,K,A*2B
$GPGGA,160711.00,4928.10517,N,01105.03692,E,1,03,3.49,326.2,M,47.0,M,,*59
$GPRMC,160712.00,A,4928.10604,N,01105.03796,E,4.268,,260311,,,A*76
$GPVTG,,T,,M,4.268,N,7.904,K,A*21
$GPGGA,160712.00,4928.10604,N,01105.03796,E,1,03,3.49,326.2,M,47.0,M,,*5E
$GPRMC,160713.00,A,4928.10661,N,01105.03878,E,4.062,,260311,,,A*73
$GPVTG,,T,,M,4.062,N,7.523,K,A*20
$GPGGA,160713.00,4928.10661,N,01105.03878,E,1,03,3.49,326.2,M,47.0,M,,*53
$GPRMC,160714.00,A,4928.10684,N,01105.04429,E,7.413,18.72,260311,,,A*53
$GPVTG,18.72,T,,M,7.413,N,13.729,K,A*3E
$GPGGA,160714.00,4928.10684,N,01105.04429,E,1,03,3.49,326.2,M,47.0,M,,*50
$GPRMC,160715.00,A,4928.10673,N,01105.05370,E,13.116,45.41,260311,,,A*6D
$GPVTG,45.41,T,,M,13.116,N,24.290,K,A*00
$GPGGA,160715.00,4928.10673,N,01105.05370,E,1,03,3.49,326.2,M,47.0,M,,*53
$GPRMC,160716.00,A,4928.10710,N,01105.06122,E,15.193,63.58,260311,,,A*6B
$GPVTG,63.58,T,,M,15.193,N,28.138,K,A*0A
$GPGGA,160716.00,4928.10710,N,01105.06122,E,1,03,3.49,326.2,M,47.0,M,,*52
$GPRMC,160717.00,A,4928.10873,N,01105.06246,E,10.951,61.48,260311,,,A*61
$GPVTG,61.48,T,,M,10.951,N,20.281,K,A*03
$GPGGA,160717.00,4928.10873,N,01105.06246,E,1,03,3.49,326.2,M,47.0,M,,*58
$GPRMC,160718.00,A,4928.11033,N,01105.06756,E,11.608,61.05,260311,,,A*6C
$GPVTG,61.05,T,,M,11.608,N,21.498,K,A*07
$GPGGA,160718.00,4928.11033,N,01105.06756,E,1,03,3.49,326.1,M,47.0,M,,*5D
$GPRMC,160719.00,A,4928.11116,N,01105.07577,E,14.040,66.22,260311,,,A*66
$GPVTG,66.22,T,,M,14.040,N,26.002,K,A*0A
$GPGGA,160719.00,4928.11116,N,01105.07577,E,1,03,3.49,326.1,M,47.0,M,,*5A
$GPRMC,160720.00,A,4928.11226,N,01105.08291,E,14.988,68.70,260311,,,A*68
$GPVTG,68.70,T,,M,14.988,N,27.758,K,A*07
$GPGGA,160720.00,4928.11226,N,01105.08291,E,1,03,3.49,326.1,M,47.0,M,,*50
$GPRMC,160721.00,A,4928.11365,N,01105.09171,E,17.165,70.64,260311,,,A*67
$GPVTG,70.64,T,,M,17.165,N,31.789,K,A*08
$GPGGA,160721.00,4928.11365,N,01105.09171,E,1,03,3.49,326.1,M,47.0,M,,*5B
$GPRMC,160722.00,A,4928.11495,N,01105.10068,E,18.712,72.70,260311,,,A*63
$GPVTG,72.70,T,,M,18.712,N,34.654,K,A*02
$GPGGA,160722.00,4928.11495,N,01105.10068,E,1,03,3.49,326.1,M,47.0,M,,*51
$GPRMC,160723.00,A,4928.11672,N,01105.10450,E,15.938,70.45,260311,,,A*69
$GPVTG,70.45,T,,M,15.938,N,29.518,K,A*0A
$GPGGA,160723.00,4928.11672,N,01105.10450,E,1,03,3.49,326.1,M,47.0,M,,*54
$GPRMC,160724.00,A,4928.11736,N,01105.11304,E,16.024,72.36,260311,,,A*69
$GPVTG,72.36,T,,M,16.024,N,29.677,K,A*01
$GPGGA,160724.00,4928.11736,N,01105.11304,E,1,03,3.49,326.1,M,47.0,M,,*55
$GPRMC,160725.00,A,4928.11760,N,01105.12282,E,15.590,75.45,260311,,,A*6D
$GPVTG,75.45,T,,M,15.590,N,28.873,K,A*00
$GPGGA,160725.00,4928.11760,N,01105.12282,E,1,03,3.49,326.1,M,47.0,M,,*5B
$GPRMC,160726.00,A,4928.11814,N,01105.12950,E,13.894,77.13,260311,,,A*68
$GPVTG,77.13,T,,M,13.894,N,25.732,K,A*09
$GPGGA,160726.00,4928.11814,N,01105.12950,E,1,03,3.49,326.1,M,47.0,M,,*50
$GPRMC,160727.00,A,4928.11858,N,01105.13543,E,13.759,79.69,260311,,,A*63
$GPVTG,79.69,T,,M,13.759,N,25.481,K,A*0F
$GPGGA,160727.00,4928.11858,N,01105.13543,E,1,03,3.49,326.1,M,47.0,M,,*56
$GPRMC,160728.00,V,,,,,,,260311,,,N*70
$GPVTG,,,,,,,,,N*30
$GPGGA,160728.00,,,,,0,04,1.75,,,,,,*5B
$GPRMC,160729.00,V,,,,,,,260311,,,N*71
$GPVTG,,,,,,,,,N*30
$GPGGA,160729.00,,,,,0,04,1.75,,,,,,*5A
$GPRMC,160730.00,V,,,,,,,260311,,,N*79
$GPVTG,,,,,,,,,N*30
$GPGGA,160730.00,,,,,0,04,1.75,,,,,,*52
$GPRMC,160731.00,A,4928.12445,N,01105.18761,E,15.468,71.30,260311,,,A*6D
$GPVTG,71.30,T,,M,15.468,N,28.646,K,A*08
$GPGGA,160731.00,4928.12445,N,01105.18761,E,1,04,1.75,303.4,M,47.0,M,,*53
$GPRMC,160732.00,A,4928.12589,N,01105.19425,E,14.885,69.11,260311,,,A*69
$GPVTG,69.11,T,,M,14.885,N,27.568,K,A*0C
$GPGGA,160732.00,4928.12589,N,01105.19425,E,1,04,1.75,301.8,M,47.0,M,,*5D
$GPRMC,160733.00,A,4928.12777,N,01105.20104,E,15.654,65.13,260311,,,A*6A
$GPVTG,65.13,T,,M,15.654,N,28.992,K,A*07
$GPGGA,160733.00,4928.12777,N,01105.20104,E,1,04,1.75,302.5,M,47.0,M,,*5D
$GPRMC,160734.00,A,4928.12692,N,01105.21058,E,16.897,70.52,260311,,,A*6D
$GPVTG,70.52,T,,M,16.897,N,31.294,K,A*01
$GPGGA,160734.00,4928.12692,N,01105.21058,E,1,05,1.60,311.5,M,47.0,M,,*5E
$GPRMC,160735.00,A,4928.12823,N,01105.21683,E,14.166,69.99,260311,,,A*62
$GPVTG,69.99,T,,M,14.166,N,26.235,K,A*06
$GPGGA,160735.00,4928.12823,N,01105.21683,E,1,05,1.60,311.8,M,47.0,M,,*56
$GPRMC,160736.00,A,4928.12889,N,01105.22324,E,14.583,76.08,260311,,,A*63
$GPVTG,76.08,T,,M,14.583,N,27.007,K,A*0D
$GPGGA,160736.00,4928.12889,N,01105.22324,E,1,05,1.60,312.7,M,47.0,M,,*52
$GPRMC,160737.00,A,4928.12964,N,01105.22922,E,12.436,77.71,260311,,,A*6A
$GPVTG,77.71,T,,M,12.436,N,23.032,K,A*09
$GPGGA,160737.00,4928.12964,N,01105.22922,E,1,05,1.60,313.3,M,47.0,M,,*58
$GPRMC,160738.00,A,4928.13013,N,01105.23406,E,9.123,77.94,260311,,,A*57
$GPVTG,77.94,T,,M,9.123,N,16.896,K,A*39
$GPGGA,160738.00,4928.13013,N,01105.23406,E,1,05,1.60,312.1,M,47.0,M,,*56
$GPRMC,160739.00,A,4928.13042,N,01105.23773,E,7.568,77.76,260311,,,A*5A
$GPVTG,77.76,T,,M,7.568,N,14.017,K,A*33
$GPGGA,160739.00,4928.13042,N,01105.23773,E,1,05,1.60,310.6,M,47.0,M,,*57
$GPRMC,160740.00,A,4928.13076,N,01105.24107,E,7.148,77.60,260311,,,A*50
$GPVTG,77.60,T,,M,7.148,N,13.237,K,A*35
$GPGGA,160740.00,4928.13076,N,01105.24107,E,1,05,1.60,309.7,M,47.0,M,,*55
$GPRMC,160741.00,A,4928.13132,N,01105.24437,E,8.324,76.22,260311,,,A*56
$GPVTG,76.22,T,,M,8.324,N,15.415,K,A*35
$GPGGA,160741.00,4928.13132,N,01105.24437,E,1,05,1.60,309.1,M,47.0,M,,*55
$GPRMC,160742.00,A,4928.13181,N,01105.24910,E,10.870,75.61,260311,,,A*62
$GPVTG,75.61,T,,M,10.870,N,20.131,K,A*07
$GPGGA,160742.00,4928.13181,N,01105.24910,E,1,05,1.60,308.0,M,47.0,M,,*56
$GPRMC,160743.00,A,4928.13236,N,01105.25551,E,14.158,77.75,260311,,,A*64
$GPVTG,77.75,T,,M,14.158,N,26.220,K,A*02
$GPGGA,160743.00,4928.13236,N,01105.25551,E,1,05,1.60,307.3,M,47.0,M,,*5C
$GPRMC,160744.00,A,4928.13312,N,01105.26259,E,15.740,79.40,260311,,,A*6E
$GPVTG,79.40,T,,M,15.740,N,29.151,K,A*0E
$GPGGA,160744.00,4928.13312,N,01105.26259,E,1,05,1.60,308.7,M,47.0,M,,*5B
$GPRMC,160745.00,A,4928.13385,N,01105.26976,E,16.312,79.30,260311,,,A*60
$GPVTG,79.30,T,,M,16.312,N,30.211,K,A*06
$GPGGA,160745.00,4928.13385,N,01105.26976,E,1,05,1.60,308.7,M,47.0,M,,*52
$GPRMC,160746.00,A,4928.13450,N,01105.27766,E,18.121,82.04,260311,,,A*6D
$GPVTG,82.04,T,,M,18.121,N,33.560,K,A*0B
$GPGGA,160746.00,4928.13450,N,01105.27766,E,1,05,1.60,309.7,M,47.0,M,,*51
$GPRMC,160747.00,A,4928.13516,N,01105.28562,E,18.435,82.58,260311,,,A*6F
$GPVTG,82.58,T,,M,18.435,N,34.142,K,A*01
$GPGGA,160747.00,4928.13516,N,01105.28562,E,1,05,1.60,310.8,M,47.0,M,,*5D
$GPRMC,160748.00,A,4928.13572,N,01105.29422,E,18.705,83.87,260311,,,A*65
$GPVTG,83.87,T,,M,18.705,N,34.641,K,A*06
$GPGGA,160748.00,4928.13572,N,01105.29422,E,1,05,1.60,311.3,M,47.0,M,,*5E
$GPRMC,160749.00,A,4928.13602,N,01105.30287,E,18.250,85.18,260311,,,A*64
$GPVTG,85.18,T,,M,18.250,N,33.799,K,A*00
$GPGGA,160749.00,4928.13602,N,01105.30287,E,1,05,1.60,311.1,M,47.0,M,,*58
$GPRMC,160750.00,A,4928.13623,N,01105.31094,E,16.615,85.76,260311,,,A*6D
$GPVTG,85.76,T,,M,16.615,N,30.771,K,A*06
$GPGGA,160750.00,4928.13623,N,01105.31094,E,1,05,1.60,310.5,M,47.0,M,,*57
$GPRMC,160751.00,A,4928.13639,N,01105.31797,E,14.227,85.72,260311,,,A*60
$GPVTG,85.72,T,,M,14.227,N,26.349,K,A*0D
$GPGGA,160751.00,4928.13639,N,01105.31797,E,1,05,1.60,309.5,M,47.0,M,,*51
$GPRMC,160752.00,A,4928.13636,N,01105.32344,E,9.879,87.42,260311,,,A*59
$GPVTG,87.42,T,,M,9.879,N,18.296,K,A*3F
$GPGGA,160752.00,4928.13636,N,01105.32344,E,1,05,1.60,309.5,M,47.0,M,,*54
$GPRMC,160753.00,A,4928.13650,N,01105.32699,E,7.002,79.14,260311,,,A*55
$GPVTG,79.14,T,,M,7.002,N,12.967,K,A*38
$GPGGA,160753.00,4928.13650,N,01105.32699,E,1,05,1.60,309.5,M,47.0,M,,*50
$GPRMC,160754.00,A,4928.13686,N,01105.32923,E,4.236,73.86,260311,,,A*50
$GPVTG,73.86,T,,M,4.236,N,7.845,K,A*0A
$GPGGA,160754.00,4928.13686,N,01105.32923,E,1,05,1.60,309.5,M,47.0,M,,*52
$GPRMC,160755.00,A,4928.13753,N,01105.33068,E,4.666,70.26,260311,,,A*57
$GPVTG,70.26,T,,M,4.666,N,8.642,K,A*04
$GPGGA,160755.00,4928.13753,N,01105.33068,E,1,05,1.60,309.5,M,47.0,M,,*5D
$GPRMC,160756.00,A,4928.13894,N,01105.33202,E,7.253,57.12,260311,,,A*5D
$GPVTG,57.12,T,,M,7.253,N,13.432,K,A*38
$GPGGA,160756.00,4928.13894,N,01105.33202,E,1,05,1.60,310.2,M,47.0,M,,*5B
$GPRMC,160757.00,A,4928.14129,N,01105.33306,E,10.846,45.22,260311,,,A*69
$GPVTG,45.22,T,,M,10.846,N,20.088,K,A*05
$GPGGA,160757.00,4928.14129,N,01105.33306,E,1,05,1.60,311.0,M,47.0,M,,*54
$GPRMC,160758.00,A,4928.14450,N,01105.33269,E,11.465,29.60,260311,,,A*65
$GPVTG,29.60,T,,M,11.465,N,21.233,K,A*06
$GPGGA,160758.00,4928.14450,N,01105.33269,E,1,05,1.60,310.7,M,47.0,M,,*5E
$GPRMC,160759.00,A,4928.14815,N,01105.33101,E,13.295,2.22,260311,,,A*50
$GPVTG,2.22,T,,M,13.295,N,24.622,K,A*33
$GPGGA,160759.00,4928.14815,N,01105.33101,E,1,05,1.60,310.1,M,47.0,M,,*59
$GPRMC,160800.00,A,4928.15252,N,01105.32896,E,17.066,350.86,260311,,,A*5D
$GPVTG,350.86,T,,M,17.066,N,31.605,K,A*32
$GPGGA,160800.00,4928.15252,N,01105.32896,E,1,05,1.60,309.6,M,47.0,M,,*5B
$GPRMC,160801.00,A,4928.15778,N,01105.32699,E,19.728,348.03,260311,,,A*57
$GPVTG,348.03,T,,M,19.728,N,36.536,K,A*31
$GPGGA,160801.00,4928.15778,N,01105.32699,E,1,05,1.60,309.6,M,47.0,M,,*56
$GPRMC,160802.00,A,4928.16362,N,01105.32508,E,20.619,349.44,260311,,,A*58
$GPVTG,349.44,T,,M,20.619,N,38.187,K,A*3A
$GPGGA,160802.00,4928.16362,N,01105.32508,E,1,05,1.60,309.0,M,47.0,M,,*54
$GPRMC,160803.00,A,4928.16960,N,01105.32364,E,21.181,351.66,260311,,,A*53
$GPVTG,351.66,T,,M,21.181,N,39.227,K,A*3C
$GPGGA,160803.00,4928.16960,N,01105.32364,E,1,05,1.60,308.9,M,47.0,M,,*59
$GPRMC,160804.00,A,4928.17579,N,01105.32233,E,21.370,354.11,260311,,,A*5B
$GPVTG,354.11,T,,M,21.370,N,39.578,K,A*38
$GPGGA,160804.00,4928.17579,N,01105.32233,E,1,05,1.60,308.5,M,47.0,M,,*54
$GPRMC,160805.00,A,4928.18198,N,01105.32137,E,21.490,355.25,260311,,,A*56
$GPVTG,355.25,T,,M,21.490,N,39.800,K,A*35
$GPGGA,160805.00,4928.18198,N,01105.32137,E,1,05,1.60,308.3,M,47.0,M,,*50
$GPRMC,160806.00,A,4928.18775,N,01105.32054,E,19.857,355.83,260311,,,A*54
$GPVTG,355.83,T,,M,19.857,N,36.775,K,A*37
$GPGGA,160806.00,4928.18775,N,01105.32054,E,1,05,1.60,308.0,M,47.0,M,,*51
$GPRMC,160807.00,A,4928.19290,N,01105.31997,E,17.090,356.27,260311,,,A*5F
$GPVTG,356.27,T,,M,17.090,N,31.650,K,A*36
$GPGGA,160807.00,4928.19290,N,01105.31997,E,1,05,1.60,308.1,M,47.0,M,,*5B
$GPRMC,160808.00,A,4928.19722,N,01105.31946,E,13.684,355.86,260311,,,A*5F
$GPVTG,355.86,T,,M,13.684,N,25.343,K,A*3B
$GPGGA,160808.00,4928.19722,N,01105.31946,E,1,05,1.60,308.1,M,47.0,M,,*54
$GPRMC,160809.00,A,4928.20059,N,01105.31899,E,10.088,355.27,260311,,,A*5E
$GPVTG,355.27,T,,M,10.088,N,18.682,K,A*3F
$GPGGA,160809.00,4928.20059,N,01105.31899,E,1,05,1.60,308.1,M,47.0,M,,*57
$GPRMC,160810.00,A,4928.20280,N,01105.31864,E,6.219,354.73,260311,,,A*6F
$GPVTG,354.73,T,,M,6.219,N,11.518,K,A*0B
$GPGGA,160810.00,4928.20280,N,01105.31864,E,1,05,1.60,308.4,M,47.0,M,,*5E
$GPRMC,160811.00,A,4928.20388,N,01105.31846,E,2.337,355.14,260311,,,A*6E
$GPVTG,355.14,T,,M,2.337,N,4.328,K,A*33
$GPGGA,160811.00,4928.20388,N,01105.31846,E,1,05,1.60,308.4,M,47.0,M,,*56
$GPRMC,160812.00,A,4928.20412,N,01105.31839,E,0.808,355.28,260311,,,A*6B
$GPVTG,355.28,T,,M,0.808,N,1.496,K,A*3E
$GPGGA,160812.00,4928.20412,N,01105.31839,E,1,05,1.60,308.0,M,47.0,M,,*5D
$GPRMC,160813.00,A,4928.20414,N,01105.31835,E,0.262,355.30,260311,,,A*6F
$GPVTG,355.30,T,,M,0.262,N,0.485,K,A*32
$GPGGA,160813.00,4928.20414,N,01105.31835,E,1,05,1.60,307.9,M,47.0,M,,*50
$GPRMC,160814.00,A,4928.20404,N,01105.31832,E,0.006,,260311,,,A*70
$GPVTG,,T,,M,0.006,N,0.012,K,A*26
$GPGGA,160814.00,4928.20404,N,01105.31832,E,1,05,1.60,307.9,M,47.0,M,,*51
$GPRMC,160815.00,A,4928.20395,N,01105.31831,E,0.062,,260311,,,A*7F
$GPVTG,,T,,M,0.062,N,0.115,K,A*22
$GPGGA,160815.00,4928.20395,N,01105.31831,E,1,05,1.60,308.1,M,47.0,M,,*5B
$GPRMC,160816.00,A,4928.20393,N,01105.31828,E,0.380,355.64,260311,,,A*62
$GPVTG,355.64,T,,M,0.380,N,0.704,K,A*34
$GPGGA,160816.00,4928.20393,N,01105.31828,E,1,05,1.60,308.5,M,47.0,M,,*52
$GPRMC,160817.00,A,4928.20388,N,01105.31823,E,0.041,,260311,,,A*73
$GPVTG,,T,,M,0.041,N,0.076,K,A*27
$GPGGA,160817.00,4928.20388,N,01105.31823,E,1,05,1.60,309.1,M,47.0,M,,*57
$GPRMC,160818.00,A,4928.20381,N,01105.31818,E,0.029,,260311,,,A*73
$GPVTG,,T,,M,0.029,N,0.054,K,A*29
$GPGGA,160818.00,4928.20381,N,01105.31818,E,1,05,1.60,309.8,M,47.0,M,,*50
$GPRMC,160819.00,A,4928.20378,N,01105.31813,E,0.017,,260311,,,A*72
$GPVTG,,T,,M,0.017,N,0.032,K,A*24
$GPGGA,160819.00,4928.20378,N,01105.31813,E,1,05,1.60,310.4,M,47.0,M,,*58
$GPRMC,160820.00,A,4928.20372,N,01105.31807,E,0.014,,260311,,,A*74
$GPVTG,,T,,M,0.014,N,0.027,K,A*23
$GPGGA,160820.00,4928.20372,N,01105.31807,E,1,05,1.60,311.1,M,47.0,M,,*59
$GPRMC,160821.00,A,4928.20364,N,01105.31802,E,0.021,,260311,,,A*71
$GPVTG,,T,,M,0.021,N,0.038,K,A*2B
$GPGGA,160821.00,4928.20364,N,01105.31802,E,1,05,1.60,311.7,M,47.0,M,,*5C
$GPRMC,160822.00,A,4928.20354,N,01105.31801,E,0.051,,260311,,,A*75
$GPVTG,,T,,M,0.051,N,0.095,K,A*2B
$GPGGA,160822.00,4928.20354,N,01105.31801,E,1,05,1.60,312.2,M,47.0,M,,*59
$GPRMC,160823.00,A,4928.20343,N,01105.31803,E,0.046,,260311,,,A*76
$GPVTG,,T,,M,0.046,N,0.086,K,A*2F
$GPGGA,160823.00,4928.20343,N,01105.31803,E,1,05,1.60,312.6,M,47.0,M,,*58
$GPRMC,160824.00,A,4928.20338,N,01105.31803,E,0.040,,260311,,,A*7B
$GPVTG,,T,,M,0.040,N,0.074,K,A*24
$GPGGA,160824.00,4928.20338,N,01105.31803,E,1,05,1.60,312.9,M,47.0,M,,*5C
$GPRMC,160825.00,A,4928.20337,N,01105.31799,E,0.020,,260311,,,A*7F
$GPVTG,,T,,M,0.020,N,0.037,K,A*25
$GPGGA,160825.00,4928.20337,N,01105.31799,E,1,05,1.60,313.1,M,47.0,M,,*57
$GPRMC,160826.00,A,4928.20332,N,01105.31800,E,0.025,,260311,,,A*73
$GPVTG,,T,,M,0.025,N,0.047,K,A*27
$GPGGA,160826.00,4928.20332,N,01105.31800,E,1,05,1.60,313.3,M,47.0,M,,*5C
$GPRMC,160827.00,A,4928.20334,N,01105.31800,E,0.007,,260311,,,A*74
$GPVTG,,T,,M,0.007,N,0.013,K,A*26
$GPGGA,160827.00,4928.20334,N,01105.31800,E,1,05,1.60,313.4,M,47.0,M,,*5C
$GPRMC,160828.00,A,4928.20333,N,01105.31802,E,0.003,,260311,,,A*7A
$GPVTG,,T,,M,0.003,N,0.006,K,A*26
$GPGGA,160828.00,4928.20333,N,01105.31802,E,1,05,1.60,313.3,M,47.0,M,,*51
$GPRMC,160829.00,A,4928.20334,N,01105.31803,E,0.025,,260311,,,A*79
$GPVTG,,T,,M,0.025,N,0.047,K,A*27
$GPGGA,160829.00,4928.20334,N,01105.31803,E,1,05,1.60,313.2,M,47.0,M,,*57
$GPRMC,160830.00,A,4928.20331,N,01105.31805,E,0.020,,260311,,,A*77
$GPVTG,,T,,M,0.020,N,0.036,K,A*24
$GPGGA,160830.00,4928.20331,N,01105.31805,E,1,05,1.60,313.0,M,47.0,M,,*5E
$GPRMC,160831.00,A,4928.20329,N,01105.31807,E,0.061,,260311,,,A*78
$GPVTG,,T,,M,0.061,N,0.112,K,A*26
$GPGGA,160831.00,4928.20329,N,01105.31807,E,1,05,1.59,312.9,M,47.0,M,,*56
$GPRMC,160832.00,A,4928.20330,N,01105.31805,E,0.049,,260311,,,A*7B
$GPVTG,,T,,M,0.049,N,0.091,K,A*26
$GPGGA,160832.00,4928.20330,N,01105.31805,E,1,05,1.59,312.8,M,47.0,M,,*5E
$GPRMC,160833.00,A,4928.20332,N,01105.31806,E,0.007,,260311,,,A*71
$GPVTG,,T,,M,0.007,N,0.014,K,A*21
$GPGGA,160833.00,4928.20332,N,01105.31806,E,1,05,1.59,312.7,M,47.0,M,,*51
$GPRMC,160834.00,A,4928.20338,N,01105.31805,E,0.125,,260311,,,A*7E
$GPVTG,,T,,M,0.125,N,0.231,K,A*25
$GPGGA,160834.00,4928.20338,N,01105.31805,E,1,05,1.59,312.9,M,47.0,M,,*51
$GPRMC,160835.00,A,4928.20337,N,01105.31806,E,0.025,,260311,,,A*72
$GPVTG,,T,,M,0.025,N,0.046,K,A*26
$GPGGA,160835.00,4928.20337,N,01105.31806,E,1,05,1.59,312.9,M,47.0,M,,*5C
$GPRMC,160836.00,A,4928.20330,N,01105.31811,E,0.039,,260311,,,A*7D
$GPVTG,,T,,M,0.039,N,0.073,K,A*2D
$GPGGA,160836.00,4928.20330,N,01105.31811,E,1,05,1.59,312.8,M,47.0,M,,*5F
$GPRMC,160837.00,A,4928.20324,N,01105.31817,E,0.044,,260311,,,A*75
$GPVTG,,T,,M,0.044,N,0.081,K,A*2A
$GPGGA,160837.00,4928.20324,N,01105.31817,E,1,05,1.59,312.7,M,47.0,M,,*52
$GPRMC,160838.00,A,4928.20323,N,01105.31820,E,0.041,,260311,,,A*7C
$GPVTG,,T,,M,0.041,N,0.076,K,A*27
$GPGGA,160838.00,4928.20323,N,01105.31820,E,1,05,1.59,312.7,M,47.0,M,,*5E
$GPRMC,160839.00,A,4928.20320,N,01105.31823,E,0.076,,260311,,,A*79
$GPVTG,,T,,M,0.076,N,0.141,K,A*26
$GPGGA,160839.00,4928.20320,N,01105.31823,E,1,05,1.59,312.5,M,47.0,M,,*5D
$GPRMC,160840.00,A,4928.20312,N,01105.31826,E,0.290,,260311,,,A*79
$GPVTG,,T,,M,0.290,N,0.537,K,A*29
$GPGGA,160840.00,4928.20312,N,01105.31826,E,1,05,1.59,312.3,M,47.0,M,,*51
$GPRMC,160841.00,A,4928.20305,N,01105.31830,E,0.038,,260311,,,A*79
$GPVTG,,T,,M,0.038,N,0.071,K,A*2E
$GPGGA,160841.00,4928.20305,N,01105.31830,E,1,05,1.59,312.1,M,47.0,M,,*53
$GPRMC,160842.00,A,4928.20301,N,01105.31833,E,0.134,,260311,,,A*70
$GPVTG,,T,,M,0.134,N,0.249,K,A*2A
$GPGGA,160842.00,4928.20301,N,01105.31833,E,1,05,1.59,311.9,M,47.0,M,,*5C
$GPRMC,160843.00,A,4928.20296,N,01105.31837,E,0.039,,260311,,,A*76
$GPVTG,,T,,M,0.039,N,0.073,K,A*2D
$GPGGA,160843.00,4928.20296,N,01105.31837,E,1,05,1.59,311.7,M,47.0,M,,*58
$GPRMC,160844.00,A,4928.20295,N,01105.31842,E,0.086,,260311,,,A*74
$GPVTG,,T,,M,0.086,N,0.159,K,A*20
$GPGGA,160844.00,4928.20295,N,01105.31842,E,1,05,1.59,311.5,M,47.0,M,,*5C
$GPRMC,160845.00,A,4928.20288,N,01105.31850,E,0.057,,260311,,,A*76
$GPVTG,,T,,M,0.057,N,0.105,K,A*25
$GPGGA,160845.00,4928.20288,N,01105.31850,E,1,05,1.59,311.3,M,47.0,M,,*54
$GPRMC,160846.00,A,4928.20283,N,01105.31857,E,0.008,,260311,,,A*73
$GPVTG,,T,,M,0.008,N,0.015,K,A*2F
$GPGGA,160846.00,4928.20283,N,01105.31857,E,1,05,1.59,311.1,M,47.0,M,,*59
$GPRMC,160847.00,A,4928.20280,N,01105.31861,E,0.096,,260311,,,A*73
$GPVTG,,T,,M,0.096,N,0.177,K,A*2D
$GPGGA,160847.00,4928.20280,N,01105.31861,E,1,05,1.59,311.0,M,47.0,M,,*5F
$GPRMC,160848.00,A,4928.20275,N,01105.31865,E,0.015,,260311,,,A*79
$GPVTG,,T,,M,0.015,N,0.028,K,A*2D
$GPGGA,160848.00,4928.20275,N,01105.31865,E,1,05,1.59,310.9,M,47.0,M,,*56
$GPRMC,160849.00,A,4928.20274,N,01105.31869,E,0.139,,260311,,,A*7A
$GPVTG,,T,,M,0.139,N,0.257,K,A*28
$GPGGA,160849.00,4928.20274,N,01105.31869,E,1,05,1.59,310.8,M,47.0,M,,*5B
$GPRMC,160850.00,A,4928.20272,N,01105.31872,E,0.027,,260311,,,A*70
$GPVTG,,T,,M,0.027,N,0.050,K,A*23
$GPGGA,160850.00,4928.20272,N,01105.31872,E,1,05,1.59,310.7,M,47.0,M,,*50
$GPRMC,160851.00,A,4928.20272,N,01105.31873,E,0.022,,260311,,,A*75
$GPVTG,,T,,M,0.022,N,0.040,K,A*27
$GPGGA,160851.00,4928.20272,N,01105.31873,E,1,05,1.59,310.6,M,47.0,M,,*51
$GPRMC,160852.00,A,4928.20272,N,01105.31876,E,0.126,,260311,,,A*76
$GPVTG,,T,,M,0.126,N,0.233,K,A*24
$GPGGA,160852.00,4928.20272,N,01105.31876,E,1,05,1.59,310.6,M,47.0,M,,*57
$GPRMC,160853.00,A,4928.20270,N,01105.31880,E,0.126,,260311,,,A*7C
$GPVTG,,T,,M,0.126,N,0.233,K,A*24
$GPGGA,160853.00,4928.20270,N,01105.31880,E,1,05,1.59,310.5,M,47.0,M,,*5E
$GPRMC,160854.00,A,4928.20267,N,01105.31883,E,0.041,,260311,,,A*7E
$GPVTG,,T,,M,0.041,N,0.077,K,A*26
$GPGGA,160854.00,4928.20267,N,01105.31883,E,1,05,1.59,310.4,M,47.0,M,,*5D
$GPRMC,160855.00,A,4928.20264,N,01105.31886,E,0.017,,260311,,,A*7A
$GPVTG,,T,,M,0.017,N,0.031,K,A*27
$GPGGA,160855.00,4928.20264,N,01105.31886,E,1,05,1.59,310.3,M,47.0,M,,*5D
$GPRMC,160856.00,A,4928.20263,N,01105.31890,E,0.066,,260311,,,A*7F
$GPVTG,,T,,M,0.066,N,0.122,K,A*22
$GPGGA,160856.00,4928.20263,N,01105.31890,E,1,05,1.59,310.3,M,47.0,M,,*5E
$GPRMC,160857.00,A,4928.20263,N,01105.31894,E,0.020,,260311,,,A*78
$GPVTG,,T,,M,0.020,N,0.037,K,A*25
$GPGGA,160857.00,4928.20263,N,01105.31894,E,1,05,1.59,310.3,M,47.0,M,,*5B
$GPRMC,160858.00,A,4928.20263,N,01105.31893,E,0.188,,260311,,,A*73
$GPVTG,,T,,M,0.188,N,0.349,K,A*2C
$GPGGA,160858.00,4928.20263,N,01105.31893,E,1,05,1.59,310.5,M,47.0,M,,*55
$GPRMC,160859.00,A,4928.20250,N,01105.31897,E,0.126,,260311,,,A*72
$GPVTG,,T,,M,0.126,N,0.233,K,A*24
$GPGGA,160859.00,4928.20250,N,01105.31897,E,1,05,1.59,310.5,M,47.0,M,,*50
$GPRMC,160900.00,A,4928.20235,N,01105.31901,E,0.038,,260311,,,A*7C
$GPVTG,,T,,M,0.038,N,0.071,K,A*2E
$GPGGA,160900.00,4928.20235,N,01105.31901,E,1,05,1.59,310.4,M,47.0,M,,*51
$GPRMC,160901.00,A,4928.20232,N,01105.31904,E,0.110,,260311,,,A*74
$GPVTG,,T,,M,0.110,N,0.204,K,A*25
$GPGGA,160901.00,4928.20232,N,01105.31904,E,1,05,1.59,310.4,M,47.0,M,,*52
$GPRMC,160902.00,A,4928.20227,N,01105.31905,E,0.027,,260311,,,A*77
$GPVTG,,T,,M,0.027,N,0.050,K,A*23
$GPGGA,160902.00,4928.20227,N,01105.31905,E,1,05,1.59,310.3,M,47.0,M,,*53
$GPRMC,160903.00,A,4928.20223,N,01105.31907,E,0.058,,260311,,,A*78
$GPVTG,,T,,M,0.058,N,0.108,K,A*27
$GPGGA,160903.00,4928.20223,N,01105.31907,E,1,05,1.59,310.2,M,47.0,M,,*55
$GPRMC,160904.00,A,4928.20221,N,01105.31910,E,0.024,,260311,,,A*70
$GPVTG,,T,,M,0.024,N,0.044,K,A*25
$GPGGA,160904.00,4928.20221,N,01105.31910,E,1,05,1.59,310.2,M,47.0,M,,*56
$GPRMC,160905.00,A,4928.20218,N,01105.31912,E,0.035,,260311,,,A*79
$GPVTG,,T,,M,0.035,N,0.066,K,A*25
$GPGGA,160905.00,4928.20218,N,01105.31912,E,1,05,1.59,310.2,M,47.0,M,,*5F
$GPRMC,160906.00,A,4928.20218,N,01105.31914,E,0.072,,260311,,,A*7F
$GPVTG,,T,,M,0.072,N,0.133,K,A*27
$GPGGA,160906.00,4928.20218,N,01105.31914,E,1,05,1.59,310.2,M,47.0,M,,*5A
$GPRMC,160907.00,A,4928.20238,N,01105.31913,E,1.429,355.73,260311,,,A*69
$GPVTG,355.73,T,,M,1.429,N,2.647,K,A*33
$GPGGA,160907.00,4928.20238,N,01105.31913,E,1,05,1.59,310.2,M,47.0,M,,*5E
$GPRMC,160908.00,A,4928.20341,N,01105.31904,E,5.458,356.73,260311,,,A*6E
$GPVTG,356.73,T,,M,5.458,N,10.107,K,A*02
$GPGGA,160908.00,4928.20341,N,01105.31904,E,1,05,1.59,310.2,M,47.0,M,,*58
$GPRMC,160909.00,A,4928.20551,N,01105.31907,E,8.760,3.63,260311,,,A*6C
$GPVTG,3.63,T,,M,8.760,N,16.224,K,A*01
$GPGGA,160909.00,4928.20551,N,01105.31907,E,1,05,1.59,310.4,M,47.0,M,,*5B
$GPRMC,160910.00,A,4928.20803,N,01105.32002,E,9.691,21.57,260311,,,A*58
$GPVTG,21.57,T,,M,9.691,N,17.947,K,A*37
$GPGGA,160910.00,4928.20803,N,01105.32002,E,1,05,1.59,310.5,M,47.0,M,,*57
$GPRMC,160911.00,A,4928.21045,N,01105.32260,E,10.809,36.75,260311,,,A*65
$GPVTG,36.75,T,,M,10.809,N,20.018,K,A*01
$GPGGA,160911.00,4928.21045,N,01105.32260,E,1,05,1.59,310.7,M,47.0,M,,*59
$GPRMC,160912.00,A,4928.21184,N,01105.32732,E,13.703,70.95,260311,,,A*62
$GPVTG,70.95,T,,M,13.703,N,25.378,K,A*0B
$GPGGA,160912.00,4928.21184,N,01105.32732,E,1,05,1.59,310.5,M,47.0,M,,*56
$GPRMC,160913.00,A,4928.21254,N,01105.33398,E,17.231,83.30,260311,,,A*6B
$GPVTG,83.30,T,,M,17.231,N,31.912,K,A*0B
$GPGGA,160913.00,4928.21254,N,01105.33398,E,1,05,1.59,310.5,M,47.0,M,,*5C
$GPRMC,160914.00,A,4928.21303,N,01105.34279,E,21.432,85.81,260311,,,A*6A
$GPVTG,85.81,T,,M,21.432,N,39.693,K,A*09
$GPGGA,160914.00,4928.21303,N,01105.34279,E,1,05,1.59,310.5,M,47.0,M,,*51
$GPRMC,160915.00,A,4928.21350,N,01105.35291,E,24.382,86.68,260311,,,A*67
$GPVTG,86.68,T,,M,24.382,N,45.156,K,A*01
$GPGGA,160915.00,4928.21350,N,01105.35291,E,1,05,1.59,310.7,M,47.0,M,,*53
$GPRMC,160916.00,A,4928.21390,N,01105.36368,E,24.886,87.10,260311,,,A*6D
$GPVTG,87.10,T,,M,24.886,N,46.088,K,A*01
$GPGGA,160916.00,4928.21390,N,01105.36368,E,1,05,1.59,310.7,M,47.0,M,,*58
$GPRMC,160917.00,A,4928.21425,N,01105.37489,E,26.424,87.78,260311,,,A*64
$GPVTG,87.78,T,,M,26.424,N,48.936,K,A*0B
$GPGGA,160917.00,4928.21425,N,01105.37489,E,1,05,1.59,310.9,M,47.0,M,,*57
$GPRMC,160918.00,A,4928.21460,N,01105.38649,E,27.090,88.09,260311,,,A*68
$GPVTG,88.09,T,,M,27.090,N,50.170,K,A*0B
$GPGGA,160918.00,4928.21460,N,01105.38649,E,1,05,1.59,311.2,M,47.0,M,,*52
$GPRMC,160919.00,A,4928.21487,N,01105.39834,E,27.316,87.97,260311,,,A*60
$GPVTG,87.97,T,,M,27.316,N,50.590,K,A*04
$GPGGA,160919.00,4928.21487,N,01105.39834,E,1,05,1.59,311.2,M,47.0,M,,*5F
$GPRMC,160920.00,A,4928.21510,N,01105.41023,E,27.493,88.30,260311,,,A*6C
$GPVTG,88.30,T,,M,27.493,N,50.916,K,A*0E
$GPGGA,160920.00,4928.21510,N,01105.41023,E,1,05,1.59,311.2,M,47.0,M,,*5B
$GPRMC,160921.00,A,4928.21532,N,01105.42217,E,27.384,88.29,260311,,,A*62
$GPVTG,88.29,T,,M,27.384,N,50.715,K,A*0A
$GPGGA,160921.00,4928.21532,N,01105.42217,E,1,05,1.59,311.2,M,47.0,M,,*5C
$GPRMC,160922.00,A,4928.21554,N,01105.43406,E,27.249,88.09,260311,,,A*64
$GPVTG,88.09,T,,M,27.249,N,50.465,K,A*0C
$GPGGA,160922.00,4928.21554,N,01105.43406,E,1,05,1.59,311.3,M,47.0,M,,*59
$GPRMC,160923.00,A,4928.21579,N,01105.44586,E,27.051,88.10,260311,,,A*67
$GPVTG,88.10,T,,M,27.051,N,50.098,K,A*09
$GPGGA,160923.00,4928.21579,N,01105.44586,E,1,05,1.59,311.4,M,47.0,M,,*5E
$GPRMC,160924.00,A,4928.21604,N,01105.45753,E,26.813,88.25,260311,,,A*6B
$GPVTG,88.25,T,,M,26.813,N,49.658,K,A*02
$GPGGA,160924.00,4928.21604,N,01105.45753,E,1,05,1.59,311.5,M,47.0,M,,*5A
$GPRMC,160925.00,A,4928.21623,N,01105.46905,E,26.464,88.55,260311,,,A*6A
$GPVTG,88.55,T,,M,26.464,N,49.012,K,A*01
$GPGGA,160925.00,4928.21623,N,01105.46905,E,1,05,1.59,311.4,M,47.0,M,,*51
$GPRMC,160926.00,A,4928.21636,N,01105.48045,E,26.201,89.18,260311,,,A*63
$GPVTG,89.18,T,,M,26.201,N,48.525,K,A*0C
$GPGGA,160926.00,4928.21636,N,01105.48045,E,1,05,1.59,311.5,M,47.0,M,,*54
$GPRMC,160927.00,A,4928.21641,N,01105.49168,E,25.843,89.69,260311,,,A*64
$GPVTG,89.69,T,,M,25.843,N,47.862,K,A*04
$GPGGA,160927.00,4928.21641,N,01105.49168,E,1,05,1.59,311.4,M,47.0,M,,*5B
$GPRMC,160928.00,A,4928.21625,N,01105.50263,E,25.162,91.04,260311,,,A*61
$GPVTG,91.04,T,,M,25.162,N,46.600,K,A*07
$GPGGA,160928.00,4928.21625,N,01105.50263,E,1,05,1.59,311.2,M,47.0,M,,*50
$GPRMC,160929.00,A,4928.21573,N,01105.51313,E,24.446,92.71,260311,,,A*64
$GPVTG,92.71,T,,M,24.446,N,45.274,K,A*00
$GPGGA,160929.00,4928.21573,N,01105.51313,E,1,05,1.59,311.1,M,47.0,M,,*55
$GPRMC,160930.00,A,4928.21560,N,01105.52378,E,24.312,92.33,260311,,,A*60
$GPVTG,92.33,T,,M,24.312,N,45.026,K,A*05
$GPGGA,160930.00,4928.21560,N,01105.52378,E,1,05,1.59,311.1,M,47.0,M,,*51
$GPRMC,160931.00,A,4928.21535,N,01105.53399,E,23.271,92.50,260311,,,A*69
$GPVTG,92.50,T,,M,23.271,N,43.098,K,A*00
$GPGGA,160931.00,4928.21535,N,01105.53399,E,1,05,1.58,311.0,M,47.0,M,,*5E
$GPRMC,160932.00,A,4928.21507,N,01105.54373,E,22.095,92.31,260311,,,A*66
$GPVTG,92.31,T,,M,22.095,N,40.920,K,A*07
$GPGGA,160932.00,4928.21507,N,01105.54373,E,1,05,1.58,310.9,M,47.0,M,,*57
$GPRMC,160933.00,A,4928.21488,N,01105.55299,E,21.173,91.54,260311,,,A*6F
$GPVTG,91.54,T,,M,21.173,N,39.212,K,A*09
$GPGGA,160933.00,4928.21488,N,01105.55299,E,1,05,1.58,310.8,M,47.0,M,,*55
$GPRMC,160934.00,A,4928.21479,N,01105.56183,E,20.227,90.41,260311,,,A*6B
$GPVTG,90.41,T,,M,20.227,N,37.461,K,A*03
$GPGGA,160934.00,4928.21479,N,01105.56183,E,1,05,1.58,310.7,M,47.0,M,,*58
$GPRMC,160935.00,A,4928.21477,N,01105.57021,E,19.145,89.57,260311,,,A*6E
$GPVTG,89.57,T,,M,19.145,N,35.457,K,A*06
$GPGGA,160935.00,4928.21477,N,01105.57021,E,1,05,1.58,310.7,M,47.0,M,,*5F
$GPRMC,160936.00,A,4928.21476,N,01105.57814,E,18.087,89.38,260311,,,A*65
$GPVTG,89.38,T,,M,18.087,N,33.497,K,A*0B
$GPGGA,160936.00,4928.21476,N,01105.57814,E,1,05,1.58,310.7,M,47.0,M,,*53
$GPRMC,160937.00,A,4928.21474,N,01105.58552,E,16.606,89.61,260311,,,A*6B
$GPVTG,89.61,T,,M,16.606,N,30.754,K,A*09
$GPGGA,160937.00,4928.21474,N,01105.58552,E,1,05,1.58,310.7,M,47.0,M,,*50
$GPRMC,160938.00,A,4928.21472,N,01105.59210,E,14.588,89.70,260311,,,A*65
$GPVTG,89.70,T,,M,14.588,N,27.017,K,A*08
$GPGGA,160938.00,4928.21472,N,01105.59210,E,1,05,1.58,310.6,M,47.0,M,,*58
$GPRMC,160939.00,A,4928.21469,N,01105.59762,E,11.641,89.61,260311,,,A*6D
$GPVTG,89.61,T,,M,11.641,N,21.559,K,A*02
$GPGGA,160939.00,4928.21469,N,01105.59762,E,1,05,1.58,310.7,M,47.0,M,,*52
$GPRMC,160940.00,A,4928.21466,N,01105.60186,E,8.497,89.65,260311,,,A*5F
$GPVTG,89.65,T,,M,8.497,N,15.736,K,A*3B
$GPGGA,160940.00,4928.21466,N,01105.60186,E,1,05,1.58,310.7,M,47.0,M,,*55
$GPRMC,160941.00,A,4928.21459,N,01105.60488,E,5.893,89.69,260311,,,A*50
$GPVTG,89.69,T,,M,5.893,N,10.914,K,A*39
$GPGGA,160941.00,4928.21459,N,01105.60488,E,1,05,1.58,310.6,M,47.0,M,,*52
$GPRMC,160942.00,A,4928.21461,N,01105.60692,E,3.906,89.63,260311,,,A*50
$GPVTG,89.63,T,,M,3.906,N,7.234,K,A*07
$GPGGA,160942.00,4928.21461,N,01105.60692,E,1,05,1.58,310.6,M,47.0,M,,*53
$GPRMC,160943.00,A,4928.21458,N,01105.60799,E,1.778,89.78,260311,,,A*5E
$GPVTG,89.78,T,,M,1.778,N,3.293,K,A*01
$GPGGA,160943.00,4928.21458,N,01105.60799,E,1,05,1.58,310.6,M,47.0,M,,*52
$GPRMC,160944.00,A,4928.21458,N,01105.60840,E,0.686,,260311,,,A*73
$GPVTG,,T,,M,0.686,N,1.270,K,A*2F
$GPGGA,160944.00,4928.21458,N,01105.60840,E,1,05,1.58,310.4,M,47.0,M,,*5C
$GPRMC,160945.00,A,4928.21452,N,01105.60846,E,0.186,,260311,,,A*79
$GPVTG,,T,,M,0.186,N,0.344,K,A*2F
$GPGGA,160945.00,4928.21452,N,01105.60846,E,1,05,1.58,310.1,M,47.0,M,,*54
$GPRMC,160946.00,A,4928.21446,N,01105.60836,E,0.125,,260311,,,A*71
$GPVTG,,T,,M,0.125,N,0.232,K,A*26
$GPGGA,160946.00,4928.21446,N,01105.60836,E,1,05,1.58,310.0,M,47.0,M,,*54
$GPRMC,160947.00,A,4928.21437,N,01105.60819,E,0.120,,260311,,,A*7E
$GPVTG,,T,,M,0.120,N,0.223,K,A*23
$GPGGA,160947.00,4928.21437,N,01105.60819,E,1,05,1.58,309.7,M,47.0,M,,*51
$GPRMC,160948.00,A,4928.21429,N,01105.60805,E,0.046,,260311,,,A*72
$GPVTG,,T,,M,0.046,N,0.085,K,A*2C
$GPGGA,160948.00,4928.21429,N,01105.60805,E,1,05,1.58,309.5,M,47.0,M,,*5E
$GPRMC,160949.00,A,4928.21422,N,01105.60791,E,0.087,,260311,,,A*77
$GPVTG,,T,,M,0.087,N,0.161,K,A*2A
$GPGGA,160949.00,4928.21422,N,01105.60791,E,1,05,1.58,309.3,M,47.0,M,,*50
$GPRMC,160950.00,A,4928.21417,N,01105.60777,E,0.117,,260311,,,A*79
$GPVTG,,T,,M,0.117,N,0.217,K,A*20
$GPGGA,160950.00,4928.21417,N,01105.60777,E,1,05,1.58,309.1,M,47.0,M,,*54
$GPRMC,160951.00,A,4928.21413,N,01105.60762,E,0.072,,260311,,,A*7A
$GPVTG,,T,,M,0.072,N,0.134,K,A*20
$GPGGA,160951.00,4928.21413,N,01105.60762,E,1,05,1.58,308.7,M,47.0,M,,*52
$GPRMC,160952.00,A,4928.21407,N,01105.60750,E,0.057,,260311,,,A*7A
$GPVTG,,T,,M,0.057,N,0.105,K,A*25
$GPGGA,160952.00,4928.21407,N,01105.60750,E,1,05,1.58,308.5,M,47.0,M,,*57
$GPRMC,160953.00,A,4928.21401,N,01105.60737,E,0.193,,260311,,,A*75
$GPVTG,,T,,M,0.193,N,0.358,K,A*26
$GPGGA,160953.00,4928.21401,N,01105.60737,E,1,05,1.58,308.1,M,47.0,M,,*55
$GPRMC,160954.00,A,4928.21397,N,01105.60727,E,0.133,,260311,,,A*71
$GPVTG,,T,,M,0.133,N,0.246,K,A*22
$GPGGA,160954.00,4928.21397,N,01105.60727,E,1,05,1.58,307.8,M,47.0,M,,*5D
$GPRMC,160955.00,A,4928.21394,N,01105.60716,E,0.091,,260311,,,A*78
$GPVTG,,T,,M,0.091,N,0.168,K,A*24
$GPGGA,160955.00,4928.21394,N,01105.60716,E,1,05,1.58,307.5,M,47.0,M,,*50
$GPRMC,160956.00,A,4928.21387,N,01105.60706,E,0.161,,260311,,,A*76
$GPVTG,,T,,M,0.161,N,0.299,K,A*27
$GPGGA,160956.00,4928.21387,N,01105.60706,E,1,05,1.58,307.1,M,47.0,M,,*54
$GPRMC,160957.00,A,4928.21381,N,01105.60696,E,0.072,,260311,,,A*7A
$GPVTG,,T,,M,0.072,N,0.134,K,A*20
$GPGGA,160957.00,4928.21381,N,01105.60696,E,1,05,1.58,306.7,M,47.0,M,,*5C
$GPRMC,160958.00,A,4928.21380,N,01105.60738,E,1.697,89.97,260311,,,A*5C
$GPVTG,89.97,T,,M,1.697,N,3.143,K,A*0E
$GPGGA,160958.00,4928.21380,N,01105.60738,E,1,05,1.58,306.8,M,47.0,M,,*58
$GPRMC,160959.00,A,4928.21382,N,01105.60927,E,6.351,90.17,260311,,,A*57
$GPVTG,90.17,T,,M,6.351,N,11.762,K,A*30
$GPGGA,160959.00,4928.21382,N,01105.60927,E,1,05,1.58,307.2,M,47.0,M,,*50
$GPRMC,161000.00,A,4928.21382,N,01105.61311,E,10.803,90.00,260311,,,A*60
$GPVTG,90.00,T,,M,10.803,N,20.007,K,A*0B
$GPGGA,161000.00,4928.21382,N,01105.61311,E,1,05,1.58,307.2,M,47.0,M,,*5A
$GPRMC,161001.00,A,4928.21388,N,01105.61863,E,14.248,89.83,260311,,,A*67
$GPVTG,89.83,T,,M,14.248,N,26.386,K,A*05
$GPGGA,161001.00,4928.21388,N,01105.61863,E,1,05,1.58,307.6,M,47.0,M,,*5B
$GPRMC,161002.00,A,4928.21410,N,01105.62533,E,15.188,89.97,260311,,,A*62
$GPVTG,89.97,T,,M,15.188,N,28.128,K,A*06
$GPGGA,161002.00,4928.21410,N,01105.62533,E,1,05,1.58,309.5,M,47.0,M,,*58
$GPRMC,161003.00,A,4928.21426,N,01105.63268,E,17.628,89.75,260311,,,A*6D
$GPVTG,89.75,T,,M,17.628,N,32.648,K,A*0F
$GPGGA,161003.00,4928.21426,N,01105.63268,E,1,05,1.58,310.7,M,47.0,M,,*5E
$GPRMC,161004.00,A,4928.21444,N,01105.64105,E,20.207,89.39,260311,,,A*64
$GPVTG,89.39,T,,M,20.207,N,37.423,K,A*00
$GPGGA,161004.00,4928.21444,N,01105.64105,E,1,05,1.58,312.1,M,47.0,M,,*56
$GPRMC,161005.00,A,4928.21462,N,01105.65005,E,21.009,89.39,260311,,,A*6C
$GPVTG,89.39,T,,M,21.009,N,38.909,K,A*07
$GPGGA,161005.00,4928.21462,N,01105.65005,E,1,05,1.58,312.9,M,47.0,M,,*5B
$GPRMC,161006.00,A,4928.21449,N,01105.65905,E,20.868,94.10,260311,,,A*66
$GPVTG,94.10,T,,M,20.868,N,38.648,K,A*04
$GPGGA,161006.00,4928.21449,N,01105.65905,E,1,05,1.58,313.3,M,47.0,M,,*53
$GPRMC,161007.00,A,4928.21343,N,01105.66772,E,20.632,106.44,260311,,,A*5D
$GPVTG,106.44,T,,M,20.632,N,38.210,K,A*37
$GPGGA,161007.00,4928.21343,N,01105.66772,E,1,05,1.58,313.6,M,47.0,M,,*57
$GPRMC,161008.00,A,4928.21101,N,01105.67564,E,20.626,116.14,260311,,,A*53
$GPVTG,116.14,T,,M,20.626,N,38.200,K,A*37
$GPGGA,161008.00,4928.21101,N,01105.67564,E,1,05,1.58,313.8,M,47.0,M,,*56
$GPRMC,161009.00,A,4928.20692,N,01105.68200,E,21.659,134.67,260311,,,A*59
$GPVTG,134.67,T,,M,21.659,N,40.113,K,A*34
$GPGGA,161009.00,4928.20692,N,01105.68200,E,1,05,1.58,314.1,M,47.0,M,,*5F
$GPRMC,161010.00,A,4928.20188,N,01105.68803,E,22.951,140.86,260311,,,A*5C
$GPVTG,140.86,T,,M,22.951,N,42.505,K,A*3D
$GPGGA,161010.00,4928.20188,N,01105.68803,E,1,05,1.58,314.2,M,47.0,M,,*51
$GPRMC,161011.00,A,4928.19640,N,01105.69408,E,24.128,142.71,260311,,,A*58
$GPVTG,142.71,T,,M,24.128,N,44.686,K,A*39
$GPGGA,161011.00,4928.19640,N,01105.69408,E,1,05,1.58,314.2,M,47.0,M,,*5F
$GPRMC,161012.00,A,4928.19054,N,01105.69990,E,25.008,145.10,260311,,,A*56
$GPVTG,145.10,T,,M,25.008,N,46.315,K,A*36
$GPGGA,161012.00,4928.19054,N,01105.69990,E,1,05,1.58,313.5,M,47.0,M,,*53
$GPRMC,161013.00,A,4928.18439,N,01105.70569,E,25.815,146.86,260311,,,A*53
$GPVTG,146.86,T,,M,25.815,N,47.809,K,A*39
$GPGGA,161013.00,4928.18439,N,01105.70569,E,1,05,1.58,313.7,M,47.0,M,,*5C
$GPRMC,161014.00,A,4928.17810,N,01105.71127,E,25.738,148.48,260311,,,A*5F
$GPVTG,148.48,T,,M,25.738,N,47.666,K,A*32
$GPGGA,161014.00,4928.17810,N,01105.71127,E,1,05,1.58,313.8,M,47.0,M,,*53
$GPRMC,161015.00,A,4928.17169,N,01105.71656,E,25.705,149.91,260311,,,A*53
$GPVTG,149.91,T,,M,25.705,N,47.607,K,A*3E
$GPGGA,161015.00,4928.17169,N,01105.71656,E,1,05,1.58,314.0,M,47.0,M,,*5B
$GPRMC,161016.00,A,4928.16449,N,01105.72126,E,26.117,150.74,260311,,,A*50
$GPVTG,150.74,T,,M,26.117,N,48.368,K,A*38
$GPGGA,161016.00,4928.16449,N,01105.72126,E,1,04,2.48,314.2,M,47.0,M,,*5C
$GPRMC,161017.00,A,4928.15789,N,01105.72663,E,26.516,150.23,260311,,,A*5C
$GPVTG,150.23,T,,M,26.516,N,49.107,K,A*35
$GPGGA,161017.00,4928.15789,N,01105.72663,E,1,05,2.49,314.2,M,47.0,M,,*57
$GPRMC,161018.00,A,4928.15121,N,01105.73221,E,26.880,149.99,260311,,,A*5F
$GPVTG,149.99,T,,M,26.880,N,49.782,K,A*35
$GPGGA,161018.00,4928.15121,N,01105.73221,E,1,05,1.58,314.2,M,47.0,M,,*5C
$GPRMC,161019.00,A,4928.14495,N,01105.73809,E,26.750,149.95,260311,,,A*5B
$GPVTG,149.95,T,,M,26.750,N,49.540,K,A*37
$GPGGA,161019.00,4928.14495,N,01105.73809,E,1,05,1.58,314.5,M,47.0,M,,*51
$GPRMC,161020.00,A,4928.13851,N,01105.74386,E,26.452,150.19,260311,,,A*54
$GPVTG,150.19,T,,M,26.452,N,48.988,K,A*33
$GPGGA,161020.00,4928.13851,N,01105.74386,E,1,05,1.58,314.7,M,47.0,M,,*51
$GPRMC,161021.00,A,4928.13219,N,01105.74948,E,25.766,150.33,260311,,,A*54
$GPVTG,150.33,T,,M,25.766,N,47.719,K,A*35
$GPGGA,161021.00,4928.13219,N,01105.74948,E,1,05,1.58,315.3,M,47.0,M,,*5B
$GPRMC,161022.00,A,4928.12596,N,01105.75484,E,25.310,150.13,260311,,,A*5D
$GPVTG,150.13,T,,M,25.310,N,46.873,K,A*30
$GPGGA,161022.00,4928.12596,N,01105.75484,E,1,05,1.58,315.5,M,47.0,M,,*53
$GPRMC,161023.00,A,4928.11942,N,01105.75992,E,25.308,150.03,260311,,,A*58
$GPVTG,150.03,T,,M,25.308,N,46.871,K,A*3A
$GPGGA,161023.00,4928.11942,N,01105.75992,E,1,05,1.58,316.2,M,47.0,M,,*5A
$GPRMC,161024.00,A,4928.11316,N,01105.76555,E,26.503,150.28,260311,,,A*57
$GPVTG,150.28,T,,M,26.503,N,49.083,K,A*37
$GPGGA,161024.00,4928.11316,N,01105.76555,E,1,05,1.58,316.7,M,47.0,M,,*57
$GPRMC,161025.00,A,4928.10646,N,01105.77131,E,27.972,150.47,260311,,,A*52
$GPVTG,150.47,T,,M,27.972,N,51.804,K,A*3B
$GPGGA,161025.00,4928.10646,N,01105.77131,E,1,05,1.58,317.1,M,47.0,M,,*57
$GPRMC,161026.00,A,4928.09953,N,01105.77727,E,28.685,150.59,260311,,,A*54
$GPVTG,150.59,T,,M,28.685,N,53.125,K,A*34
$GPGGA,161026.00,4928.09953,N,01105.77727,E,1,05,1.58,317.3,M,47.0,M,,*54
$GPRMC,161027.00,A,4928.09263,N,01105.78324,E,28.452,150.24,260311,,,A*57
$GPVTG,150.24,T,,M,28.452,N,52.694,K,A*3A
$GPGGA,161027.00,4928.09263,N,01105.78324,E,1,05,1.58,317.4,M,47.0,M,,*52
$GPRMC,161028.00,A,4928.08578,N,01105.78922,E,28.080,150.13,260311,,,A*57
$GPVTG,150.13,T,,M,28.080,N,52.003,K,A*3D
$GPGGA,161028.00,4928.08578,N,01105.78922,E,1,05,1.58,317.7,M,47.0,M,,*5E
$GPRMC,161029.00,A,4928.07903,N,01105.79511,E,27.454,150.65,260311,,,A*57
$GPVTG,150.65,T,,M,27.454,N,50.845,K,A*36
$GPGGA,161029.00,4928.07903,N,01105.79511,E,1,05,1.58,317.9,M,47.0,M,,*53
$GPRMC,161030.00,A,4928.07236,N,01105.80087,E,27.162,150.75,260311,,,A*5F
$GPVTG,150.75,T,,M,27.162,N,50.304,K,A*39
$GPGGA,161030.00,4928.07236,N,01105.80087,E,1,05,1.58,317.4,M,47.0,M,,*57
$GPRMC,161031.00,A,4928.06587,N,01105.80669,E,26.953,150.51,260311,,,A*59
$GPVTG,150.51,T,,M,26.953,N,49.917,K,A*34
$GPGGA,161031.00,4928.06587,N,01105.80669,E,1,05,1.58,317.6,M,47.0,M,,*5E
$GPRMC,161032.00,A,4928.05957,N,01105.81255,E,26.192,150.32,260311,,,A*52
$GPVTG,150.32,T,,M,26.192,N,48.508,K,A*37
$GPGGA,161032.00,4928.05957,N,01105.81255,E,1,05,1.58,318.1,M,47.0,M,,*5D
$GPRMC,161033.00,A,4928.05310,N,01105.81788,E,25.118,151.64,260311,,,A*5C
$GPVTG,151.64,T,,M,25.118,N,46.519,K,A*3A
$GPGGA,161033.00,4928.05310,N,01105.81788,E,1,05,1.57,319.0,M,47.0,M,,*5F
$GPRMC,161034.00,A,4928.04676,N,01105.82264,E,23.813,152.90,260311,,,A*57
$GPVTG,152.90,T,,M,23.813,N,44.101,K,A*39
$GPGGA,161034.00,4928.04676,N,01105.82264,E,1,06,1.34,319.9,M,47.0,M,,*57
$GPRMC,161035.00,A,4928.04097,N,01105.82700,E,21.808,151.79,260311,,,A*54
$GPVTG,151.79,T,,M,21.808,N,40.389,K,A*33
$GPGGA,161035.00,4928.04097,N,01105.82700,E,1,06,1.34,320.4,M,47.0,M,,*5F
$GPRMC,161036.00,A,4928.03572,N,01105.83095,E,19.119,151.20,260311,,,A*5A
$GPVTG,151.20,T,,M,19.119,N,35.408,K,A*31
$GPGGA,161036.00,4928.03572,N,01105.83095,E,1,06,1.34,321.3,M,47.0,M,,*59
$GPRMC,161037.00,A,4928.03168,N,01105.83481,E,15.934,148.37,260311,,,A*50
$GPVTG,148.37,T,,M,15.934,N,29.510,K,A*31
$GPGGA,161037.00,4928.03168,N,01105.83481,E,1,06,1.34,320.9,M,47.0,M,,*5D
$GPRMC,161038.00,A,4928.02761,N,01105.83807,E,15.231,150.06,260311,,,A*56
$GPVTG,150.06,T,,M,15.231,N,28.209,K,A*3A
$GPGGA,161038.00,4928.02761,N,01105.83807,E,1,06,1.34,321.7,M,47.0,M,,*51
$GPRMC,161039.00,A,4928.02437,N,01105.84068,E,12.371,150.92,260311,,,A*5E
$GPVTG,150.92,T,,M,12.371,N,22.911,K,A*3D
$GPGGA,161039.00,4928.02437,N,01105.84068,E,1,06,1.34,321.9,M,47.0,M,,*58
$GPRMC,161040.00,A,4928.02214,N,01105.84253,E,9.348,151.33,260311,,,A*67
$GPVTG,151.33,T,,M,9.348,N,17.312,K,A*08
$GPGGA,161040.00,4928.02214,N,01105.84253,E,1,06,1.34,322.0,M,47.0,M,,*51
$GPRMC,161041.00,A,4928.02027,N,01105.84373,E,7.270,152.38,260311,,,A*6B
$GPVTG,152.38,T,,M,7.270,N,13.464,K,A*06
$GPGGA,161041.00,4928.02027,N,01105.84373,E,1,06,1.34,322.0,M,47.0,M,,*51
$GPRMC,161042.00,A,4928.01914,N,01105.84484,E,4.727,,260311,,,A*7A
$GPVTG,,T,,M,4.727,N,8.754,K,A*2B
$GPGGA,161042.00,4928.01914,N,01105.84484,E,1,06,1.34,322.0,M,47.0,M,,*57
$GPRMC,161043.00,A,4928.01865,N,01105.84594,E,3.044,,260311,,,A*79
$GPVTG,,T,,M,3.044,N,5.637,K,A*27
$GPGGA,161043.00,4928.01865,N,01105.84594,E,1,06,1.34,321.8,M,47.0,M,,*5A
$GPRMC,161044.00,A,4928.01862,N,01105.84684,E,1.953,,260311,,,A*76
$GPVTG,,T,,M,1.953,N,3.618,K,A*21
$GPGGA,161044.00,4928.01862,N,01105.84684,E,1,06,1.34,321.2,M,47.0,M,,*52
$GPRMC,161045.00,A,4928.01904,N,01105.84754,E,0.818,,260311,,,A*75
$GPVTG,,T,,M,0.818,N,1.515,K,A*22
$GPGGA,161045.00,4928.01904,N,01105.84754,E,1,06,1.34,320.4,M,47.0,M,,*59
$GPRMC,161046.00,A,4928.01965,N,01105.84834,E,0.041,,260311,,,A*7C
$GPVTG,,T,,M,0.041,N,0.077,K,A*26
$GPGGA,161046.00,4928.01965,N,01105.84834,E,1,06,1.34,319.8,M,47.0,M,,*52
$GPRMC,161047.00,A,4928.02023,N,01105.84879,E,0.128,,260311,,,A*72
$GPVTG,,T,,M,0.128,N,0.236,K,A*2F
$GPGGA,161047.00,4928.02023,N,01105.84879,E,1,06,1.34,319.3,M,47.0,M,,*59
$GPRMC,161048.00,A,4928.02097,N,01105.84944,E,0.056,,260311,,,A*75
$GPVTG,,T,,M,0.056,N,0.103,K,A*22
$GPGGA,161048.00,4928.02097,N,01105.84944,E,1,06,1.34,318.8,M,47.0,M,,*5C
$GPRMC,161049.00,A,4928.02146,N,01105.84978,E,0.017,,260311,,,A*73
$GPVTG,,T,,M,0.017,N,0.032,K,A*24
$GPGGA,161049.00,4928.02146,N,01105.84978,E,1,06,1.34,318.5,M,47.0,M,,*52
$GPRMC,161050.00,A,4928.02190,N,01105.85007,E,0.073,,260311,,,A*72
$GPVTG,,T,,M,0.073,N,0.136,K,A*23
$GPGGA,161050.00,4928.02190,N,01105.85007,E,1,06,1.34,318.3,M,47.0,M,,*57
$GPRMC,161051.00,A,4928.02224,N,01105.85019,E,0.093,,260311,,,A*7E
$GPVTG,,T,,M,0.093,N,0.173,K,A*2C
$GPGGA,161051.00,4928.02224,N,01105.85019,E,1,06,1.34,318.2,M,47.0,M,,*54
$GPRMC,161052.00,A,4928.02247,N,01105.85027,E,0.016,,260311,,,A*78
$GPVTG,,T,,M,0.016,N,0.029,K,A*2F
$GPGGA,161052.00,4928.02247,N,01105.85027,E,1,06,1.34,318.2,M,47.0,M,,*5F
$GPRMC,161053.00,A,4928.02266,N,01105.85026,E,0.089,,260311,,,A*7D
$GPVTG,,T,,M,0.089,N,0.164,K,A*21
$GPGGA,161053.00,4928.02266,N,01105.85026,E,1,06,1.34,318.4,M,47.0,M,,*5A
$GPRMC,161054.00,A,4928.02283,N,01105.85027,E,0.056,,260311,,,A*72
$GPVTG,,T,,M,0.056,N,0.104,K,A*25
$GPGGA,161054.00,4928.02283,N,01105.85027,E,1,06,1.34,318.6,M,47.0,M,,*55
$GPRMC,161055.00,A,4928.02296,N,01105.85028,E,0.045,,260311,,,A*7A
$GPVTG,,T,,M,0.045,N,0.083,K,A*29
$GPGGA,161055.00,4928.02296,N,01105.85028,E,1,06,1.34,318.7,M,47.0,M,,*5E
$GPRMC,161056.00,A,4928.02311,N,01105.85023,E,0.083,,260311,,,A*76
$GPVTG,,T,,M,0.083,N,0.153,K,A*2F
$GPGGA,161056.00,4928.02311,N,01105.85023,E,1,06,1.34,318.7,M,47.0,M,,*58
$GPRMC,161057.00,A,4928.02322,N,01105.85019,E,0.068,,260311,,,A*7B
$GPVTG,,T,,M,0.068,N,0.125,K,A*2B
$GPGGA,161057.00,4928.02322,N,01105.85019,E,1,06,1.34,318.6,M,47.0,M,,*51
$GPRMC,161058.00,A,4928.02336,N,01105.85020,E,0.143,,260311,,,A*73
$GPVTG,,T,,M,0.143,N,0.265,K,A*24
$GPGGA,161058.00,4928.02336,N,01105.85020,E,1,06,1.34,318.7,M,47.0,M,,*50
$GPRMC,161059.00,A,4928.02344,N,01105.85024,E,0.065,,260311,,,A*76
$GPVTG,,T,,M,0.065,N,0.121,K,A*22
$GPGGA,161059.00,4928.02344,N,01105.85024,E,1,06,1.34,318.7,M,47.0,M,,*50
$GPRMC,161100.00,A,4928.02354,N,01105.85030,E,0.092,,260311,,,A*77
$GPVTG,,T,,M,0.092,N,0.170,K,A*2E
$GPGGA,161100.00,4928.02354,N,01105.85030,E,1,06,1.34,318.8,M,47.0,M,,*56
$GPRMC,161101.00,A,4928.02352,N,01105.85020,E,0.181,,260311,,,A*72
$GPVTG,,T,,M,0.181,N,0.336,K,A*2D
$GPGGA,161101.00,4928.02352,N,01105.85020,E,1,06,1.34,318.5,M,47.0,M,,*5D
$GPRMC,161102.00,A,4928.02353,N,01105.85019,E,0.228,,260311,,,A*7A
$GPVTG,,T,,M,0.228,N,0.422,K,A*2F
$GPGGA,161102.00,4928.02353,N,01105.85019,E,1,06,1.34,318.4,M,47.0,M,,*54
$GPRMC,161103.00,A,4928.02362,N,01105.85019,E,0.113,,260311,,,A*72
$GPVTG,,T,,M,0.113,N,0.209,K,A*2B
$GPGGA,161103.00,4928.02362,N,01105.85019,E,1,06,1.34,318.5,M,47.0,M,,*56
$GPRMC,161104.00,A,4928.02360,N,01105.85016,E,0.125,,260311,,,A*7D
$GPVTG,,T,,M,0.125,N,0.232,K,A*26
$GPGGA,161104.00,4928.02360,N,01105.85016,E,1,06,1.34,318.3,M,47.0,M,,*5A
$GPRMC,161105.00,A,4928.02374,N,01105.85027,E,0.029,,260311,,,A*76
$GPVTG,,T,,M,0.029,N,0.053,K,A*2E
$GPGGA,161105.00,4928.02374,N,01105.85027,E,1,06,1.34,318.6,M,47.0,M,,*59
$GPRMC,161106.00,A,4928.02372,N,01105.85019,E,0.064,,260311,,,A*77
$GPVTG,,T,,M,0.064,N,0.118,K,A*29
$GPGGA,161106.00,4928.02372,N,01105.85019,E,1,06,1.34,318.4,M,47.0,M,,*53
$GPRMC,161107.00,A,4928.02385,N,01105.85031,E,0.103,,260311,,,A*74
$GPVTG,,T,,M,0.103,N,0.190,K,A*29
$GPGGA,161107.00,4928.02385,N,01105.85031,E,1,06,1.34,318.7,M,47.0,M,,*53
$GPRMC,161108.00,A,4928.02395,N,01105.85043,E,0.081,,260311,,,A*74
$GPVTG,,T,,M,0.081,N,0.151,K,A*2F
$GPGGA,161108.00,4928.02395,N,01105.85043,E,1,06,1.34,318.9,M,47.0,M,,*56
$GPRMC,161109.00,A,4928.02402,N,01105.85051,E,0.071,,260311,,,A*70
$GPVTG,,T,,M,0.071,N,0.132,K,A*25
$GPGGA,161109.00,4928.02402,N,01105.85051,E,1,06,1.34,319.0,M,47.0,M,,*55
$GPRMC,161110.00,A,4928.02411,N,01105.85057,E,0.127,,260311,,,A*7E
$GPVTG,,T,,M,0.127,N,0.236,K,A*20
$GPGGA,161110.00,4928.02411,N,01105.85057,E,1,06,1.34,319.1,M,47.0,M,,*58
$GPRMC,161111.00,A,4928.02422,N,01105.85067,E,0.115,,260311,,,A*7D
$GPVTG,,T,,M,0.115,N,0.213,K,A*26
$GPGGA,161111.00,4928.02422,N,01105.85067,E,1,06,1.34,319.4,M,47.0,M,,*5F
$GPRMC,161112.00,A,4928.02421,N,01105.85058,E,0.104,,260311,,,A*71
$GPVTG,,T,,M,0.104,N,0.192,K,A*2C
$GPGGA,161112.00,4928.02421,N,01105.85058,E,1,06,1.34,319.3,M,47.0,M,,*54
$GPRMC,161113.00,A,4928.02428,N,01105.85057,E,0.102,,260311,,,A*70
$GPVTG,,T,,M,0.102,N,0.188,K,A*21
$GPGGA,161113.00,4928.02428,N,01105.85057,E,1,06,1.34,319.5,M,47.0,M,,*55
$GPRMC,161114.00,A,4928.02442,N,01105.85074,E,0.422,,260311,,,A*7D
$GPVTG,,T,,M,0.422,N,0.781,K,A*29
$GPGGA,161114.00,4928.02442,N,01105.85074,E,1,06,1.34,319.8,M,47.0,M,,*52
$GPRMC,161115.00,A,4928.02372,N,01105.85119,E,4.154,150.20,260311,,,A*6A
$GPVTG,150.20,T,,M,4.154,N,7.693,K,A*34
$GPGGA,161115.00,4928.02372,N,01105.85119,E,1,06,1.34,319.0,M,47.0,M,,*55
$GPRMC,161116.00,A,4928.02219,N,01105.85301,E,9.138,142.95,260311,,,A*64
$GPVTG,142.95,T,,M,9.138,N,16.924,K,A*0D
$GPGGA,161116.00,4928.02219,N,01105.85301,E,1,06,1.34,318.5,M,47.0,M,,*55
$GPRMC,161117.00,A,4928.02003,N,01105.85657,E,12.932,134.03,260311,,,A*5C
$GPVTG,134.03,T,,M,12.932,N,23.950,K,A*3E
$GPGGA,161117.00,4928.02003,N,01105.85657,E,1,06,1.34,318.5,M,47.0,M,,*5B
$GPRMC,161118.00,A,4928.01780,N,01105.86159,E,14.478,132.00,260311,,,A*56
$GPVTG,132.00,T,,M,14.478,N,26.813,K,A*3D
$GPGGA,161118.00,4928.01780,N,01105.86159,E,1,06,1.34,319.5,M,47.0,M,,*50
$GPRMC,161119.00,A,4928.01495,N,01105.86658,E,16.576,127.97,260311,,,A*51
$GPVTG,127.97,T,,M,16.576,N,30.700,K,A*30
$GPGGA,161119.00,4928.01495,N,01105.86658,E,1,06,1.34,319.3,M,47.0,M,,*56
$GPRMC,161120.00,A,4928.01149,N,01105.87308,E,20.429,126.25,260311,,,A*58
$GPVTG,126.25,T,,M,20.429,N,37.835,K,A*38
$GPGGA,161120.00,4928.01149,N,01105.87308,E,1,06,1.34,318.8,M,47.0,M,,*53
$GPRMC,161121.00,A,4928.00794,N,01105.88091,E,24.234,124.74,260311,,,A*5A
$GPVTG,124.74,T,,M,24.234,N,44.880,K,A*3A
$GPGGA,161121.00,4928.00794,N,01105.88091,E,1,06,1.34,318.9,M,47.0,M,,*58
$GPRMC,161122.00,A,4928.00382,N,01105.89008,E,27.555,123.63,260311,,,A*59
$GPVTG,123.63,T,,M,27.555,N,51.032,K,A*3D
$GPGGA,161122.00,4928.00382,N,01105.89008,E,1,06,1.34,318.9,M,47.0,M,,*59
$GPRMC,161123.00,A,4927.99955,N,01105.90008,E,27.965,123.35,260311,,,A*53
$GPVTG,123.35,T,,M,27.965,N,51.791,K,A*3F
$GPGGA,161123.00,4927.99955,N,01105.90008,E,1,06,1.34,319.0,M,47.0,M,,*57
$GPRMC,161124.00,A,4927.99511,N,01105.91015,E,28.672,124.51,260311,,,A*56
$GPVTG,124.51,T,,M,28.672,N,53.101,K,A*31
$GPGGA,161124.00,4927.99511,N,01105.91015,E,1,06,1.34,319.0,M,47.0,M,,*51
$GPRMC,161125.00,A,4927.99041,N,01105.92021,E,29.001,125.72,260311,,,A*50
$GPVTG,125.72,T,,M,29.001,N,53.710,K,A*34
$GPGGA,161125.00,4927.99041,N,01105.92021,E,1,06,1.34,319.0,M,47.0,M,,*54
$GPRMC,161126.00,A,4927.98536,N,01105.92992,E,28.748,130.15,260311,,,A*58
$GPVTG,130.15,T,,M,28.748,N,53.242,K,A*38
$GPGGA,161126.00,4927.98536,N,01105.92992,E,1,06,1.34,319.4,M,47.0,M,,*56
$GPRMC,161127.00,A,4927.98009,N,01105.93910,E,28.240,132.72,260311,,,A*55
$GPVTG,132.72,T,,M,28.240,N,52.300,K,A*30
$GPGGA,161127.00,4927.98009,N,01105.93910,E,1,06,1.34,319.4,M,47.0,M,,*55
$GPRMC,161128.00,A,4927.97455,N,01105.94783,E,28.304,134.64,260311,,,A*5B
$GPVTG,134.64,T,,M,28.304,N,52.419,K,A*3F
$GPGGA,161128.00,4927.97455,N,01105.94783,E,1,06,1.34,319.8,M,47.0,M,,*57
$GPRMC,161129.00,A,4927.96978,N,01105.95663,E,26.256,130.95,260311,,,A*55
$GPVTG,130.95,T,,M,26.256,N,48.626,K,A*38
$GPGGA,161129.00,4927.96978,N,01105.95663,E,1,06,1.34,320.0,M,47.0,M,,*59
$GPRMC,161130.00,A,4927.96352,N,01105.96435,E,28.153,137.90,260311,,,A*57
$GPVTG,137.90,T,,M,28.153,N,52.139,K,A*30
$GPGGA,161130.00,4927.96352,N,01105.96435,E,1,06,1.34,320.8,M,47.0,M,,*59
$GPRMC,161131.00,A,4927.95754,N,01105.97251,E,27.793,138.41,260311,,,A*54
$GPVTG,138.41,T,,M,27.793,N,51.472,K,A*3F
$GPGGA,161131.00,4927.95754,N,01105.97251,E,1,06,1.34,321.4,M,47.0,M,,*51
$GPRMC,161132.00,A,4927.95131,N,01105.98032,E,28.286,139.25,260311,,,A*57
$GPVTG,139.25,T,,M,28.286,N,52.386,K,A*3D
$GPGGA,161132.00,4927.95131,N,01105.98032,E,1,06,1.34,322.1,M,47.0,M,,*59
$GPRMC,161133.00,A,4927.94547,N,01105.98815,E,27.734,138.91,260311,,,A*52
$GPVTG,138.91,T,,M,27.734,N,51.363,K,A*38
$GPGGA,161133.00,4927.94547,N,01105.98815,E,1,06,1.34,322.6,M,47.0,M,,*56
$GPRMC,161134.00,A,4927.93973,N,01105.99593,E,27.476,138.93,260311,,,A*5C
$GPVTG,138.93,T,,M,27.476,N,50.886,K,A*3E
$GPGGA,161134.00,4927.93973,N,01105.99593,E,1,06,1.34,322.0,M,47.0,M,,*59
$GPRMC,161135.00,A,4927.93396,N,01106.00386,E,27.459,138.07,260311,,,A*5D
$GPVTG,138.07,T,,M,27.459,N,50.855,K,A*30
$GPGGA,161135.00,4927.93396,N,01106.00386,E,1,06,1.34,322.5,M,47.0,M,,*5D
$GPRMC,161136.00,A,4927.92833,N,01106.01186,E,27.418,137.33,260311,,,A*55
$GPVTG,137.33,T,,M,27.418,N,50.779,K,A*3C
$GPGGA,161136.00,4927.92833,N,01106.01186,E,1,06,1.34,322.0,M,47.0,M,,*5D
$GPRMC,161137.00,A,4927.92246,N,01106.02000,E,28.029,135.18,260311,,,A*52
$GPVTG,135.18,T,,M,28.029,N,51.910,K,A*3E
$GPGGA,161137.00,4927.92246,N,01106.02000,E,1,06,1.34,322.7,M,47.0,M,,*5F
$GPRMC,161138.00,A,4927.91702,N,01106.02901,E,28.881,132.60,260311,,,A*51
$GPVTG,132.60,T,,M,28.881,N,53.488,K,A*32
$GPGGA,161138.00,4927.91702,N,01106.02901,E,1,06,1.34,322.9,M,47.0,M,,*50
$GPRMC,161139.00,A,4927.91265,N,01106.03921,E,29.145,130.00,260311,,,A*53
$GPVTG,130.00,T,,M,29.145,N,53.977,K,A*3B
$GPGGA,161139.00,4927.91265,N,01106.03921,E,1,06,1.34,323.3,M,47.0,M,,*5D
$GPRMC,161140.00,A,4927.90798,N,01106.04927,E,28.598,127.53,260311,,,A*5F
$GPVTG,127.53,T,,M,28.598,N,52.963,K,A*3A
$GPGGA,161140.00,4927.90798,N,01106.04927,E,1,06,1.34,323.3,M,47.0,M,,*54
$GPRMC,161141.00,A,4927.90333,N,01106.05946,E,28.289,125.70,260311,,,A*59
$GPVTG,125.70,T,,M,28.289,N,52.392,K,A*3A
$GPGGA,161141.00,4927.90333,N,01106.05946,E,1,06,1.34,323.3,M,47.0,M,,*56
$GPRMC,161142.00,A,4927.89906,N,01106.06964,E,27.649,124.01,260311,,,A*5D
$GPVTG,124.01,T,,M,27.649,N,51.205,K,A*36
$GPGGA,161142.00,4927.89906,N,01106.06964,E,1,06,1.34,323.5,M,47.0,M,,*54
$GPRMC,161143.00,A,4927.89480,N,01106.07936,E,26.779,124.17,260311,,,A*5D
$GPVTG,124.17,T,,M,26.779,N,49.594,K,A*34
$GPGGA,161143.00,4927.89480,N,01106.07936,E,1,06,1.34,323.7,M,47.0,M,,*52
$GPRMC,161144.00,A,4927.89058,N,01106.08884,E,26.576,124.47,260311,,,A*54
$GPVTG,124.47,T,,M,26.576,N,49.218,K,A*3F
$GPGGA,161144.00,4927.89058,N,01106.08884,E,1,06,1.34,323.7,M,47.0,M,,*53
$GPRMC,161145.00,A,4927.88626,N,01106.09824,E,26.786,125.18,260311,,,A*56
$GPVTG,125.18,T,,M,26.786,N,49.608,K,A*3C
$GPGGA,161145.00,4927.88626,N,01106.09824,E,1,06,1.34,324.1,M,47.0,M,,*56
$GPRMC,161146.00,A,4927.88199,N,01106.10775,E,26.824,124.97,260311,,,A*54
$GPVTG,124.97,T,,M,26.824,N,49.677,K,A*35
$GPGGA,161146.00,4927.88199,N,01106.10775,E,1,06,1.34,324.4,M,47.0,M,,*50
$GPRMC,161147.00,A,4927.87768,N,01106.11737,E,27.463,124.98,260311,,,A*54
$GPVTG,124.98,T,,M,27.463,N,50.861,K,A*35
$GPGGA,161147.00,4927.87768,N,01106.11737,E,1,06,1.34,324.7,M,47.0,M,,*52
$GPRMC,161148.00,A,4927.87319,N,01106.12729,E,28.528,125.58,260311,,,A*59
$GPVTG,125.58,T,,M,28.528,N,52.834,K,A*3B
$GPGGA,161148.00,4927.87319,N,01106.12729,E,1,06,1.34,325.0,M,47.0,M,,*55
$GPRMC,161149.00,A,4927.86841,N,01106.13725,E,29.033,126.13,260311,,,A*50
$GPVTG,126.13,T,,M,29.033,N,53.769,K,A*3F
$GPGGA,161149.00,4927.86841,N,01106.13725,E,1,06,1.34,325.1,M,47.0,M,,*5F
