$GPRMC,162805.00,A,4928.05601,N,01105.04379,E,0.104,,260311,,,A*73
$GPVTG,,T,,M,0.104,N,0.193,K,A*2D
$GPGGA,162805.00,4928.05601,N,01105.04379,E,1,08,1.11,319.6,M,47.0,M,,*5A
$G
$GPRMC,162807.00,A,4928.05600,N,01105.04426,E,0.566,351.16,260311,,,A*63
$GPVTG,351.16,T,,M,0.566,N,1.047,K,A*3A
$GPGGA,162807.00,4928.05600,N,01105.04426,E,1,08,1.11,319.5,M,47.0,M,,*57
$GPRMC,162808.00,A,4928.05601,N,01105.04422,E,1.033,331.69,260311,,,A*63
$GPVTG,331.69,T,,M,1.033,N,1.913,K,A*38
$GPGGA,162808.00,4928.05601,N,01105.04422,E,1,08,1.11,319.5,M,47.0,M,,*5D
$GPRMC,162809.00,A,4928.05603,N,01105.04415,E,0.225,333.01,260311,,,A*6C
$GPVTG,333.01,T,,M,0.225,N,0.417,K,A*38
$GPGGA,162809.00,4928.05603,N,01105.04415,E,1,08,1.11,319.6,M,47.0,M,,*59
$GPRMC,162810.00,A,4928.05600,N,01105.04462,E,1.747,40.56,260311,,,A*52
$GPVTG,40.56,T,,M,1.747,N,3.235,K,A*08
$GPGGA,162810.00,4928.05600,N,01105.04462,E,1,08,1.11,319.6,M,47.0,M,,*52
$GPRMC,162811.00,A,4928.05598,N,01105.04558,E,2.206,72.87,260311,,,A*57
$GPVTG,72.87,T,,M,2.206,N,4.086,K,A*0B
$GPGGA,162811.00,4928.05598,N,01105.04558,E,1,08,1.11,319.7,M,47.0,M,,*58
$GPRMC,162812.00,A,4928.05599,N,01105.04653,E,2.159,76.12,260311,,,A*5C
$GPVTG,76.12,T,,M,2.159,N,3.999,K,A*0A
$GPGGA,162812.00,4928.05599,N,01105.04653,E,1,08,1.11,319.6,M,47.0,M,,*53
$GPRMC,162813.00,A,4928.05602,N,01105.04751,E,2.210,84.21,260311,,,A*5C
$GPVTG,84.21,T,,M,2.210,N,4.094,K,A*0A
$GPGGA,162813.00,4928.05602,N,01105.04751,E,1,08,1.11,319.6,M,47.0,M,,*50
$GPRMC,162814.00,A,4928.05605,N,01105.04852,E,1.899,,260311,,,A*79
$GPVTG,,T,,M,1.899,N,3.517,K,A*2A
$GPGGA,162814.00,4928.05605,N,01105.04852,E,1,08,1.11,319.8,M,47.0,M,,*52
$GPRMC,162815.00,A,4928.05597,N,01105.04886,E,0.197,,260311,,,A*7F
$GPVTG,,T,,M,0.197,N,0.365,K,A*2C
$GPGGA,162815.00,4928.05597,N,01105.04886,E,1,08,1.11,320.0,M,47.0,M,,*50
$GPRMC,162816.00,A,4928.05580,N,01105.04844,E,1.682,90.54,260311,,,A*50
$GPVTG,90.54,T,,M,1.682,N,3.115,K,A*0E
$GPGGA,162816.00,4928.05580,N,01105.04844,E,1,08,1.11,320.1,M,47.0,M,,*5A
$GPRMC,162817.00,A,4928.05561,N,01105.04753,E,2.518,198.98,260311,,,A*6D
$GPVTG,198.98,T,,M,2.518,N,4.664,K,A*32
$GPGGA,162817.00,4928.05561,N,01105.04753,E,1,08,1.11,320.3,M,47.0,M,,*5F
$GPRMC,162818.00,A,4928.05560,N,01105.04676,E,1.715,224.28,260311,,,A*66
$GPVTG,224.28,T,,M,1.715,N,3.177,K,A*33
$GPGGA,162818.00,4928.05560,N,01105.04676,E,1,08,1.11,320.2,M,47.0,M,,*56
$GPRMC,162819.00,A,4928.05569,N,01105.04624,E,0.719,231.06,260311,,,A*6C
$GPVTG,231.06,T,,M,0.719,N,1.331,K,A*34
$GPGGA,162819.00,4928.05569,N,01105.04624,E,1,08,1.11,320.4,M,47.0,M,,*5F
$GPRMC,162820.00,A,4928.05600,N,01105.04611,E,1.685,308.08,260311,,,A*6C
$GPVTG,308.08,T,,M,1.685,N,3.120,K,A*34
$GPGGA,162820.00,4928.05600,N,01105.04611,E,1,08,1.11,320.5,M,47.0,M,,*5E
$GPRMC,162821.00,A,4928.05648,N,01105.04605,E,1.652,335.43,260311,,,A*6F
$GPVTG,335.43,T,,M,1.652,N,3.060,K,A*3A
$GPGGA,162821.00,4928.05648,N,01105.04605,E,1,08,1.11,320.6,M,47.0,M,,*55
$GPRMC,162822.00,A,4928.05685,N,01105.04589,E,1.046,333.66,260311,,,A*68
$GPVTG,333.66,T,,M,1.046,N,1.938,K,A*3E
$GPGGA,162822.00,4928.05685,N,01105.04589,E,1,08,1.11,320.6,M,47.0,M,,*50
$GPRMC,162823.00,A,4928.05694,N,01105.04556,E,0.635,328.77,260311,,,A*62
$GPVTG,328.77,T,,M,0.635,N,1.177,K,A*34
$GPGGA,162823.00,4928.05694,N,01105.04556,E,1,08,1.11,320.7,M,47.0,M,,*52
$GPRMC,162824.00,A,4928.05693,N,01105.04500,E,1.801,309.84,260311,,,A*66
$GPVTG,309.84,T,,M,1.801,N,3.335,K,A*35
$GPGGA,162824.00,4928.05693,N,01105.04500,E,1,08,1.22,320.6,M,47.0,M,,*50
$GPRMC,162825.00,A,4928.05695,N,01105.04423,E,1.753,294.89,260311,,,A*61
$GPVTG,294.89,T,,M,1.753,N,3.247,K,A*31
$GPGGA,162825.00,4928.05695,N,01105.04423,E,1,08,1.11,320.6,M,47.0,M,,*57
$GPRMC,162826.00,A,4928.05704,N,01105.04383,E,0.846,301.08,260311,,,A*68
$GPVTG,301.08,T,,M,0.846,N,1.568,K,A*37
$GPGGA,162826.00,4928.05704,N,01105.04383,E,1,08,1.11,320.8,M,47.0,M,,*5E
$GPRMC,162827.00,A,4928.05714,N,01105.04411,E,0.892,,260311,,,A*79
$GPVTG,,T,,M,0.892,N,1.651,K,A*23
$GPGGA,162827.00,4928.05714,N,01105.04411,E,1,08,1.11,320.8,M,47.0,M,,*52
$GPRMC,162828.00,A,4928.05707,N,01105.04472,E,1.642,20.87,260311,,,A*50
$GPVTG,20.87,T,,M,1.642,N,3.040,K,A*06
$GPGGA,162828.00,4928.05707,N,01105.04472,E,1,08,1.11,320.7,M,47.0,M,,*55
$GPRMC,162829.00,A,4928.05705,N,01105.04553,E,1.944,60.90,260311,,,A*5A
$GPVTG,60.90,T,,M,1.944,N,3.601,K,A*0E
$GPGGA,162829.00,4928.05705,N,01105.04553,E,1,08,1.11,320.6,M,47.0,M,,*55
$GPRMC,162830.00,A,4928.05708,N,01105.04644,E,1.988,73.68,260311,,,A*5F
$GPVTG,73.68,T,,M,1.988,N,3.681,K,A*03
$GPGGA,162830.00,4928.05708,N,01105.04644,E,1,08,1.11,320.6,M,47.0,M,,*55
$GPRMC,162831.00,A,4928.05710,N,01105.04738,E,2.010,74.97,260311,,,A*51
$GPVTG,74.97,T,,M,2.010,N,3.723,K,A*06
$GPGGA,162831.00,4928.05710,N,01105.04738,E,1,08,1.11,320.5,M,47.0,M,,*54
$GPRMC,162832.00,A,4928.05718,N,01105.04816,E,1.421,76.24,260311,,,A*56
$GPVTG,76.24,T,,M,1.421,N,2.631,K,A*0A
$GPGGA,162832.00,4928.05718,N,01105.04816,E,1,08,1.11,320.5,M,47.0,M,,*5C
$GPRMC,162833.00,A,4928.05714,N,01105.04819,E,1.397,80.48,260311,,,A*5D
$GPVTG,80.48,T,,M,1.397,N,2.587,K,A*0D
$GPGGA,162833.00,4928.05714,N,01105.04819,E,1,08,1.11,320.5,M,47.0,M,,*5E
$GPRMC,162834.00,A,4928.05706,N,01105.04785,E,0.396,,260311,,,A*79
$GPVTG,,T,,M,0.396,N,0.733,K,A*28
$GPGGA,162834.00,4928.05706,N,01105.04785,E,1,08,1.11,320.6,M,47.0,M,,*53
$GPRMC,162835.00,A,4928.05734,N,01105.04774,E,1.530,75.64,260311,,,A*52
$GPVTG,75.64,T,,M,1.530,N,2.833,K,A*00
$GPGGA,162835.00,4928.05734,N,01105.04774,E,1,08,1.22,320.7,M,47.0,M,,*5C
$GPRMC,162836.00,A,4928.05766,N,01105.04736,E,1.570,30.90,260311,,,A*5E
$GPVTG,30.90,T,,M,1.570,N,2.907,K,A*08
$GPGGA,162836.00,4928.05766,N,01105.04736,E,1,08,1.11,320.8,M,47.0,M,,*51
$GPRMC,162837.00,A,4928.05786,N,01105.04665,E,1.840,8.97,260311,,,A*64
$GPVTG,8.97,T,,M,1.840,N,3.408,K,A*39
$GPGGA,162837.00,4928.05786,N,01105.04665,E,1,08,1.11,320.8,M,47.0,M,,*59
$GPRMC,162838.00,A,4928.05803,N,01105.04583,E,1.878,338.45,260311,,,A*66
$GPVTG,338.45,T,,M,1.878,N,3.478,K,A*3A
$GPGGA,162838.00,4928.05803,N,01105.04583,E,1,08,1.11,320.9,M,47.0,M,,*5E
$GPRMC,162839.00,A,4928.05822,N,01105.04503,E,1.906,325.56,260311,,,A*6A
$GPVTG,325.56,T,,M,1.906,N,3.530,K,A*31
$GPGGA,162839.00,4928.05822,N,01105.04503,E,1,08,1.11,320.9,M,47.0,M,,*54
$GPRMC,162840.00,A,4928.05851,N,01105.04437,E,1.732,323.72,260311,,,A*6F
$GPVTG,323.72,T,,M,1.732,N,3.208,K,A*34
$GPGGA,162840.00,4928.05851,N,01105.04437,E,1,08,1.11,320.9,M,47.0,M,,*58
$GPRMC,162841.00,A,4928.05878,N,01105.04421,E,0.501,329.14,260311,,,A*6B
$GPVTG,329.14,T,,M,0.501,N,0.928,K,A*37
$GPGGA,162841.00,4928.05878,N,01105.04421,E,1,08,1.11,320.9,M,47.0,M,,*55
$GPRMC,162842.00,A,4928.05909,N,01105.04461,E,1.446,343.95,260311,,,A*6D
$GPVTG,343.95,T,,M,1.446,N,2.678,K,A*39
$GPGGA,162842.00,4928.05909,N,01105.04461,E,1,08,1.11,320.7,M,47.0,M,,*5B
$GPRMC,162843.00,A,4928.05937,N,01105.04516,E,1.800,357.70,260311,,,A*60
$GPVTG,357.70,T,,M,1.800,N,3.333,K,A*32
$GPGGA,162843.00,4928.05937,N,01105.04516,E,1,08,1.11,320.8,M,47.0,M,,*59
$GPRMC,162844.00,A,4928.05968,N,01105.04590,E,1.857,9.67,260311,,,A*6F
$GPVTG,9.67,T,,M,1.857,N,3.439,K,A*33
$GPGGA,162844.00,4928.05968,N,01105.04590,E,1,08,1.11,320.9,M,47.0,M,,*5B
$GPRMC,162845.00,A,4928.05995,N,01105.04653,E,1.694,17.69,260311,,,A*50
$GPVTG,17.69,T,,M,1.694,N,3.138,K,A*07
$GPGGA,162845.00,4928.05995,N,01105.04653,E,1,08,1.11,321.0,M,47.0,M,,*5C
$GPRMC,162846.00,A,4928.06023,N,01105.04718,E,1.577,20.98,260311,,,A*5E
$GPVTG,20.98,T,,M,1.577,N,2.921,K,A*02
$GPGGA,162846.00,4928.06023,N,01105.04718,E,1,08,1.11,321.0,M,47.0,M,,*56
$GPRMC,162847.00,A,4928.06028,N,01105.04772,E,0.838,,260311,,,A*72
$GPVTG,,T,,M,0.838,N,1.551,K,A*20
$GPGGA,162847.00,4928.06028,N,01105.04772,E,1,08,1.11,320.9,M,47.0,M,,*58
$GPRMC,162848.00,A,4928.06023,N,01105.04763,E,1.131,13.09,260311,,,A*52
$GPVTG,13.09,T,,M,1.131,N,2.094,K,A*0B
$GPGGA,162848.00,4928.06023,N,01105.04763,E,1,08,1.11,320.9,M,47.0,M,,*5C
$GPRMC,162849.00,A,4928.06003,N,01105.04707,E,1.511,351.75,260311,,,A*6B
$GPVTG,351.75,T,,M,1.511,N,2.799,K,A*39
$GPGGA,162849.00,4928.06003,N,01105.04707,E,1,08,1.11,320.9,M,47.0,M,,*5D
$GPRMC,162850.00,A,4928.05971,N,01105.04658,E,1.179,285.81,260311,,,A*6E
$GPVTG,285.81,T,,M,1.179,N,2.183,K,A*3D
$GPGGA,162850.00,4928.05971,N,01105.04658,E,1,08,1.11,320.7,M,47.0,M,,*5F
$GPRMC,162851.00,A,4928.05948,N,01105.04640,E,0.874,271.52,260311,,,A*6C
$GPVTG,271.52,T,,M,0.874,N,1.619,K,A*3A
$GPGGA,162851.00,4928.05948,N,01105.04640,E,1,08,1.11,320.7,M,47.0,M,,*5D
$GPRMC,162852.00,A,4928.05910,N,01105.04639,E,1.501,212.00,260311,,,A*60
$GPVTG,212.00,T,,M,1.501,N,2.780,K,A*34
$GPGGA,162852.00,4928.05910,N,01105.04639,E,1,08,1.11,320.6,M,47.0,M,,*5C
$GPRMC,162853.00,A,4928.05863,N,01105.04638,E,1.564,197.41,260311,,,A*6D
$GPVTG,197.41,T,,M,1.564,N,2.896,K,A*34
$GPGGA,162853.00,4928.05863,N,01105.04638,E,1,08,1.11,320.6,M,47.0,M,,*59
$GPRMC,162854.00,A,4928.05835,N,01105.04620,E,0.848,201.83,260311,,,A*60
$GPVTG,201.83,T,,M,0.848,N,1.570,K,A*32
$GPGGA,162854.00,4928.05835,N,01105.04620,E,1,08,1.11,320.6,M,47.0,M,,*54
$GPRMC,162855.00,A,4928.05841,N,01105.04610,E,0.939,224.03,260311,,,A*69
$GPVTG,224.03,T,,M,0.939,N,1.739,K,A*35
$GPGGA,162855.00,4928.05841,N,01105.04610,E,1,08,1.11,320.5,M,47.0,M,,*56
$GPRMC,162856.00,A,4928.05874,N,01105.04615,E,1.347,290.84,260311,,,A*6B
$GPVTG,290.84,T,,M,1.347,N,2.494,K,A*30
$GPGGA,162856.00,4928.05874,N,01105.04615,E,1,08,1.11,320.5,M,47.0,M,,*56
$GPRMC,162857.00,A,4928.05914,N,01105.04610,E,1.402,321.56,260311,,,A*6A
$GPVTG,321.56,T,,M,1.402,N,2.596,K,A*31
$GPGGA,162857.00,4928.05914,N,01105.04610,E,1,08,1.11,320.5,M,47.0,M,,*55
$GPRMC,162858.00,A,4928.05946,N,01105.04622,E,1.063,326.76,260311,,,A*65
$GPVTG,326.76,T,,M,1.063,N,1.968,K,A*39
$GPGGA,162858.00,4928.05946,N,01105.04622,E,1,08,1.11,320.6,M,47.0,M,,*5F
$GPRMC,162859.00,A,4928.05963,N,01105.04657,E,0.995,333.27,260311,,,A*60
$GPVTG,333.27,T,,M,0.995,N,1.842,K,A*31
$GPGGA,162859.00,4928.05963,N,01105.04657,E,1,08,1.11,320.7,M,47.0,M,,*5A
$GPRMC,162900.00,A,4928.05986,N,01105.04674,E,0.989,338.49,260311,,,A*69
$GPVTG,338.49,T,,M,0.989,N,1.831,K,A*3B
$GPGGA,162900.00,4928.05986,N,01105.04674,E,1,08,1.11,320.6,M,47.0,M,,*5C
$GPRMC,162901.00,A,4928.06031,N,01105.04673,E,2.134,355.63,260311,,,A*66
$GPVTG,355.63,T,,M,2.134,N,3.952,K,A*32
$GPGGA,162901.00,4928.06031,N,01105.04673,E,1,08,1.11,320.6,M,47.0,M,,*5C
$GPRMC,162902.00,A,4928.06082,N,01105.04677,E,1.340,359.07,260311,,,A*65
$GPVTG,359.07,T,,M,1.340,N,2.482,K,A*3F
$GPGGA,162902.00,4928.06082,N,01105.04677,E,1,08,1.11,320.7,M,47.0,M,,*52
$GPRMC,162903.00,A,4928.06120,N,01105.04682,E,1.297,359.93,260311,,,A*61
$GPVTG,359.93,T,,M,1.297,N,2.402,K,A*31
$GPGGA,162903.00,4928.06120,N,01105.04682,E,1,08,1.11,320.7,M,47.0,M,,*50
$GPRMC,162904.00,A,4928.06150,N,01105.04684,E,1.108,357.98,260311,,,A*67
$GPVTG,357.98,T,,M,1.108,N,2.052,K,A*30
$GPGGA,162904.00,4928.06150,N,01105.04684,E,1,08,1.11,320.7,M,47.0,M,,*56
$GPRMC,162905.00,A,4928.06153,N,01105.04689,E,1.043,12.74,260311,,,A*56
$GPVTG,12.74,T,,M,1.043,N,1.932,K,A*02
$GPGGA,162905.00,4928.06153,N,01105.04689,E,1,08,1.11,320.8,M,47.0,M,,*56
$GPRMC,162906.00,A,4928.06115,N,01105.04695,E,1.233,43.19,260311,,,A*50
$GPVTG,43.19,T,,M,1.233,N,2.283,K,A*0A
$GPGGA,162906.00,4928.06115,N,01105.04695,E,1,08,1.11,320.9,M,47.0,M,,*5B
$GPRMC,162907.00,A,4928.06071,N,01105.04684,E,1.452,82.27,260311,,,A*53
$GPVTG,82.27,T,,M,1.452,N,2.689,K,A*05
$GPGGA,162907.00,4928.06071,N,01105.04684,E,1,08,1.11,321.0,M,47.0,M,,*51
$GPRMC,162908.00,A,4928.06044,N,01105.04669,E,0.727,105.13,260311,,,A*60
$GPVTG,105.13,T,,M,0.727,N,1.346,K,A*39
$GPGGA,162908.00,4928.06044,N,01105.04669,E,1,08,1.11,320.9,M,47.0,M,,*53
$GPRMC,162909.00,A,4928.06023,N,01105.04655,E,0.920,108.79,260311,,,A*67
$GPVTG,108.79,T,,M,0.920,N,1.703,K,A*34
$GPGGA,162909.00,4928.06023,N,01105.04655,E,1,08,1.11,320.9,M,47.0,M,,*5C
$GPRMC,162910.00,A,4928.06008,N,01105.04653,E,0.318,110.27,260311,,,A*63
$GPVTG,110.27,T,,M,0.318,N,0.589,K,A*36
$GPGGA,162910.00,4928.06008,N,01105.04653,E,1,08,1.11,320.9,M,47.0,M,,*5B
$GPRMC,162911.00,A,4928.06002,N,01105.04627,E,0.829,132.50,260311,,,A*62
$GPVTG,132.50,T,,M,0.829,N,1.535,K,A*39
$GPGGA,162911.00,4928.06002,N,01105.04627,E,1,08,1.11,320.9,M,47.0,M,,*53
$GPRMC,162912.00,A,4928.06002,N,01105.04576,E,1.425,177.25,260311,,,A*64
$GPVTG,177.25,T,,M,1.425,N,2.639,K,A*37
$GPGGA,162912.00,4928.06002,N,01105.04576,E,1,08,1.11,320.9,M,47.0,M,,*57
$GPRMC,162913.00,A,4928.06005,N,01105.04504,E,1.631,206.37,260311,,,A*66
$GPVTG,206.37,T,,M,1.631,N,3.021,K,A*38
$GPGGA,162913.00,4928.06005,N,01105.04504,E,1,08,1.11,320.9,M,47.0,M,,*54
$GPRMC,162914.00,A,4928.06005,N,01105.04434,E,1.462,220.81,260311,,,A*6E
$GPVTG,220.81,T,,M,1.462,N,2.708,K,A*38
$GPGGA,162914.00,4928.06005,N,01105.04434,E,1,08,1.11,321.0,M,47.0,M,,*59
$GPRMC,162915.00,A,4928.06013,N,01105.04400,E,0.558,,260311,,,A*71
$GPVTG,,T,,M,0.558,N,1.034,K,A*2D
$GPGGA,162915.00,4928.06013,N,01105.04400,E,1,08,1.11,321.1,M,47.0,M,,*59
$GPRMC,162916.00,A,4928.06021,N,01105.04417,E,0.819,,260311,,,A*7D
$GPVTG,,T,,M,0.819,N,1.518,K,A*2E
$GPGGA,162916.00,4928.06021,N,01105.04417,E,1,08,1.11,320.8,M,47.0,M,,*55
$GPRMC,162917.00,A,4928.06020,N,01105.04466,E,1.412,155.26,260311,,,A*66
$GPVTG,155.26,T,,M,1.412,N,2.616,K,A*3D
$GPGGA,162917.00,4928.06020,N,01105.04466,E,1,08,1.11,320.7,M,47.0,M,,*5C
$GPRMC,162918.00,A,4928.06025,N,01105.04539,E,1.538,143.43,260311,,,A*6A
$GPVTG,143.43,T,,M,1.538,N,2.849,K,A*34
$GPGGA,162918.00,4928.06025,N,01105.04539,E,1,08,1.11,320.6,M,47.0,M,,*5C
$GPRMC,162919.00,A,4928.06027,N,01105.04606,E,1.490,116.86,260311,,,A*6C
$GPVTG,116.86,T,,M,1.490,N,2.760,K,A*3A
$GPGGA,162919.00,4928.06027,N,01105.04606,E,1,08,1.11,320.6,M,47.0,M,,*50
$GPRMC,162920.00,A,4928.06038,N,01105.04648,E,0.634,111.57,260311,,,A*64
$GPVTG,111.57,T,,M,0.634,N,1.174,K,A*3C
$GPGGA,162920.00,4928.06038,N,01105.04648,E,1,08,1.11,320.6,M,47.0,M,,*5E
$GPRMC,162921.00,A,4928.06053,N,01105.04660,E,0.735,106.52,260311,,,A*61
$GPVTG,106.52,T,,M,0.735,N,1.361,K,A*39
$GPGGA,162921.00,4928.06053,N,01105.04660,E,1,08,1.11,320.7,M,47.0,M,,*59
$GPRMC,162922.00,A,4928.06088,N,01105.04675,E,1.572,51.39,260311,,,A*5E
$GPVTG,51.39,T,,M,1.572,N,2.911,K,A*09
$GPGGA,162922.00,4928.06088,N,01105.04675,E,1,08,1.11,320.7,M,47.0,M,,*58
$GPRMC,162923.00,A,4928.06132,N,01105.04691,E,1.301,31.22,260311,,,A*5B
$GPVTG,31.22,T,,M,1.301,N,2.409,K,A*03
$GPGGA,162923.00,4928.06132,N,01105.04691,E,1,08,1.11,320.7,M,47.0,M,,*53
$GPRMC,162924.00,A,4928.06152,N,01105.04685,E,0.773,23.96,260311,,,A*53
$GPVTG,23.96,T,,M,0.773,N,1.432,K,A*04
$GPGGA,162924.00,4928.06152,N,01105.04685,E,1,08,1.11,320.7,M,47.0,M,,*57
$GPRMC,162925.00,A,4928.06161,N,01105.04677,E,0.419,21.94,260311,,,A*50
$GPVTG,21.94,T,,M,0.419,N,0.775,K,A*0A
$GPGGA,162925.00,4928.06161,N,01105.04677,E,1,08,1.11,320.8,M,47.0,M,,*54
$GPRMC,162926.00,A,4928.06198,N,01105.04680,E,2.214,12.01,260311,,,A*58
$GPVTG,12.01,T,,M,2.214,N,4.100,K,A*0F
$GPGGA,162926.00,4928.06198,N,01105.04680,E,1,08,1.11,320.8,M,47.0,M,,*59
$GPRMC,162927.00,A,4928.06240,N,01105.04682,E,0.977,9.13,260311,,,A*68
$GPVTG,9.13,T,,M,0.977,N,1.810,K,A*37
$GPGGA,162927.00,4928.06240,N,01105.04682,E,1,08,1.11,320.8,M,47.0,M,,*5C
$GPRMC,162928.00,A,4928.06278,N,01105.04681,E,1.586,2.55,260311,,,A*65
$GPVTG,2.55,T,,M,1.586,N,2.938,K,A*35
$GPGGA,162928.00,4928.06278,N,01105.04681,E,1,08,1.11,320.7,M,47.0,M,,*54
$GPRMC,162929.00,A,4928.06327,N,01105.04683,E,1.517,0.71,260311,,,A*61
$GPVTG,0.71,T,,M,1.517,N,2.809,K,A*3A
$GPGGA,162929.00,4928.06327,N,01105.04683,E,1,08,1.11,320.7,M,47.0,M,,*5C
$GPRMC,162930.00,A,4928.06373,N,01105.04686,E,1.381,0.87,260311,,,A*6D
$GPVTG,0.87,T,,M,1.381,N,2.558,K,A*33
$GPGGA,162930.00,4928.06373,N,01105.04686,E,1,08,1.11,320.7,M,47.0,M,,*50
$GPRMC,162931.00,A,4928.06386,N,01105.04686,E,0.506,3.33,260311,,,A*62
$GPVTG,3.33,T,,M,0.506,N,0.938,K,A*3F
$GPGGA,162931.00,4928.06386,N,01105.04686,E,1,08,1.11,320.8,M,47.0,M,,*54
$GPRMC,162932.00,A,4928.06363,N,01105.04691,E,1.018,17.22,260311,,,A*52
$GPVTG,17.22,T,,M,1.018,N,1.885,K,A*07
$GPGGA,162932.00,4928.06363,N,01105.04691,E,1,08,1.11,320.8,M,47.0,M,,*5A
$GPRMC,162933.00,A,4928.06332,N,01105.04699,E,1.350,52.48,260311,,,A*5D
$GPVTG,52.48,T,,M,1.350,N,2.500,K,A*06
$GPGGA,162933.00,4928.06332,N,01105.04699,E,1,08,1.11,320.8,M,47.0,M,,*57
$GPRMC,162934.00,A,4928.06297,N,01105.04694,E,1.222,90.69,260311,,,A*50
$GPVTG,90.69,T,,M,1.222,N,2.262,K,A*0C
$GPGGA,162934.00,4928.06297,N,01105.04694,E,1,08,1.11,320.8,M,47.0,M,,*53
$GPRMC,162935.00,A,4928.06282,N,01105.04678,E,0.616,81.75,260311,,,A*58
$GPVTG,81.75,T,,M,0.616,N,1.140,K,A*03
$GPGGA,162935.00,4928.06282,N,01105.04678,E,1,08,1.11,320.8,M,47.0,M,,*54
$GPRMC,162936.00,A,4928.06280,N,01105.04663,E,0.295,85.92,260311,,,A*51
$GPVTG,85.92,T,,M,0.295,N,0.547,K,A*03
$GPGGA,162936.00,4928.06280,N,01105.04663,E,1,08,1.11,320.7,M,47.0,M,,*50
$GPRMC,162937.00,A,4928.06268,N,01105.04652,E,0.645,97.69,260311,,,A*5A
$GPVTG,97.69,T,,M,0.645,N,1.194,K,A*06
$GPGGA,162937.00,4928.06268,N,01105.04652,E,1,08,1.11,320.7,M,47.0,M,,*55
$GPRMC,162938.00,A,4928.06257,N,01105.04615,E,1.428,155.12,260311,,,A*61
$GPVTG,155.12,T,,M,1.428,N,2.645,K,A*35
$GPGGA,162938.00,4928.06257,N,01105.04615,E,1,08,1.11,320.7,M,47.0,M,,*55
$GPRMC,162939.00,A,4928.06254,N,01105.04549,E,1.602,197.20,260311,,,A*6C
$GPVTG,197.20,T,,M,1.602,N,2.967,K,A*3F
$GPGGA,162939.00,4928.06254,N,01105.04549,E,1,08,1.21,320.7,M,47.0,M,,*5E
$GPRMC,162940.00,A,4928.06245,N,01105.04478,E,1.491,219.56,260311,,,A*6D
$GPVTG,219.56,T,,M,1.491,N,2.762,K,A*38
$GPGGA,162940.00,4928.06245,N,01105.04478,E,1,08,1.11,320.7,M,47.0,M,,*50
$GPRMC,162941.00,A,4928.06241,N,01105.04417,E,1.227,230.91,260311,,,A*6A
$GPVTG,230.91,T,,M,1.227,N,2.273,K,A*36
$GPGGA,162941.00,4928.06241,N,01105.04417,E,1,08,1.11,320.8,M,47.0,M,,*53
$GPRMC,162942.00,A,4928.06251,N,01105.04404,E,0.633,234.25,260311,,,A*61
$GPVTG,234.25,T,,M,0.633,N,1.172,K,A*3C
$GPGGA,162942.00,4928.06251,N,01105.04404,E,1,08,1.11,320.7,M,47.0,M,,*5C
$GPRMC,162943.00,A,4928.06256,N,01105.04442,E,1.051,229.52,260311,,,A*6A
$GPVTG,229.52,T,,M,1.051,N,1.946,K,A*3C
$GPGGA,162943.00,4928.06256,N,01105.04442,E,1,08,1.11,320.6,M,47.0,M,,*59
$GPRMC,162944.00,A,4928.06257,N,01105.04507,E,1.604,216.71,260311,,,A*67
$GPVTG,216.71,T,,M,1.604,N,2.971,K,A*30
$GPGGA,162944.00,4928.06257,N,01105.04507,E,1,08,1.11,320.6,M,47.0,M,,*5F
$GPRMC,162945.00,A,4928.06254,N,01105.04585,E,1.753,179.89,260311,,,A*61
$GPVTG,179.89,T,,M,1.753,N,3.247,K,A*31
$GPGGA,162945.00,4928.06254,N,01105.04585,E,1,08,1.11,320.4,M,47.0,M,,*55
$GPRMC,162946.00,A,4928.06257,N,01105.04664,E,1.540,127.78,260311,,,A*68
$GPVTG,127.78,T,,M,1.540,N,2.852,K,A*3B
$GPGGA,162946.00,4928.06257,N,01105.04664,E,1,08,1.11,320.5,M,47.0,M,,*58
$GPRMC,162947.00,A,4928.06277,N,01105.04707,E,1.002,106.69,260311,,,A*6F
$GPVTG,106.69,T,,M,1.002,N,1.856,K,A*3C
$GPGGA,162947.00,4928.06277,N,01105.04707,E,1,08,1.11,320.6,M,47.0,M,,*5C
$GPRMC,162948.00,A,4928.06310,N,01105.04717,E,1.362,59.98,260311,,,A*51
$GPVTG,59.98,T,,M,1.362,N,2.522,K,A*01
$GPGGA,162948.00,4928.06310,N,01105.04717,E,1,08,1.11,320.6,M,47.0,M,,*52
$GPRMC,162949.00,A,4928.06345,N,01105.04713,E,1.043,41.01,260311,,,A*5D
$GPVTG,41.01,T,,M,1.043,N,1.931,K,A*05
$GPGGA,162949.00,4928.06345,N,01105.04713,E,1,08,1.11,320.6,M,47.0,M,,*57
$GPRMC,162950.00,A,4928.06366,N,01105.04691,E,1.131,,260311,,,A*71
$GPVTG,,T,,M,1.131,N,2.095,K,A*2F
$GPGGA,162950.00,4928.06366,N,01105.04691,E,1,08,1.11,320.5,M,47.0,M,,*56
$GPRMC,162951.00,A,4928.06381,N,01105.04644,E,1.571,33.44,260311,,,A*5F
$GPVTG,33.44,T,,M,1.571,N,2.910,K,A*05
$GPGGA,162951.00,4928.06381,N,01105.04644,E,1,08,1.11,320.4,M,47.0,M,,*57
$GPRMC,162952.00,A,4928.06395,N,01105.04585,E,1.352,24.77,260311,,,A*56
$GPVTG,24.77,T,,M,1.352,N,2.504,K,A*0D
$GPGGA,162952.00,4928.06395,N,01105.04585,E,1,08,1.11,320.3,M,47.0,M,,*58
$GPRMC,162953.00,A,4928.06400,N,01105.04528,E,1.260,17.51,260311,,,A*5F
$GPVTG,17.51,T,,M,1.260,N,2.334,K,A*0C
$GPGGA,162953.00,4928.06400,N,01105.04528,E,1,08,1.11,320.2,M,47.0,M,,*54
$GPRMC,162954.00,A,4928.06402,N,01105.04473,E,1.152,11.69,260311,,,A*5A
$GPVTG,11.69,T,,M,1.152,N,2.134,K,A*01
$GPGGA,162954.00,4928.06402,N,01105.04473,E,1,08,1.11,320.3,M,47.0,M,,*5F
$GPRMC,162955.00,A,4928.06420,N,01105.04428,E,1.312,351.32,260311,,,A*6A
$GPVTG,351.32,T,,M,1.312,N,2.429,K,A*37
$GPGGA,162955.00,4928.06420,N,01105.04428,E,1,08,1.11,319.9,M,47.0,M,,*50
$GPRMC,162956.00,A,4928.06440,N,01105.04383,E,1.184,343.96,260311,,,A*69
$GPVTG,343.96,T,,M,1.184,N,2.193,K,A*33
$GPGGA,162956.00,4928.06440,N,01105.04383,E,1,08,1.11,319.8,M,47.0,M,,*52
$GPRMC,162957.00,A,4928.06473,N,01105.04362,E,1.228,340.95,260311,,,A*62
$GPVTG,340.95,T,,M,1.228,N,2.274,K,A*3C
$GPGGA,162957.00,4928.06473,N,01105.04362,E,1,08,1.11,319.7,M,47.0,M,,*53
$GPRMC,162958.00,A,4928.06509,N,01105.04357,E,1.160,346.04,260311,,,A*66
$GPVTG,346.04,T,,M,1.160,N,2.149,K,A*30
$GPGGA,162958.00,4928.06509,N,01105.04357,E,1,08,1.11,319.7,M,47.0,M,,*56
$GPRMC,162959.00,A,4928.06545,N,01105.04358,E,1.305,350.21,260311,,,A*61
$GPVTG,350.21,T,,M,1.305,N,2.418,K,A*30
$GPGGA,162959.00,4928.06545,N,01105.04358,E,1,08,1.11,319.6,M,47.0,M,,*51
$GPRMC,163000.00,A,4928.06576,N,01105.04386,E,1.172,352.74,260311,,,A*66
$GPVTG,352.74,T,,M,1.172,N,2.171,K,A*3A
$GPGGA,163000.00,4928.06576,N,01105.04386,E,1,08,1.11,319.6,M,47.0,M,,*56
$GPRMC,163001.00,A,4928.06588,N,01105.04428,E,1.292,356.68,260311,,,A*61
$GPVTG,356.68,T,,M,1.292,N,2.393,K,A*30
$GPGGA,163001.00,4928.06588,N,01105.04428,E,1,08,1.11,319.6,M,47.0,M,,*55
$GPRMC,163002.00,A,4928.06593,N,01105.04489,E,1.262,1.32,260311,,,A*62
$GPVTG,1.32,T,,M,1.262,N,2.336,K,A*3E
$GPGGA,163002.00,4928.06593,N,01105.04489,E,1,08,1.11,319.6,M,47.0,M,,*57
$GPRMC,163003.00,A,4928.06584,N,01105.04546,E,1.294,16.45,260311,,,A*58
$GPVTG,16.45,T,,M,1.294,N,2.396,K,A*0B
$GPGGA,163003.00,4928.06584,N,01105.04546,E,1,08,1.10,319.4,M,47.0,M,,*51
$GPRMC,163004.00,A,4928.06582,N,01105.04605,E,1.298,31.12,260311,,,A*56
$GPVTG,31.12,T,,M,1.298,N,2.404,K,A*0C
$GPGGA,163004.00,4928.06582,N,01105.04605,E,1,08,1.10,319.3,M,47.0,M,,*53
$GPRMC,163005.00,A,4928.06579,N,01105.04664,E,1.178,52.03,260311,,,A*5C
$GPVTG,52.03,T,,M,1.178,N,2.182,K,A*0F
$GPGGA,163005.00,4928.06579,N,01105.04664,E,1,08,1.10,319.4,M,47.0,M,,*56
$GPRMC,163006.00,A,4928.06561,N,01105.04719,E,1.155,77.86,260311,,,A*58
$GPVTG,77.86,T,,M,1.155,N,2.140,K,A*04
$GPGGA,163006.00,4928.06561,N,01105.04719,E,1,08,1.10,319.6,M,47.0,M,,*55
$GPRMC,163007.00,A,4928.06536,N,01105.04760,E,1.180,104.24,260311,,,A*60
$GPVTG,104.24,T,,M,1.180,N,2.185,K,A*38
$GPGGA,163007.00,4928.06536,N,01105.04760,E,1,08,1.10,319.8,M,47.0,M,,*56
$GPRMC,163008.00,A,4928.06503,N,01105.04774,E,1.170,114.54,260311,,,A*65
$GPVTG,114.54,T,,M,1.170,N,2.166,K,A*3C
$GPGGA,163008.00,4928.06503,N,01105.04774,E,1,08,1.10,319.8,M,47.0,M,,*5A
$GPRMC,163009.00,A,4928.06470,N,01105.04772,E,1.197,127.85,260311,,,A*62
$GPVTG,127.85,T,,M,1.197,N,2.216,K,A*3D
$GPGGA,163009.00,4928.06470,N,01105.04772,E,1,08,1.10,319.8,M,47.0,M,,*58
$GPRMC,163010.00,A,4928.06437,N,01105.04758,E,1.216,134.32,260311,,,A*65
$GPVTG,134.32,T,,M,1.216,N,2.252,K,A*39
$GPGGA,163010.00,4928.06437,N,01105.04758,E,1,08,1.10,319.8,M,47.0,M,,*5B
$GPRMC,163011.00,A,4928.06415,N,01105.04721,E,1.258,142.77,260311,,,A*60
$GPVTG,142.77,T,,M,1.258,N,2.331,K,A*37
$GPGGA,163011.00,4928.06415,N,01105.04721,E,1,08,1.10,319.7,M,47.0,M,,*5B
$GPRMC,163012.00,A,4928.06401,N,01105.04669,E,1.244,152.95,260311,,,A*6B
$GPVTG,152.95,T,,M,1.244,N,2.305,K,A*30
$GPGGA,163012.00,4928.06401,N,01105.04669,E,1,08,1.10,319.6,M,47.0,M,,*51
$GPRMC,163013.00,A,4928.06394,N,01105.04613,E,1.238,160.33,260311,,,A*6A
$GPVTG,160.33,T,,M,1.238,N,2.292,K,A*39
$GPGGA,163013.00,4928.06394,N,01105.04613,E,1,08,1.10,319.5,M,47.0,M,,*55
$GPRMC,163014.00,A,4928.06389,N,01105.04558,E,1.292,167.73,260311,,,A*6E
$GPVTG,167.73,T,,M,1.292,N,2.393,K,A*3A
$GPGGA,163014.00,4928.06389,N,01105.04558,E,1,08,1.10,319.5,M,47.0,M,,*52
$GPRMC,163015.00,A,4928.06385,N,01105.04498,E,1.229,202.35,260311,,,A*6C
$GPVTG,202.35,T,,M,1.229,N,2.277,K,A*33
$GPGGA,163015.00,4928.06385,N,01105.04498,E,1,08,1.10,319.6,M,47.0,M,,*51
$GPRMC,163016.00,A,4928.06383,N,01105.04457,E,0.780,207.20,260311,,,A*6C
$GPVTG,207.20,T,,M,0.780,N,1.445,K,A*31
$GPGGA,163016.00,4928.06383,N,01105.04457,E,1,08,1.10,319.6,M,47.0,M,,*57
