$GPRMC,091539.00,A,4927.91632,N,01104.72770,E,0.387,,270311,,,A*7B
$GPVTG,,T,,M,0.387,N,0.717,K,A*2E
$GPGGA,091539.00,4927.91632,N,01104.72770,E,1,07,1.58,319.0,M,47.0,M,,*5E
$G
$GPRMC,091541.00,A,4927.91714,N,01104.72827,E,1.246,,270311,,,A*71
$GPVTG,,T,,M,1.246,N,2.307,K,A*24
$GPGGA,091541.00,4927.91714,N,01104.72827,E,1,07,1.58,319.1,M,47.0,M,,*58
$GPRMC,091542.00,A,4927.91779,N,01104.72882,E,1.090,,270311,,,A*7F
$GPVTG,,T,,M,1.090,N,2.018,K,A*20
$GPGGA,091542.00,4927.91779,N,01104.72882,E,1,07,1.58,319.1,M,47.0,M,,*5F
$GPRMC,091543.00,A,4927.91750,N,01104.72819,E,0.775,,270311,,,A*7A
$GPVTG,,T,,M,0.775,N,1.435,K,A*25
$GPGGA,091543.00,4927.91750,N,01104.72819,E,1,07,1.58,319.2,M,47.0,M,,*54
$GPRMC,091544.00,A,4927.91761,N,01104.72819,E,0.286,,270311,,,A*76
$GPVTG,,T,,M,0.286,N,0.530,K,A*29
$GPGGA,091544.00,4927.91761,N,01104.72819,E,1,06,2.19,319.2,M,47.0,M,,*56
$GPRMC,091545.00,A,4927.91777,N,01104.72826,E,0.096,,270311,,,A*7F
$GPVTG,,T,,M,0.096,N,0.177,K,A*2D
$GPGGA,091545.00,4927.91777,N,01104.72826,E,1,06,2.19,319.3,M,47.0,M,,*5D
$GPRMC,091546.00,A,4927.91809,N,01104.72821,E,0.826,,270311,,,A*7E
$GPVTG,,T,,M,0.826,N,1.529,K,A*20
$GPGGA,091546.00,4927.91809,N,01104.72821,E,1,07,2.19,319.3,M,47.0,M,,*5E
$GPRMC,091547.00,A,4927.91813,N,01104.72741,E,1.255,,270311,,,A*72
$GPVTG,,T,,M,1.255,N,2.324,K,A*27
$GPGGA,091547.00,4927.91813,N,01104.72741,E,1,07,2.19,319.3,M,47.0,M,,*5D
$GPRMC,091548.00,A,4927.91953,N,01104.72790,E,2.741,,270311,,,A*77
$GPVTG,,T,,M,2.741,N,5.076,K,A*27
$GPGGA,091548.00,4927.91953,N,01104.72790,E,1,07,1.58,319.4,M,47.0,M,,*5A
$GPRMC,091549.00,A,4927.92007,N,01104.72609,E,5.106,,270311,,,A*7E
$GPVTG,,T,,M,5.106,N,9.456,K,A*2F
$GPGGA,091549.00,4927.92007,N,01104.72609,E,1,07,1.58,319.5,M,47.0,M,,*50
$GPRMC,091550.00,A,4927.92106,N,01104.72478,E,5.579,321.76,270311,,,A*61
$GPVTG,321.76,T,,M,5.579,N,10.333,K,A*00
$GPGGA,091550.00,4927.92106,N,01104.72478,E,1,07,1.58,319.7,M,47.0,M,,*5E
$GPRMC,091551.00,A,4927.92203,N,01104.72387,E,5.802,311.80,270311,,,A*6A
$GPVTG,311.80,T,,M,5.802,N,10.746,K,A*0D
$GPGGA,091551.00,4927.92203,N,01104.72387,E,1,07,1.58,319.8,M,47.0,M,,*51
$GPRMC,091552.00,A,4927.92200,N,01104.72170,E,5.141,305.20,270311,,,A*61
$GPVTG,305.20,T,,M,5.141,N,9.521,K,A*37
$GPGGA,091552.00,4927.92200,N,01104.72170,E,1,07,1.58,319.8,M,47.0,M,,*5B
$GPRMC,091553.00,A,4927.92197,N,01104.71967,E,4.252,,270311,,,A*7A
$GPVTG,,T,,M,4.252,N,7.875,K,A*2F
$GPGGA,091553.00,4927.92197,N,01104.71967,E,1,07,1.57,319.8,M,47.0,M,,*55
$GPRMC,091554.00,A,4927.92166,N,01104.71771,E,4.046,,270311,,,A*7D
$GPVTG,,T,,M,4.046,N,7.493,K,A*2C
$GPGGA,091554.00,4927.92166,N,01104.71771,E,1,07,1.57,319.8,M,47.0,M,,*55
$GPRMC,091555.00,A,4927.92093,N,01104.71465,E,4.625,294.73,270311,,,A*67
$GPVTG,294.73,T,,M,4.625,N,8.565,K,A*3D
$GPGGA,091555.00,4927.92093,N,01104.71465,E,1,07,1.57,320.0,M,47.0,M,,*5B
$GPRMC,091556.00,A,4927.92007,N,01104.71279,E,5.196,280.28,270311,,,A*67
$GPVTG,280.28,T,,M,5.196,N,9.623,K,A*38
$GPGGA,091556.00,4927.92007,N,01104.71279,E,1,07,1.57,320.2,M,47.0,M,,*5C
$GPRMC,091557.00,A,4927.91873,N,01104.70982,E,5.560,259.42,270311,,,A*65
$GPVTG,259.42,T,,M,5.560,N,10.297,K,A*0E
$GPGGA,091557.00,4927.91873,N,01104.70982,E,1,07,1.57,320.5,M,47.0,M,,*5C
$GPRMC,091558.00,A,4927.91759,N,01104.70874,E,4.749,250.69,270311,,,A*6D
$GPVTG,250.69,T,,M,4.749,N,8.794,K,A*39
$GPGGA,091558.00,4927.91759,N,01104.70874,E,1,07,1.57,320.7,M,47.0,M,,*5E
$GPRMC,091559.00,A,4927.91654,N,01104.70770,E,4.220,246.51,270311,,,A*6D
$GPVTG,246.51,T,,M,4.220,N,7.815,K,A*36
$GPGGA,091559.00,4927.91654,N,01104.70770,E,1,07,1.57,320.7,M,47.0,M,,*58
$GPRMC,091600.00,A,4927.91563,N,01104.70568,E,5.385,245.67,270311,,,A*67
$GPVTG,245.67,T,,M,5.385,N,9.973,K,A*30
$GPGGA,091600.00,4927.91563,N,01104.70568,E,1,07,1.57,320.7,M,47.0,M,,*5B
$GPRMC,091601.00,A,4927.91524,N,01104.70194,E,8.698,251.99,270311,,,A*62
$GPVTG,251.99,T,,M,8.698,N,16.109,K,A*0B
$GPGGA,091601.00,4927.91524,N,01104.70194,E,1,07,1.57,320.7,M,47.0,M,,*5E
$GPRMC,091602.00,A,4927.91501,N,01104.69755,E,10.675,257.47,270311,,,A*5A
$GPVTG,257.47,T,,M,10.675,N,19.770,K,A*33
$GPGGA,091602.00,4927.91501,N,01104.69755,E,1,07,1.57,320.7,M,47.0,M,,*59
$GPRMC,091603.00,A,4927.91574,N,01104.69231,E,14.345,265.00,270311,,,A*5E
$GPVTG,265.00,T,,M,14.345,N,26.567,K,A*3B
$GPGGA,091603.00,4927.91574,N,01104.69231,E,1,07,1.57,320.8,M,47.0,M,,*52
$GPRMC,091604.00,A,4927.91611,N,01104.68620,E,15.487,266.80,270311,,,A*5F
$GPVTG,266.80,T,,M,15.487,N,28.682,K,A*3E
$GPGGA,091604.00,4927.91611,N,01104.68620,E,1,07,1.57,320.8,M,47.0,M,,*50
$GPRMC,091605.00,A,4927.91596,N,01104.67996,E,15.296,266.12,270311,,,A*52
$GPVTG,266.12,T,,M,15.296,N,28.328,K,A*36
$GPGGA,091605.00,4927.91596,N,01104.67996,E,1,07,1.57,320.9,M,47.0,M,,*51
$GPRMC,091606.00,A,4927.91560,N,01104.67382,E,14.692,264.91,270311,,,A*5F
$GPVTG,264.91,T,,M,14.692,N,27.210,K,A*3B
$GPGGA,091606.00,4927.91560,N,01104.67382,E,1,07,1.57,320.9,M,47.0,M,,*54
$GPRMC,091607.00,A,4927.91570,N,01104.66678,E,16.659,267.46,270311,,,A*52
$GPVTG,267.46,T,,M,16.659,N,30.852,K,A*3D
$GPGGA,091607.00,4927.91570,N,01104.66678,E,1,07,1.57,321.0,M,47.0,M,,*5D
$GPRMC,091608.00,A,4927.91587,N,01104.65955,E,17.094,270.01,270311,,,A*55
$GPVTG,270.01,T,,M,17.094,N,31.657,K,A*34
$GPGGA,091608.00,4927.91587,N,01104.65955,E,1,07,1.57,321.0,M,47.0,M,,*59
$GPRMC,091609.00,A,4927.91620,N,01104.65246,E,16.476,271.58,270311,,,A*57
$GPVTG,271.58,T,,M,16.476,N,30.514,K,A*35
$GPGGA,091609.00,4927.91620,N,01104.65246,E,1,07,1.57,321.0,M,47.0,M,,*5F
$GPRMC,091610.00,A,4927.91622,N,01104.64558,E,16.412,270.75,270311,,,A*58
$GPVTG,270.75,T,,M,16.412,N,30.394,K,A*37
$GPGGA,091610.00,4927.91622,N,01104.64558,E,1,07,1.57,321.1,M,47.0,M,,*5D
$GPRMC,091611.00,A,4927.91597,N,01104.63836,E,16.780,268.94,270311,,,A*58
$GPVTG,268.94,T,,M,16.780,N,31.076,K,A*37
$GPGGA,091611.00,4927.91597,N,01104.63836,E,1,07,1.57,321.1,M,47.0,M,,*53
$GPRMC,091612.00,A,4927.91581,N,01104.63118,E,17.010,267.90,270311,,,A*5D
$GPVTG,267.90,T,,M,17.010,N,31.502,K,A*35
$GPGGA,091612.00,4927.91581,N,01104.63118,E,1,07,1.57,321.1,M,47.0,M,,*52
$GPRMC,091613.00,A,4927.91599,N,01104.62359,E,18.156,268.56,270311,,,A*5A
$GPVTG,268.56,T,,M,18.156,N,33.625,K,A*38
$GPGGA,091613.00,4927.91599,N,01104.62359,E,1,07,1.57,321.2,M,47.0,M,,*5F
$GPRMC,091614.00,A,4927.91583,N,01104.61601,E,17.702,267.58,270311,,,A*54
$GPVTG,267.58,T,,M,17.702,N,32.784,K,A*3A
$GPGGA,091614.00,4927.91583,N,01104.61601,E,1,07,1.57,321.2,M,47.0,M,,*58
$GPRMC,091615.00,A,4927.91586,N,01104.60837,E,17.723,267.98,270311,,,A*55
$GPVTG,267.98,T,,M,17.723,N,32.823,K,A*37
$GPGGA,091615.00,4927.91586,N,01104.60837,E,1,06,1.98,321.2,M,47.0,M,,*54
$GPRMC,091616.00,A,4927.91572,N,01104.60078,E,17.184,267.33,270311,,,A*54
$GPVTG,267.33,T,,M,17.184,N,31.825,K,A*38
$GPGGA,091616.00,4927.91572,N,01104.60078,E,1,06,1.98,321.2,M,47.0,M,,*5F
$GPRMC,091617.00,A,4927.91569,N,01104.59324,E,17.089,268.01,270311,,,A*5D
$GPVTG,268.01,T,,M,17.089,N,31.650,K,A*36
$GPGGA,091617.00,4927.91569,N,01104.59324,E,1,06,1.97,321.2,M,47.0,M,,*5B
$GPRMC,091618.00,A,4927.91572,N,01104.58577,E,17.124,268.67,270311,,,A*5F
$GPVTG,268.67,T,,M,17.124,N,31.714,K,A*31
$GPGGA,091618.00,4927.91572,N,01104.58577,E,1,06,1.97,321.1,M,47.0,M,,*5C
$GPRMC,091619.00,A,4927.91577,N,01104.57820,E,17.321,269.08,270311,,,A*54
$GPVTG,269.08,T,,M,17.321,N,32.079,K,A*31
$GPGGA,091619.00,4927.91577,N,01104.57820,E,1,06,1.97,321.1,M,47.0,M,,*58
$GPRMC,091620.00,A,4927.91591,N,01104.57139,E,16.128,269.43,270311,,,A*52
$GPVTG,269.43,T,,M,16.128,N,29.869,K,A*37
$GPGGA,091620.00,4927.91591,N,01104.57139,E,1,06,1.97,321.1,M,47.0,M,,*5B
$GPRMC,091621.00,A,4927.91586,N,01104.56454,E,16.233,268.85,270311,,,A*58
$GPVTG,268.85,T,,M,16.233,N,30.064,K,A*38
$GPGGA,091621.00,4927.91586,N,01104.56454,E,1,06,1.97,321.1,M,47.0,M,,*53
$GPRMC,091622.00,A,4927.91569,N,01104.55744,E,17.345,267.82,270311,,,A*52
$GPVTG,267.82,T,,M,17.345,N,32.122,K,A*30
$GPGGA,091622.00,4927.91569,N,01104.55744,E,1,06,1.97,321.1,M,47.0,M,,*50
$GPRMC,091623.00,A,4927.91525,N,01104.55016,E,17.168,266.56,270311,,,A*5E
$GPVTG,266.56,T,,M,17.168,N,31.795,K,A*3C
$GPGGA,091623.00,4927.91525,N,01104.55016,E,1,06,1.97,321.1,M,47.0,M,,*59
$GPRMC,091624.00,A,4927.91488,N,01104.54245,E,17.682,265.85,270311,,,A*54
$GPVTG,265.85,T,,M,17.682,N,32.747,K,A*3E
$GPGGA,091624.00,4927.91488,N,01104.54245,E,1,07,1.97,321.1,M,47.0,M,,*5C
$GPRMC,091625.00,A,4927.91340,N,01104.53399,E,19.436,261.01,270311,,,A*5A
$GPVTG,261.01,T,,M,19.436,N,35.996,K,A*30
$GPGGA,091625.00,4927.91340,N,01104.53399,E,1,07,1.97,321.0,M,47.0,M,,*58
$GPRMC,091626.00,A,4927.91283,N,01104.52451,E,21.128,261.33,270311,,,A*55
$GPVTG,261.33,T,,M,21.128,N,39.128,K,A*31
$GPGGA,091626.00,4927.91283,N,01104.52451,E,1,06,1.97,321.0,M,47.0,M,,*56
$GPRMC,091627.00,A,4927.91211,N,01104.51422,E,22.293,261.16,270311,,,A*5F
$GPVTG,261.16,T,,M,22.293,N,41.286,K,A*3E
$GPGGA,091627.00,4927.91211,N,01104.51422,E,1,06,1.97,321.0,M,47.0,M,,*5B
$GPRMC,091628.00,A,4927.91066,N,01104.50442,E,22.449,259.86,270311,,,A*56
$GPVTG,259.86,T,,M,22.449,N,41.576,K,A*35
$GPGGA,091628.00,4927.91066,N,01104.50442,E,1,07,1.57,321.1,M,47.0,M,,*5D
$GPRMC,091629.00,A,4927.90970,N,01104.49432,E,22.770,261.98,270311,,,A*5A
$GPVTG,261.98,T,,M,22.770,N,42.171,K,A*38
$GPGGA,091629.00,4927.90970,N,01104.49432,E,1,07,1.57,321.2,M,47.0,M,,*5F
$GPRMC,091630.00,A,4927.90858,N,01104.48423,E,22.959,262.58,270311,,,A*52
$GPVTG,262.58,T,,M,22.959,N,42.520,K,A*32
$GPGGA,091630.00,4927.90858,N,01104.48423,E,1,07,1.57,321.3,M,47.0,M,,*5C
$GPRMC,091631.00,A,4927.90715,N,01104.47466,E,21.918,261.41,270311,,,A*56
$GPVTG,261.41,T,,M,21.918,N,40.592,K,A*34
$GPGGA,091631.00,4927.90715,N,01104.47466,E,1,07,1.57,321.4,M,47.0,M,,*52
$GPRMC,091632.00,A,4927.90560,N,01104.46584,E,20.663,259.78,270311,,,A*5A
$GPVTG,259.78,T,,M,20.663,N,38.268,K,A*3A
$GPGGA,091632.00,4927.90560,N,01104.46584,E,1,07,1.57,321.5,M,47.0,M,,*5C
$GPRMC,091633.00,A,4927.90357,N,01104.45727,E,20.219,256.99,270311,,,A*58
$GPVTG,256.99,T,,M,20.219,N,37.445,K,A*35
$GPGGA,091633.00,4927.90357,N,01104.45727,E,1,07,1.57,321.7,M,47.0,M,,*55
$GPRMC,091634.00,A,4927.90140,N,01104.44881,E,20.232,252.58,270311,,,A*59
$GPVTG,252.58,T,,M,20.232,N,37.470,K,A*33
$GPGGA,091634.00,4927.90140,N,01104.44881,E,1,07,1.57,321.9,M,47.0,M,,*5A
$GPRMC,091635.00,A,4927.90053,N,01104.44029,E,19.825,253.26,270311,,,A*5F
$GPVTG,253.26,T,,M,19.825,N,36.715,K,A*3C
$GPGGA,091635.00,4927.90053,N,01104.44029,E,1,06,1.97,321.9,M,47.0,M,,*5F
$GPRMC,091636.00,A,4927.89975,N,01104.43157,E,20.202,253.68,270311,,,A*59
$GPVTG,253.68,T,,M,20.202,N,37.414,K,A*30
$GPGGA,091636.00,4927.89975,N,01104.43157,E,1,06,1.97,321.9,M,47.0,M,,*56
$GPRMC,091637.00,A,4927.89923,N,01104.42267,E,20.097,255.30,270311,,,A*5F
$GPVTG,255.30,T,,M,20.097,N,37.221,K,A*35
$GPGGA,091637.00,4927.89923,N,01104.42267,E,1,06,1.97,321.9,M,47.0,M,,*55
$GPRMC,091638.00,A,4927.89886,N,01104.41481,E,18.488,256.22,270311,,,A*52
$GPVTG,256.22,T,,M,18.488,N,34.241,K,A*31
$GPGGA,091638.00,4927.89886,N,01104.41481,E,1,06,1.97,322.0,M,47.0,M,,*53
$GPRMC,091639.00,A,4927.89842,N,01104.40758,E,16.939,257.00,270311,,,A*55
$GPVTG,257.00,T,,M,16.939,N,31.371,K,A*3E
$GPGGA,091639.00,4927.89842,N,01104.40758,E,1,06,1.97,322.0,M,47.0,M,,*5C
$GPRMC,091640.00,A,4927.89784,N,01104.40263,E,12.584,256.25,270311,,,A*5B
$GPVTG,256.25,T,,M,12.584,N,23.306,K,A*35
$GPGGA,091640.00,4927.89784,N,01104.40263,E,1,06,1.97,322.1,M,47.0,M,,*5B
$GPRMC,091641.00,A,4927.89670,N,01104.39807,E,12.214,253.66,270311,,,A*5A
$GPVTG,253.66,T,,M,12.214,N,22.620,K,A*39
$GPGGA,091641.00,4927.89670,N,01104.39807,E,1,06,1.97,322.2,M,47.0,M,,*55
$GPRMC,091642.00,A,4927.89536,N,01104.39311,E,12.471,252.00,270311,,,A*50
$GPVTG,252.00,T,,M,12.471,N,23.096,K,A*37
$GPGGA,091642.00,4927.89536,N,01104.39311,E,1,06,1.97,322.2,M,47.0,M,,*5B
$GPRMC,091643.00,A,4927.89477,N,01104.38667,E,14.638,254.39,270311,,,A*55
$GPVTG,254.39,T,,M,14.638,N,27.110,K,A*39
$GPGGA,091643.00,4927.89477,N,01104.38667,E,1,06,1.97,322.3,M,47.0,M,,*5A
$GPRMC,091644.00,A,4927.89458,N,01104.37843,E,18.370,258.52,270311,,,A*5C
$GPVTG,258.52,T,,M,18.370,N,34.022,K,A*3F
$GPGGA,091644.00,4927.89458,N,01104.37843,E,1,06,1.97,322.3,M,47.0,M,,*57
$GPRMC,091645.00,A,4927.89401,N,01104.36959,E,19.518,260.99,270311,,,A*5F
$GPVTG,260.99,T,,M,19.518,N,36.148,K,A*35
$GPGGA,091645.00,4927.89401,N,01104.36959,E,1,07,1.97,322.4,M,47.0,M,,*57
$GPRMC,091646.00,A,4927.89388,N,01104.36070,E,19.965,262.36,270311,,,A*59
$GPVTG,262.36,T,,M,19.965,N,36.974,K,A*33
$GPGGA,091646.00,4927.89388,N,01104.36070,E,1,06,1.97,322.4,M,47.0,M,,*51
$GPRMC,091647.00,A,4927.89303,N,01104.35244,E,18.802,261.47,270311,,,A*59
$GPVTG,261.47,T,,M,18.802,N,34.822,K,A*37
$GPGGA,091647.00,4927.89303,N,01104.35244,E,1,07,1.56,322.5,M,47.0,M,,*58
$GPRMC,091648.00,A,4927.89225,N,01104.34483,E,18.530,260.30,270311,,,A*52
$GPVTG,260.30,T,,M,18.530,N,34.318,K,A*38
$GPGGA,091648.00,4927.89225,N,01104.34483,E,1,07,1.56,322.7,M,47.0,M,,*5C
$GPRMC,091649.00,A,4927.89130,N,01104.33664,E,19.309,259.04,270311,,,A*58
$GPVTG,259.04,T,,M,19.309,N,35.761,K,A*33
$GPGGA,091649.00,4927.89130,N,01104.33664,E,1,07,1.56,322.8,M,47.0,M,,*59
$GPRMC,091650.00,A,4927.89117,N,01104.32745,E,20.586,260.45,270311,,,A*52
$GPVTG,260.45,T,,M,20.586,N,38.126,K,A*3F
$GPGGA,091650.00,4927.89117,N,01104.32745,E,1,06,1.96,322.9,M,47.0,M,,*5B
$GPRMC,091651.00,A,4927.89090,N,01104.31764,E,21.053,262.27,270311,,,A*57
$GPVTG,262.27,T,,M,21.053,N,38.990,K,A*30
$GPGGA,091651.00,4927.89090,N,01104.31764,E,1,06,1.96,322.9,M,47.0,M,,*54
$GPRMC,091652.00,A,4927.89072,N,01104.30862,E,20.368,263.72,270311,,,A*5B
$GPVTG,263.72,T,,M,20.368,N,37.722,K,A*33
$GPGGA,091652.00,4927.89072,N,01104.30862,E,1,06,1.96,322.9,M,47.0,M,,*53
$GPRMC,091653.00,A,4927.89060,N,01104.29952,E,19.936,265.37,270311,,,A*5F
$GPVTG,265.37,T,,M,19.936,N,36.922,K,A*30
$GPGGA,091653.00,4927.89060,N,01104.29952,E,1,06,1.96,322.9,M,47.0,M,,*5B
$GPRMC,091654.00,A,4927.89001,N,01104.29157,E,18.101,264.15,270311,,,A*5E
$GPVTG,264.15,T,,M,18.101,N,33.522,K,A*35
$GPGGA,091654.00,4927.89001,N,01104.29157,E,1,06,1.96,322.8,M,47.0,M,,*57
$GPRMC,091655.00,A,4927.88904,N,01104.28308,E,18.853,262.61,270311,,,A*50
$GPVTG,262.61,T,,M,18.853,N,34.916,K,A*32
$GPGGA,091655.00,4927.88904,N,01104.28308,E,1,06,1.96,322.8,M,47.0,M,,*52
$GPRMC,091656.00,A,4927.88830,N,01104.27407,E,19.832,261.57,270311,,,A*52
$GPVTG,261.57,T,,M,19.832,N,36.730,K,A*3A
$GPGGA,091656.00,4927.88830,N,01104.27407,E,1,06,1.96,322.8,M,47.0,M,,*50
$GPRMC,091657.00,A,4927.88779,N,01104.26385,E,20.973,261.67,270311,,,A*50
$GPVTG,261.67,T,,M,20.973,N,38.842,K,A*33
$GPGGA,091657.00,4927.88779,N,01104.26385,E,1,06,1.96,322.8,M,47.0,M,,*5F
$GPRMC,091658.00,A,4927.88770,N,01104.25418,E,20.362,263.29,270311,,,A*54
$GPVTG,263.29,T,,M,20.362,N,37.710,K,A*36
$GPGGA,091658.00,4927.88770,N,01104.25418,E,1,06,1.96,322.8,M,47.0,M,,*59
$GPRMC,091659.00,A,4927.88659,N,01104.24494,E,19.641,261.63,270311,,,A*58
$GPVTG,261.63,T,,M,19.641,N,36.375,K,A*32
$GPGGA,091659.00,4927.88659,N,01104.24494,E,1,06,1.96,322.7,M,47.0,M,,*58
$GPRMC,091700.00,A,4927.88600,N,01104.23703,E,17.204,261.75,270311,,,A*5F
$GPVTG,261.75,T,,M,17.204,N,31.862,K,A*34
$GPGGA,091700.00,4927.88600,N,01104.23703,E,1,06,1.96,322.7,M,47.0,M,,*53
$GPRMC,091701.00,A,4927.88558,N,01104.23081,E,12.936,261.50,270311,,,A*55
$GPVTG,261.50,T,,M,12.936,N,23.957,K,A*38
$GPGGA,091701.00,4927.88558,N,01104.23081,E,1,06,1.96,322.7,M,47.0,M,,*51
$GPRMC,091702.00,A,4927.88538,N,01104.22706,E,8.345,260.80,270311,,,A*60
$GPVTG,260.80,T,,M,8.345,N,15.455,K,A*0B
$GPGGA,091702.00,4927.88538,N,01104.22706,E,1,06,1.96,322.7,M,47.0,M,,*5D
$GPRMC,091703.00,A,4927.88505,N,01104.22462,E,5.467,,270311,,,A*76
$GPVTG,,T,,M,5.467,N,10.124,K,A*15
$GPGGA,091703.00,4927.88505,N,01104.22462,E,1,06,1.96,322.7,M,47.0,M,,*53
$GPRMC,091704.00,A,4927.88476,N,01104.22313,E,3.432,,270311,,,A*73
$GPVTG,,T,,M,3.432,N,6.357,K,A*22
$GPGGA,091704.00,4927.88476,N,01104.22313,E,1,07,1.28,322.6,M,47.0,M,,*55
$GPRMC,091705.00,A,4927.88422,N,01104.22175,E,2.958,,270311,,,A*71
$GPVTG,,T,,M,2.958,N,5.478,K,A*2B
$GPGGA,091705.00,4927.88422,N,01104.22175,E,1,07,1.28,322.4,M,47.0,M,,*55
$GPRMC,091706.00,A,4927.88297,N,01104.22011,E,2.585,,270311,,,A*75
$GPVTG,,T,,M,2.585,N,4.787,K,A*25
$GPGGA,091706.00,4927.88297,N,01104.22011,E,1,07,1.28,322.5,M,47.0,M,,*5C
$GPRMC,091707.00,A,4927.88307,N,01104.21903,E,2.698,,270311,,,A*7A
$GPVTG,,T,,M,2.698,N,4.996,K,A*24
$GPGGA,091707.00,4927.88307,N,01104.21903,E,1,07,1.28,322.5,M,47.0,M,,*5C
$GPRMC,091708.00,A,4927.88371,N,01104.21720,E,4.973,,270311,,,A*77
$GPVTG,,T,,M,4.973,N,9.210,K,A*20
$GPGGA,091708.00,4927.88371,N,01104.21720,E,1,07,1.28,322.5,M,47.0,M,,*5D
$GPRMC,091709.00,A,4927.88608,N,01104.21500,E,9.671,280.29,270311,,,A*62
$GPVTG,280.29,T,,M,9.671,N,17.910,K,A*0B
$GPGGA,091709.00,4927.88608,N,01104.21500,E,1,07,1.28,322.5,M,47.0,M,,*57
$GPRMC,091710.00,A,4927.88887,N,01104.21323,E,12.127,301.52,270311,,,A*5E
$GPVTG,301.52,T,,M,12.127,N,22.458,K,A*36
$GPGGA,091710.00,4927.88887,N,01104.21323,E,1,07,1.28,322.6,M,47.0,M,,*52
$GPRMC,091711.00,A,4927.89232,N,01104.21189,E,13.817,318.54,270311,,,A*5D
$GPVTG,318.54,T,,M,13.817,N,25.590,K,A*31
$GPGGA,091711.00,4927.89232,N,01104.21189,E,1,07,1.28,322.6,M,47.0,M,,*54
$GPRMC,091712.00,A,4927.89650,N,01104.20987,E,16.940,330.73,270311,,,A*50
$GPVTG,330.73,T,,M,16.940,N,31.373,K,A*36
$GPGGA,091712.00,4927.89650,N,01104.20987,E,1,07,1.28,322.7,M,47.0,M,,*51
$GPRMC,091713.00,A,4927.90117,N,01104.20749,E,18.333,336.71,270311,,,A*55
$GPVTG,336.71,T,,M,18.333,N,33.952,K,A*39
$GPGGA,091713.00,4927.90117,N,01104.20749,E,1,07,1.28,322.8,M,47.0,M,,*5F
$GPRMC,091714.00,A,4927.90573,N,01104.20476,E,18.710,338.71,270311,,,A*50
$GPVTG,338.71,T,,M,18.710,N,34.651,K,A*39
$GPGGA,091714.00,4927.90573,N,01104.20476,E,1,07,1.28,322.9,M,47.0,M,,*50
$GPRMC,091715.00,A,4927.91061,N,01104.20279,E,19.540,342.43,270311,,,A*55
$GPVTG,342.43,T,,M,19.540,N,36.188,K,A*32
$GPGGA,091715.00,4927.91061,N,01104.20279,E,1,07,1.28,323.0,M,47.0,M,,*57
$GPRMC,091716.00,A,4927.91616,N,01104.19973,E,21.904,341.73,270311,,,A*5C
$GPVTG,341.73,T,,M,21.904,N,40.567,K,A*31
$GPGGA,091716.00,4927.91616,N,01104.19973,E,1,07,1.28,323.2,M,47.0,M,,*5B
$GPRMC,091717.00,A,4927.92221,N,01104.19579,E,23.783,340.33,270311,,,A*5E
$GPVTG,340.33,T,,M,23.783,N,44.047,K,A*34
$GPGGA,091717.00,4927.92221,N,01104.19579,E,1,07,1.28,323.3,M,47.0,M,,*5E
$GPRMC,091718.00,A,4927.92830,N,01104.19235,E,24.630,340.64,270311,,,A*58
$GPVTG,340.64,T,,M,24.630,N,45.616,K,A*3B
$GPGGA,091718.00,4927.92830,N,01104.19235,E,1,07,1.28,323.5,M,47.0,M,,*52
$GPRMC,091719.00,A,4927.93498,N,01104.18765,E,25.560,341.29,270311,,,A*58
$GPVTG,341.29,T,,M,25.560,N,47.337,K,A*30
$GPGGA,091719.00,4927.93498,N,01104.18765,E,1,07,1.28,323.8,M,47.0,M,,*50
$GPRMC,091720.00,A,4927.94241,N,01104.18286,E,26.819,340.72,270311,,,A*50
$GPVTG,340.72,T,,M,26.819,N,49.670,K,A*37
$GPGGA,091720.00,4927.94241,N,01104.18286,E,1,07,1.28,323.8,M,47.0,M,,*57
$GPRMC,091721.00,A,4927.94974,N,01104.17844,E,27.695,340.70,270311,,,A*5E
$GPVTG,340.70,T,,M,27.695,N,51.292,K,A*3F
$GPGGA,091721.00,4927.94974,N,01104.17844,E,1,07,1.28,324.0,M,47.0,M,,*5F
$GPRMC,091722.00,A,4927.95753,N,01104.17496,E,27.664,340.42,270311,,,A*5B
$GPVTG,340.42,T,,M,27.664,N,51.234,K,A*3C
$GPGGA,091722.00,4927.95753,N,01104.17496,E,1,06,1.38,324.2,M,47.0,M,,*57
$GPRMC,091723.00,A,4927.96507,N,01104.17046,E,28.199,340.27,270311,,,A*5A
$GPVTG,340.27,T,,M,28.199,N,52.225,K,A*36
$GPGGA,091723.00,4927.96507,N,01104.17046,E,1,07,1.38,324.4,M,47.0,M,,*58
$GPRMC,091724.00,A,4927.97197,N,01104.16569,E,28.011,338.80,270311,,,A*5B
$GPVTG,338.80,T,,M,28.011,N,51.877,K,A*3B
$GPGGA,091724.00,4927.97197,N,01104.16569,E,1,07,1.38,325.0,M,47.0,M,,*5F
$GPRMC,091725.00,A,4927.97946,N,01104.16161,E,28.437,340.63,270311,,,A*50
$GPVTG,340.63,T,,M,28.437,N,52.665,K,A*37
$GPGGA,091725.00,4927.97946,N,01104.16161,E,1,07,1.28,325.3,M,47.0,M,,*54
$GPRMC,091726.00,A,4927.98697,N,01104.15759,E,28.249,341.31,270311,,,A*58
$GPVTG,341.31,T,,M,28.249,N,52.317,K,A*3E
$GPGGA,091726.00,4927.98697,N,01104.15759,E,1,07,1.28,325.6,M,47.0,M,,*50
$GPRMC,091727.00,A,4927.99452,N,01104.15371,E,28.000,342.08,270311,,,A*5B
$GPVTG,342.08,T,,M,28.000,N,51.856,K,A*35
$GPGGA,091727.00,4927.99452,N,01104.15371,E,1,07,1.38,325.2,M,47.0,M,,*50
$GPRMC,091728.00,A,4928.00235,N,01104.15036,E,28.318,344.52,270311,,,A*5F
$GPVTG,344.52,T,,M,28.318,N,52.445,K,A*3B
$GPGGA,091728.00,4928.00235,N,01104.15036,E,1,07,1.38,325.1,M,47.0,M,,*54
$GPRMC,091729.00,A,4928.01021,N,01104.14714,E,28.875,345.09,270311,,,A*51
$GPVTG,345.09,T,,M,28.875,N,53.476,K,A*35
$GPGGA,091729.00,4928.01021,N,01104.14714,E,1,08,1.38,325.2,M,47.0,M,,*59
$GPRMC,091730.00,A,4928.01837,N,01104.14428,E,29.266,345.55,270311,,,A*5A
$GPVTG,345.55,T,,M,29.266,N,54.200,K,A*35
$GPGGA,091730.00,4928.01837,N,01104.14428,E,1,08,1.38,325.2,M,47.0,M,,*52
$GPRMC,091731.00,A,4928.02610,N,01104.14054,E,28.872,344.51,270311,,,A*57
$GPVTG,344.51,T,,M,28.872,N,53.472,K,A*3A
$GPGGA,091731.00,4928.02610,N,01104.14054,E,1,08,1.38,325.3,M,47.0,M,,*55
$GPRMC,091732.00,A,4928.03386,N,01104.13722,E,28.514,344.66,270311,,,A*57
$GPVTG,344.66,T,,M,28.514,N,52.809,K,A*32
$GPGGA,091732.00,4928.03386,N,01104.13722,E,1,08,1.14,325.4,M,47.0,M,,*55
$GPRMC,091733.00,A,4928.04140,N,01104.13398,E,28.355,345.84,270311,,,A*52
$GPVTG,345.84,T,,M,28.355,N,52.513,K,A*3A
$GPGGA,091733.00,4928.04140,N,01104.13398,E,1,08,1.27,325.5,M,47.0,M,,*5F
$GPRMC,091734.00,A,4928.04895,N,01104.13100,E,28.518,345.96,270311,,,A*5B
$GPVTG,345.96,T,,M,28.518,N,52.816,K,A*3E
$GPGGA,091734.00,4928.04895,N,01104.13100,E,1,08,1.27,325.6,M,47.0,M,,*59
$GPRMC,091735.00,A,4928.05663,N,01104.12814,E,28.380,346.56,270311,,,A*59
$GPVTG,346.56,T,,M,28.380,N,52.559,K,A*30
$GPGGA,091735.00,4928.05663,N,01104.12814,E,1,08,1.14,325.8,M,47.0,M,,*5D
$GPRMC,091736.00,A,4928.06428,N,01104.12446,E,28.528,347.48,270311,,,A*55
$GPVTG,347.48,T,,M,28.528,N,52.833,K,A*3B
$GPGGA,091736.00,4928.06428,N,01104.12446,E,1,08,1.27,325.4,M,47.0,M,,*57
$GPRMC,091737.00,A,4928.07188,N,01104.12195,E,28.170,348.93,270311,,,A*51
$GPVTG,348.93,T,,M,28.170,N,52.171,K,A*34
$GPGGA,091737.00,4928.07188,N,01104.12195,E,1,08,1.14,325.7,M,47.0,M,,*50
$GPRMC,091738.00,A,4928.07942,N,01104.11989,E,28.004,350.55,270311,,,A*57
$GPVTG,350.55,T,,M,28.004,N,51.863,K,A*3C
$GPGGA,091738.00,4928.07942,N,01104.11989,E,1,08,1.14,325.9,M,47.0,M,,*59
$GPRMC,091739.00,A,4928.08687,N,01104.11797,E,27.619,349.75,270311,,,A*51
$GPVTG,349.75,T,,M,27.619,N,51.151,K,A*3B
$GPGGA,091739.00,4928.08687,N,01104.11797,E,1,08,1.14,326.5,M,47.0,M,,*5F
$GPRMC,091740.00,A,4928.09423,N,01104.11557,E,27.172,348.49,270311,,,A*58
$GPVTG,348.49,T,,M,27.172,N,50.323,K,A*39
$GPGGA,091740.00,4928.09423,N,01104.11557,E,1,08,1.14,326.7,M,47.0,M,,*50
$GPRMC,091741.00,A,4928.10148,N,01104.11310,E,26.626,347.17,270311,,,A*5F
$GPVTG,347.17,T,,M,26.626,N,49.311,K,A*33
$GPGGA,091741.00,4928.10148,N,01104.11310,E,1,08,1.14,326.7,M,47.0,M,,*54
$GPRMC,091742.00,A,4928.10727,N,01104.10896,E,25.849,344.39,270311,,,A*5C
$GPVTG,344.39,T,,M,25.849,N,47.872,K,A*38
$GPGGA,091742.00,4928.10727,N,01104.10896,E,1,08,1.27,329.8,M,47.0,M,,*5C
$GPRMC,091743.00,A,4928.11353,N,01104.10512,E,25.551,342.04,270311,,,A*56
$GPVTG,342.04,T,,M,25.551,N,47.320,K,A*38
$GPGGA,091743.00,4928.11353,N,01104.10512,E,1,08,1.27,331.2,M,47.0,M,,*59
$GPRMC,091744.00,A,4928.11960,N,01104.10132,E,24.009,342.05,270311,,,A*55
$GPVTG,342.05,T,,M,24.009,N,44.464,K,A*34
$GPGGA,091744.00,4928.11960,N,01104.10132,E,1,08,1.27,332.6,M,47.0,M,,*55
$GPRMC,091745.00,A,4928.12537,N,01104.09829,E,20.876,342.29,270311,,,A*58
$GPVTG,342.29,T,,M,20.876,N,38.662,K,A*31
$GPGGA,091745.00,4928.12537,N,01104.09829,E,1,08,1.27,333.1,M,47.0,M,,*54
$GPRMC,091746.00,A,4928.13014,N,01104.09566,E,17.260,342.31,270311,,,A*58
$GPVTG,342.31,T,,M,17.260,N,31.965,K,A*30
$GPGGA,091746.00,4928.13014,N,01104.09566,E,1,08,1.27,333.8,M,47.0,M,,*5D
$GPRMC,091747.00,A,4928.13427,N,01104.09361,E,13.850,342.90,270311,,,A*5A
$GPVTG,342.90,T,,M,13.850,N,25.650,K,A*3A
$GPGGA,091747.00,4928.13427,N,01104.09361,E,1,08,1.27,332.8,M,47.0,M,,*58
$GPRMC,091748.00,A,4928.13782,N,01104.09264,E,10.218,343.15,270311,,,A*54
$GPVTG,343.15,T,,M,10.218,N,18.924,K,A*31
$GPGGA,091748.00,4928.13782,N,01104.09264,E,1,08,1.27,331.8,M,47.0,M,,*5C
$GPRMC,091749.00,A,4928.14007,N,01104.09158,E,7.412,344.00,270311,,,A*6D
$GPVTG,344.00,T,,M,7.412,N,13.728,K,A*01
$GPGGA,091749.00,4928.14007,N,01104.09158,E,1,08,1.14,331.7,M,47.0,M,,*53
$GPRMC,091750.00,A,4928.14081,N,01104.09006,E,4.130,343.68,270311,,,A*6E
$GPVTG,343.68,T,,M,4.130,N,7.648,K,A*3C
$GPGGA,091750.00,4928.14081,N,01104.09006,E,1,08,1.14,332.9,M,47.0,M,,*52
$GPRMC,091751.00,A,4928.14099,N,01104.08918,E,1.468,343.57,270311,,,A*60
$GPVTG,343.57,T,,M,1.468,N,2.719,K,A*3D
$GPGGA,091751.00,4928.14099,N,01104.08918,E,1,08,1.14,333.6,M,47.0,M,,*53
$GPRMC,091752.00,A,4928.14106,N,01104.08904,E,0.689,343.55,270311,,,A*67
$GPVTG,343.55,T,,M,0.689,N,1.276,K,A*3C
$GPGGA,091752.00,4928.14106,N,01104.08904,E,1,08,1.27,333.8,M,47.0,M,,*54
$GPRMC,091753.00,A,4928.14038,N,01104.08769,E,2.049,343.60,270311,,,A*61
$GPVTG,343.60,T,,M,2.049,N,3.796,K,A*3B
$GPGGA,091753.00,4928.14038,N,01104.08769,E,1,08,1.14,335.5,M,47.0,M,,*57
$GPRMC,091754.00,A,4928.14099,N,01104.08670,E,6.334,344.60,270311,,,A*6E
$GPVTG,344.60,T,,M,6.334,N,11.730,K,A*0E
$GPGGA,091754.00,4928.14099,N,01104.08670,E,1,08,1.27,336.4,M,47.0,M,,*50
$GPRMC,091755.00,A,4928.14330,N,01104.08590,E,10.296,343.87,270311,,,A*52
$GPVTG,343.87,T,,M,10.296,N,19.068,K,A*3C
$GPGGA,091755.00,4928.14330,N,01104.08590,E,1,08,1.27,336.8,M,47.0,M,,*50
$GPRMC,091756.00,A,4928.14679,N,01104.08446,E,14.105,341.84,270311,,,A*5F
$GPVTG,341.84,T,,M,14.105,N,26.123,K,A*32
$GPGGA,091756.00,4928.14679,N,01104.08446,E,1,08,1.14,336.3,M,47.0,M,,*5A
$GPRMC,091757.00,A,4928.15168,N,01104.08369,E,15.548,341.73,270311,,,A*56
$GPVTG,341.73,T,,M,15.548,N,28.795,K,A*33
$GPGGA,091757.00,4928.15168,N,01104.08369,E,1,08,1.14,334.6,M,47.0,M,,*50
$GPRMC,091758.00,A,4928.15721,N,01104.08288,E,17.972,340.58,270311,,,A*53
$GPVTG,340.58,T,,M,17.972,N,33.285,K,A*32
$GPGGA,091758.00,4928.15721,N,01104.08288,E,1,08,1.14,332.8,M,47.0,M,,*52
$GPRMC,091759.00,A,4928.16328,N,01104.08117,E,21.166,340.31,270311,,,A*5E
$GPVTG,340.31,T,,M,21.166,N,39.199,K,A*31
$GPGGA,091759.00,4928.16328,N,01104.08117,E,1,08,1.14,331.2,M,47.0,M,,*51
$GPRMC,091800.00,A,4928.16934,N,01104.07772,E,24.208,338.93,270311,,,A*59
$GPVTG,338.93,T,,M,24.208,N,44.833,K,A*3B
$GPGGA,091800.00,4928.16934,N,01104.07772,E,1,08,1.14,330.6,M,47.0,M,,*5A
$GPRMC,091801.00,A,4928.17637,N,01104.07470,E,25.227,339.50,270311,,,A*56
$GPVTG,339.50,T,,M,25.227,N,46.720,K,A*36
$GPGGA,091801.00,4928.17637,N,01104.07470,E,1,08,1.14,329.4,M,47.0,M,,*5D
$GPRMC,091802.00,A,4928.18368,N,01104.07149,E,26.803,339.53,270311,,,A*56
$GPVTG,339.53,T,,M,26.803,N,49.639,K,A*3C
$GPGGA,091802.00,4928.18368,N,01104.07149,E,1,08,1.14,328.4,M,47.0,M,,*50
$GPRMC,091803.00,A,4928.19115,N,01104.06758,E,28.618,339.22,270311,,,A*55
$GPVTG,339.22,T,,M,28.618,N,53.000,K,A*37
$GPGGA,091803.00,4928.19115,N,01104.06758,E,1,08,1.14,327.7,M,47.0,M,,*53
$GPRMC,091804.00,A,4928.19913,N,01104.06364,E,29.779,338.91,270311,,,A*59
$GPVTG,338.91,T,,M,29.779,N,55.151,K,A*3A
$GPGGA,091804.00,4928.19913,N,01104.06364,E,1,08,1.14,326.7,M,47.0,M,,*50
$GPRMC,091805.00,A,4928.20701,N,01104.05909,E,29.866,338.78,270311,,,A*5B
$GPVTG,338.78,T,,M,29.866,N,55.312,K,A*39
$GPGGA,091805.00,4928.20701,N,01104.05909,E,1,08,1.14,326.1,M,47.0,M,,*52
$GPRMC,091806.00,A,4928.21483,N,01104.05444,E,29.899,337.99,270311,,,A*54
$GPVTG,337.99,T,,M,29.899,N,55.372,K,A*3F
$GPGGA,091806.00,4928.21483,N,01104.05444,E,1,08,1.14,325.5,M,47.0,M,,*5A
$GPRMC,091807.00,A,4928.22274,N,01104.04956,E,29.990,336.31,270311,,,A*5C
$GPVTG,336.31,T,,M,29.990,N,55.542,K,A*31
$GPGGA,091807.00,4928.22274,N,01104.04956,E,1,08,1.14,324.9,M,47.0,M,,*54
$GPRMC,091808.00,A,4928.23059,N,01104.04426,E,30.505,335.42,270311,,,A*5A
$GPVTG,335.42,T,,M,30.505,N,56.495,K,A*36
$GPGGA,091808.00,4928.23059,N,01104.04426,E,1,08,1.14,324.2,M,47.0,M,,*56
$GPRMC,091809.00,A,4928.23819,N,01104.03798,E,30.253,330.41,270311,,,A*54
$GPVTG,330.41,T,,M,30.253,N,56.028,K,A*36
$GPGGA,091809.00,4928.23819,N,01104.03798,E,1,08,1.14,323.4,M,47.0,M,,*5B
$GPRMC,091810.00,A,4928.24551,N,01104.03089,E,31.061,328.33,270311,,,A*53
$GPVTG,328.33,T,,M,31.061,N,57.525,K,A*31
$GPGGA,091810.00,4928.24551,N,01104.03089,E,1,08,1.14,322.5,M,47.0,M,,*52
$GPRMC,091811.00,A,4928.25275,N,01104.02279,E,32.036,325.16,270311,,,A*55
$GPVTG,325.16,T,,M,32.036,N,59.330,K,A*36
$GPGGA,091811.00,4928.25275,N,01104.02279,E,1,08,1.14,323.5,M,47.0,M,,*5E
$GPRMC,091812.00,A,4928.26023,N,01104.01365,E,33.683,322.47,270311,,,A*51
$GPVTG,322.47,T,,M,33.683,N,62.381,K,A*3E
$GPGGA,091812.00,4928.26023,N,01104.01365,E,1,08,1.14,323.1,M,47.0,M,,*54
$GPRMC,091813.00,A,4928.26699,N,01104.00296,E,34.175,316.15,270311,,,A*52
$GPVTG,316.15,T,,M,34.175,N,63.292,K,A*35
$GPGGA,091813.00,4928.26699,N,01104.00296,E,1,08,1.14,323.0,M,47.0,M,,*5F
$GPRMC,091814.00,A,4928.27422,N,01103.99271,E,34.011,316.68,270311,,,A*51
$GPVTG,316.68,T,,M,34.011,N,62.988,K,A*3D
$GPGGA,091814.00,4928.27422,N,01103.99271,E,1,08,1.14,322.7,M,47.0,M,,*53
$GPRMC,091815.00,A,4928.28154,N,01103.98263,E,34.094,317.96,270311,,,A*54
$GPVTG,317.96,T,,M,34.094,N,63.142,K,A*3F
$GPGGA,091815.00,4928.28154,N,01103.98263,E,1,08,1.14,322.3,M,47.0,M,,*5F
$GPRMC,091816.00,A,4928.28866,N,01103.97284,E,33.647,318.25,270311,,,A*51
$GPVTG,318.25,T,,M,33.647,N,62.314,K,A*37
$GPGGA,091816.00,4928.28866,N,01103.97284,E,1,08,1.14,321.9,M,47.0,M,,*5B
$GPRMC,091817.00,A,4928.29589,N,01103.96333,E,33.212,318.72,270311,,,A*57
$GPVTG,318.72,T,,M,33.212,N,61.508,K,A*39
$GPGGA,091817.00,4928.29589,N,01103.96333,E,1,08,1.14,321.5,M,47.0,M,,*57
$GPRMC,091818.00,A,4928.30311,N,01103.95406,E,32.843,319.62,270311,,,A*5A
$GPVTG,319.62,T,,M,32.843,N,60.825,K,A*35
$GPGGA,091818.00,4928.30311,N,01103.95406,E,1,08,1.14,321.3,M,47.0,M,,*53
$GPRMC,091819.00,A,4928.31043,N,01103.94542,E,32.332,321.29,270311,,,A*57
$GPVTG,321.29,T,,M,32.332,N,59.879,K,A*3F
$GPGGA,091819.00,4928.31043,N,01103.94542,E,1,08,1.14,320.8,M,47.0,M,,*5D
$GPRMC,091820.00,A,4928.31787,N,01103.93730,E,31.876,323.68,270311,,,A*5D
$GPVTG,323.68,T,,M,31.876,N,59.034,K,A*31
$GPGGA,091820.00,4928.31787,N,01103.93730,E,1,08,1.14,320.3,M,47.0,M,,*53
$GPRMC,091821.00,A,4928.32532,N,01103.93000,E,31.366,325.66,270311,,,A*55
$GPVTG,325.66,T,,M,31.366,N,58.089,K,A*34
$GPGGA,091821.00,4928.32532,N,01103.93000,E,1,08,1.14,319.4,M,47.0,M,,*54
$GPRMC,091822.00,A,4928.33270,N,01103.92330,E,30.407,328.47,270311,,,A*58
$GPVTG,328.47,T,,M,30.407,N,56.313,K,A*35
$GPGGA,091822.00,4928.33270,N,01103.92330,E,1,08,1.14,318.7,M,47.0,M,,*54
$GPRMC,091823.00,A,4928.34000,N,01103.91715,E,29.527,330.39,270311,,,A*50
$GPVTG,330.39,T,,M,29.527,N,54.685,K,A*36
$GPGGA,091823.00,4928.34000,N,01103.91715,E,1,08,1.14,318.0,M,47.0,M,,*50
$GPRMC,091824.00,A,4928.34722,N,01103.91163,E,28.564,331.83,270311,,,A*51
$GPVTG,331.83,T,,M,28.564,N,52.901,K,A*35
$GPGGA,091824.00,4928.34722,N,01103.91163,E,1,08,1.14,317.3,M,47.0,M,,*5B
$GPRMC,091825.00,A,4928.35443,N,01103.90689,E,27.749,333.80,270311,,,A*54
$GPVTG,333.80,T,,M,27.749,N,51.392,K,A*35
$GPGGA,091825.00,4928.35443,N,01103.90689,E,1,08,1.14,316.4,M,47.0,M,,*5B
$GPRMC,091826.00,A,4928.36139,N,01103.90271,E,26.750,335.74,270311,,,A*5B
$GPVTG,335.74,T,,M,26.750,N,49.542,K,A*33
$GPGGA,091826.00,4928.36139,N,01103.90271,E,1,08,1.14,315.4,M,47.0,M,,*53
$GPRMC,091827.00,A,4928.36803,N,01103.89887,E,25.186,337.56,270311,,,A*5D
$GPVTG,337.56,T,,M,25.186,N,46.644,K,A*35
$GPGGA,091827.00,4928.36803,N,01103.89887,E,1,08,1.14,314.8,M,47.0,M,,*54
$GPRMC,091828.00,A,4928.37451,N,01103.89596,E,23.386,338.64,270311,,,A*5F
$GPVTG,338.64,T,,M,23.386,N,43.312,K,A*3C
$GPGGA,091828.00,4928.37451,N,01103.89596,E,1,08,1.14,313.7,M,47.0,M,,*54
$GPRMC,091829.00,A,4928.38038,N,01103.89324,E,21.776,339.79,270311,,,A*51
$GPVTG,339.79,T,,M,21.776,N,40.329,K,A*33
$GPGGA,091829.00,4928.38038,N,01103.89324,E,1,08,1.14,312.9,M,47.0,M,,*51
$GPRMC,091830.00,A,4928.38573,N,01103.89102,E,19.639,341.29,270311,,,A*5E
$GPVTG,341.29,T,,M,19.639,N,36.372,K,A*37
$GPGGA,091830.00,4928.38573,N,01103.89102,E,1,08,1.14,312.9,M,47.0,M,,*55
$GPRMC,091831.00,A,4928.39054,N,01103.88911,E,17.139,342.05,270311,,,A*51
$GPVTG,342.05,T,,M,17.139,N,31.742,K,A*33
$GPGGA,091831.00,4928.39054,N,01103.88911,E,1,08,1.14,313.2,M,47.0,M,,*54
$GPRMC,091832.00,A,4928.39454,N,01103.88760,E,14.300,342.81,270311,,,A*59
$GPVTG,342.81,T,,M,14.300,N,26.483,K,A*3C
$GPGGA,091832.00,4928.39454,N,01103.88760,E,1,08,1.14,313.3,M,47.0,M,,*5A
$GPRMC,091833.00,A,4928.39774,N,01103.88636,E,11.488,343.84,270311,,,A*5D
$GPVTG,343.84,T,,M,11.488,N,21.275,K,A*32
$GPGGA,091833.00,4928.39774,N,01103.88636,E,1,08,1.14,313.0,M,47.0,M,,*5B
$GPRMC,091834.00,A,4928.40036,N,01103.88545,E,9.155,345.16,270311,,,A*63
$GPVTG,345.16,T,,M,9.155,N,16.956,K,A*0D
$GPGGA,091834.00,4928.40036,N,01103.88545,E,1,08,1.14,312.9,M,47.0,M,,*5C
$GPRMC,091835.00,A,4928.40242,N,01103.88488,E,7.288,345.18,270311,,,A*60
$GPVTG,345.18,T,,M,7.288,N,13.497,K,A*0B
$GPGGA,091835.00,4928.40242,N,01103.88488,E,1,08,1.14,312.7,M,47.0,M,,*52
$GPRMC,091836.00,A,4928.40397,N,01103.88434,E,5.525,344.85,270311,,,A*6A
$GPVTG,344.85,T,,M,5.525,N,10.232,K,A*06
$GPGGA,091836.00,4928.40397,N,01103.88434,E,1,08,1.14,312.5,M,47.0,M,,*5D
$GPRMC,091837.00,A,4928.40504,N,01103.88404,E,3.778,344.74,270311,,,A*66
$GPVTG,344.74,T,,M,3.778,N,6.997,K,A*37
$GPGGA,091837.00,4928.40504,N,01103.88404,E,1,08,1.14,312.4,M,47.0,M,,*52
$GPRMC,091838.00,A,4928.40567,N,01103.88389,E,2.095,344.74,270311,,,A*6B
$GPVTG,344.74,T,,M,2.095,N,3.879,K,A*36
$GPGGA,091838.00,4928.40567,N,01103.88389,E,1,08,1.14,312.2,M,47.0,M,,*5C
$GPRMC,091839.00,A,4928.40597,N,01103.88385,E,1.252,344.71,270311,,,A*66
$GPVTG,344.71,T,,M,1.252,N,2.318,K,A*34
$GPGGA,091839.00,4928.40597,N,01103.88385,E,1,08,1.14,312.0,M,47.0,M,,*5C
$GPRMC,091840.00,A,4928.40612,N,01103.88381,E,0.807,,270311,,,A*72
$GPVTG,,T,,M,0.807,N,1.494,K,A*24
$GPGGA,091840.00,4928.40612,N,01103.88381,E,1,08,1.14,311.6,M,47.0,M,,*5D
$GPRMC,091841.00,A,4928.40617,N,01103.88384,E,0.520,,270311,,,A*7B
$GPVTG,,T,,M,0.520,N,0.963,K,A*28
$GPGGA,091841.00,4928.40617,N,01103.88384,E,1,08,1.14,311.4,M,47.0,M,,*5E
$GPRMC,091842.00,A,4928.40617,N,01103.88387,E,0.251,,270311,,,A*7A
$GPVTG,,T,,M,0.251,N,0.464,K,A*23
$GPGGA,091842.00,4928.40617,N,01103.88387,E,1,08,1.14,311.1,M,47.0,M,,*5B
$GPRMC,091843.00,A,4928.40629,N,01103.88382,E,1.153,,270311,,,A*73
$GPVTG,,T,,M,1.153,N,2.135,K,A*20
$GPGGA,091843.00,4928.40629,N,01103.88382,E,1,08,1.14,310.9,M,47.0,M,,*5B
$GPRMC,091844.00,A,4928.40708,N,01103.88348,E,5.036,344.36,270311,,,A*6E
$GPVTG,344.36,T,,M,5.036,N,9.326,K,A*35
$GPGGA,091844.00,4928.40708,N,01103.88348,E,1,08,1.14,310.7,M,47.0,M,,*56
$GPRMC,091845.00,A,4928.40894,N,01103.88276,E,8.941,344.89,270311,,,A*69
$GPVTG,344.89,T,,M,8.941,N,16.559,K,A*05
$GPGGA,091845.00,4928.40894,N,01103.88276,E,1,08,1.14,310.8,M,47.0,M,,*5E
$GPRMC,091846.00,A,4928.41184,N,01103.88143,E,12.493,343.70,270311,,,A*5E
$GPVTG,343.70,T,,M,12.493,N,23.137,K,A*37
$GPGGA,091846.00,4928.41184,N,01103.88143,E,1,08,1.27,310.6,M,47.0,M,,*5F
$GPRMC,091847.00,A,4928.41531,N,01103.87981,E,13.165,343.39,270311,,,A*5C
$GPVTG,343.39,T,,M,13.165,N,24.381,K,A*3F
$GPGGA,091847.00,4928.41531,N,01103.87981,E,1,08,1.27,310.1,M,47.0,M,,*5A
$GPRMC,091848.00,A,4928.41908,N,01103.87810,E,14.981,343.45,270311,,,A*52
$GPVTG,343.45,T,,M,14.981,N,27.745,K,A*3E
$GPGGA,091848.00,4928.41908,N,01103.87810,E,1,08,1.27,310.1,M,47.0,M,,*5A
$GPRMC,091849.00,A,4928.42345,N,01103.87621,E,17.461,343.96,270311,,,A*51
$GPVTG,343.96,T,,M,17.461,N,32.338,K,A*3A
$GPGGA,091849.00,4928.42345,N,01103.87621,E,1,08,1.27,309.9,M,47.0,M,,*57
$GPRMC,091850.00,A,4928.42846,N,01103.87415,E,19.804,345.00,270311,,,A*5C
$GPVTG,345.00,T,,M,19.804,N,36.676,K,A*39
$GPGGA,091850.00,4928.42846,N,01103.87415,E,1,08,1.27,309.7,M,47.0,M,,*5C
$GPRMC,091851.00,A,4928.43392,N,01103.87192,E,20.232,345.43,270311,,,A*56
$GPVTG,345.43,T,,M,20.232,N,37.470,K,A*3E
$GPGGA,091851.00,4928.43392,N,01103.87192,E,1,08,1.27,309.6,M,47.0,M,,*55
$GPRMC,091852.00,A,4928.43941,N,01103.86969,E,20.344,345.28,270311,,,A*51
$GPVTG,345.28,T,,M,20.344,N,37.676,K,A*37
$GPGGA,091852.00,4928.43941,N,01103.86969,E,1,08,1.27,309.6,M,47.0,M,,*5F
$GPRMC,091853.00,A,4928.44505,N,01103.86739,E,21.400,345.33,270311,,,A*5C
$GPVTG,345.33,T,,M,21.400,N,39.634,K,A*33
$GPGGA,091853.00,4928.44505,N,01103.86739,E,1,08,1.27,309.6,M,47.0,M,,*5E
$GPRMC,091854.00,A,4928.45098,N,01103.86491,E,22.614,345.10,270311,,,A*5F
$GPVTG,345.10,T,,M,22.614,N,41.880,K,A*38
$GPGGA,091854.00,4928.45098,N,01103.86491,E,1,08,1.27,309.7,M,47.0,M,,*59
$GPRMC,091855.00,A,4928.45725,N,01103.86234,E,23.737,345.18,270311,,,A*5F
$GPVTG,345.18,T,,M,23.737,N,43.961,K,A*3D
$GPGGA,091855.00,4928.45725,N,01103.86234,E,1,08,1.27,309.7,M,47.0,M,,*50
$GPRMC,091856.00,A,4928.46389,N,01103.85966,E,25.064,345.58,270311,,,A*51
$GPVTG,345.58,T,,M,25.064,N,46.418,K,A*38
$GPGGA,091856.00,4928.46389,N,01103.85966,E,1,08,1.27,309.7,M,47.0,M,,*5D
$GPRMC,091857.00,A,4928.47092,N,01103.85689,E,26.498,345.52,270311,,,A*58
$GPVTG,345.52,T,,M,26.498,N,49.074,K,A*37
$GPGGA,091857.00,4928.47092,N,01103.85689,E,1,08,1.27,309.8,M,47.0,M,,*55
$GPRMC,091858.00,A,4928.47828,N,01103.85387,E,27.687,345.12,270311,,,A*5C
$GPVTG,345.12,T,,M,27.687,N,51.276,K,A*37
$GPGGA,091858.00,4928.47828,N,01103.85387,E,1,08,1.27,309.8,M,47.0,M,,*58
$GPRMC,091859.00,A,4928.48573,N,01103.85099,E,28.161,345.44,270311,,,A*5E
$GPVTG,345.44,T,,M,28.161,N,52.154,K,A*34
$GPGGA,091859.00,4928.48573,N,01103.85099,E,1,08,1.14,310.3,M,47.0,M,,*5A
$GPRMC,091900.00,A,4928.49337,N,01103.84804,E,29.001,345.15,270311,,,A*5B
$GPVTG,345.15,T,,M,29.001,N,53.709,K,A*39
$GPGGA,091900.00,4928.49337,N,01103.84804,E,1,08,1.14,310.6,M,47.0,M,,*58
$GPRMC,091901.00,A,4928.50136,N,01103.84455,E,30.012,344.33,270311,,,A*56
$GPVTG,344.33,T,,M,30.012,N,55.582,K,A*31
$GPGGA,091901.00,4928.50136,N,01103.84455,E,1,08,1.27,310.6,M,47.0,M,,*5A
$GPRMC,091902.00,A,4928.50956,N,01103.84070,E,30.971,343.39,270311,,,A*59
$GPVTG,343.39,T,,M,30.971,N,57.358,K,A*33
$GPGGA,091902.00,4928.50956,N,01103.84070,E,1,08,1.27,310.6,M,47.0,M,,*54
$GPRMC,091903.00,A,4928.51785,N,01103.83647,E,31.979,342.16,270311,,,A*59
$GPVTG,342.16,T,,M,31.979,N,59.225,K,A*33
$GPGGA,091903.00,4928.51785,N,01103.83647,E,1,08,1.27,310.6,M,47.0,M,,*51
$GPRMC,091904.00,A,4928.52639,N,01103.83185,E,32.733,340.65,270311,,,A*57
$GPVTG,340.65,T,,M,32.733,N,60.622,K,A*3F
$GPGGA,091904.00,4928.52639,N,01103.83185,E,1,08,1.27,310.4,M,47.0,M,,*58
$GPRMC,091905.00,A,4928.53491,N,01103.82655,E,32.973,338.82,270311,,,A*50
$GPVTG,338.82,T,,M,32.973,N,61.066,K,A*34
$GPGGA,091905.00,4928.53491,N,01103.82655,E,1,08,1.27,310.5,M,47.0,M,,*52
$GPRMC,091906.00,A,4928.54339,N,01103.82106,E,33.279,337.30,270311,,,A*56
$GPVTG,337.30,T,,M,33.279,N,61.632,K,A*35
$GPGGA,091906.00,4928.54339,N,01103.82106,E,1,08,1.27,310.4,M,47.0,M,,*53
$GPRMC,091907.00,A,4928.55167,N,01103.81507,E,32.847,335.47,270311,,,A*5D
$GPVTG,335.47,T,,M,32.847,N,60.833,K,A*3F
$GPGGA,091907.00,4928.55167,N,01103.81507,E,1,08,1.27,310.5,M,47.0,M,,*5D
$GPRMC,091908.00,A,4928.55985,N,01103.80891,E,32.798,333.41,270311,,,A*58
$GPVTG,333.41,T,,M,32.798,N,60.742,K,A*3B
$GPGGA,091908.00,4928.55985,N,01103.80891,E,1,08,1.27,310.5,M,47.0,M,,*55
$GPRMC,091909.00,A,4928.56798,N,01103.80225,E,32.862,332.77,270311,,,A*53
$GPVTG,332.77,T,,M,32.862,N,60.861,K,A*3B
$GPGGA,091909.00,4928.56798,N,01103.80225,E,1,08,1.27,310.6,M,47.0,M,,*53
$GPRMC,091910.00,A,4928.57622,N,01103.79538,E,32.936,331.77,270311,,,A*54
$GPVTG,331.77,T,,M,32.936,N,60.997,K,A*30
$GPGGA,091910.00,4928.57622,N,01103.79538,E,1,08,1.27,310.4,M,47.0,M,,*55
$GPRMC,091911.00,A,4928.58435,N,01103.78863,E,32.931,331.58,270311,,,A*56
$GPVTG,331.58,T,,M,32.931,N,60.988,K,A*34
$GPGGA,091911.00,4928.58435,N,01103.78863,E,1,08,1.27,310.6,M,47.0,M,,*5F
$GPRMC,091912.00,A,4928.59247,N,01103.78194,E,33.290,331.75,270311,,,A*58
$GPVTG,331.75,T,,M,33.290,N,61.654,K,A*35
$GPGGA,091912.00,4928.59247,N,01103.78194,E,1,08,1.14,311.1,M,47.0,M,,*59
$GPRMC,091913.00,A,4928.60070,N,01103.77501,E,34.169,331.74,270311,,,A*51
$GPVTG,331.74,T,,M,34.169,N,63.282,K,A*3B
$GPGGA,091913.00,4928.60070,N,01103.77501,E,1,08,1.14,311.3,M,47.0,M,,*51
$GPRMC,091914.00,A,4928.60915,N,01103.76782,E,34.960,331.61,270311,,,A*51
$GPVTG,331.61,T,,M,34.960,N,64.747,K,A*35
$GPGGA,091914.00,4928.60915,N,01103.76782,E,1,08,1.14,311.4,M,47.0,M,,*53
$GPRMC,091915.00,A,4928.61778,N,01103.76054,E,35.071,331.72,270311,,,A*52
$GPVTG,331.72,T,,M,35.071,N,64.951,K,A*36
$GPGGA,091915.00,4928.61778,N,01103.76054,E,1,08,1.14,311.3,M,47.0,M,,*5D
$GPRMC,091916.00,A,4928.62632,N,01103.75346,E,34.673,331.53,270311,,,A*58
$GPVTG,331.53,T,,M,34.673,N,64.214,K,A*3A
$GPGGA,091916.00,4928.62632,N,01103.75346,E,1,08,1.14,311.1,M,47.0,M,,*53
$GPRMC,091917.00,A,4928.63482,N,01103.74635,E,34.737,331.74,270311,,,A*55
$GPVTG,331.74,T,,M,34.737,N,64.333,K,A*3A
$GPGGA,091917.00,4928.63482,N,01103.74635,E,1,08,1.14,311.1,M,47.0,M,,*5A
$GPRMC,091918.00,A,4928.64339,N,01103.73934,E,34.833,331.87,270311,,,A*54
$GPVTG,331.87,T,,M,34.833,N,64.510,K,A*3A
$GPGGA,091918.00,4928.64339,N,01103.73934,E,1,08,1.14,310.9,M,47.0,M,,*55
$GPRMC,091919.00,A,4928.65194,N,01103.73249,E,34.484,332.62,270311,,,A*58
$GPVTG,332.62,T,,M,34.484,N,63.865,K,A*3A
$GPGGA,091919.00,4928.65194,N,01103.73249,E,1,08,1.14,310.7,M,47.0,M,,*5F
$GPRMC,091920.00,A,4928.66042,N,01103.72607,E,33.807,334.06,270311,,,A*50
$GPVTG,334.06,T,,M,33.807,N,62.611,K,A*32
$GPGGA,091920.00,4928.66042,N,01103.72607,E,1,08,1.14,311.0,M,47.0,M,,*55
$GPRMC,091921.00,A,4928.66902,N,01103.72018,E,33.957,336.66,270311,,,A*54
$GPVTG,336.66,T,,M,33.957,N,62.888,K,A*3C
$GPGGA,091921.00,4928.66902,N,01103.72018,E,1,08,1.14,311.9,M,47.0,M,,*58
$GPRMC,091922.00,A,4928.67780,N,01103.71484,E,33.966,339.04,270311,,,A*59
$GPVTG,339.04,T,,M,33.966,N,62.906,K,A*32
$GPGGA,091922.00,4928.67780,N,01103.71484,E,1,08,1.14,311.9,M,47.0,M,,*5C
$GPRMC,091923.00,A,4928.68648,N,01103.70994,E,33.149,339.90,270311,,,A*57
$GPVTG,339.90,T,,M,33.149,N,61.392,K,A*3E
$GPGGA,091923.00,4928.68648,N,01103.70994,E,1,08,1.14,311.8,M,47.0,M,,*5B
$GPRMC,091924.00,A,4928.69515,N,01103.70544,E,32.766,341.22,270311,,,A*57
$GPVTG,341.22,T,,M,32.766,N,60.683,K,A*36
$GPGGA,091924.00,4928.69515,N,01103.70544,E,1,08,1.14,311.9,M,47.0,M,,*56
$GPRMC,091925.00,A,4928.70387,N,01103.70100,E,32.586,341.51,270311,,,A*5F
$GPVTG,341.51,T,,M,32.586,N,60.350,K,A*35
$GPGGA,091925.00,4928.70387,N,01103.70100,E,1,08,1.14,311.1,M,47.0,M,,*5E
$GPRMC,091926.00,A,4928.71253,N,01103.69689,E,32.979,342.26,270311,,,A*54
$GPVTG,342.26,T,,M,32.979,N,61.078,K,A*32
$GPGGA,091926.00,4928.71253,N,01103.69689,E,1,08,1.14,311.4,M,47.0,M,,*5F
$GPRMC,091927.00,A,4928.72132,N,01103.69242,E,33.524,341.59,270311,,,A*5F
$GPVTG,341.59,T,,M,33.524,N,62.086,K,A*3E
$GPGGA,091927.00,4928.72132,N,01103.69242,E,1,08,1.14,311.5,M,47.0,M,,*5B
$GPRMC,091928.00,A,4928.73059,N,01103.68809,E,34.325,342.44,270311,,,A*56
$GPVTG,342.44,T,,M,34.325,N,63.570,K,A*3C
$GPGGA,091928.00,4928.73059,N,01103.68809,E,1,08,1.14,311.3,M,47.0,M,,*5B
$GPRMC,091929.00,A,4928.73993,N,01103.68436,E,34.678,344.33,270311,,,A*53
$GPVTG,344.33,T,,M,34.678,N,64.224,K,A*36
$GPGGA,091929.00,4928.73993,N,01103.68436,E,1,08,1.14,313.0,M,47.0,M,,*54
$GPRMC,091930.00,A,4928.74949,N,01103.68051,E,35.706,344.45,270311,,,A*56
$GPVTG,344.45,T,,M,35.706,N,66.128,K,A*33
$GPGGA,091930.00,4928.74949,N,01103.68051,E,1,08,1.14,314.2,M,47.0,M,,*5C
$GPRMC,091931.00,A,4928.75946,N,01103.67649,E,36.208,343.88,270311,,,A*57
$GPVTG,343.88,T,,M,36.208,N,67.057,K,A*35
$GPGGA,091931.00,4928.75946,N,01103.67649,E,1,08,1.14,315.0,M,47.0,M,,*50
$GPRMC,091932.00,A,4928.76922,N,01103.67216,E,36.230,343.96,270311,,,A*5F
$GPVTG,343.96,T,,M,36.230,N,67.097,K,A*3D
$GPGGA,091932.00,4928.76922,N,01103.67216,E,1,08,1.14,315.0,M,47.0,M,,*5C
$GPRMC,091933.00,A,4928.77909,N,01103.66785,E,36.288,343.83,270311,,,A*5F
$GPVTG,343.83,T,,M,36.288,N,67.205,K,A*33
$GPGGA,091933.00,4928.77909,N,01103.66785,E,1,08,1.14,314.8,M,47.0,M,,*52
$GPRMC,091934.00,A,4928.78909,N,01103.66371,E,36.773,344.16,270311,,,A*52
$GPVTG,344.16,T,,M,36.773,N,68.104,K,A*34
$GPGGA,091934.00,4928.78909,N,01103.66371,E,1,08,1.14,314.4,M,47.0,M,,*59
$GPRMC,091935.00,A,4928.79909,N,01103.65953,E,36.271,344.79,270311,,,A*55
$GPVTG,344.79,T,,M,36.271,N,67.173,K,A*35
$GPGGA,091935.00,4928.79909,N,01103.65953,E,1,08,1.13,313.9,M,47.0,M,,*5D
$GPRMC,091936.00,A,4928.80915,N,01103.65552,E,36.402,344.32,270311,,,A*5D
$GPVTG,344.32,T,,M,36.402,N,67.416,K,A*3E
$GPGGA,091936.00,4928.80915,N,01103.65552,E,1,08,1.13,313.2,M,47.0,M,,*53
$GPRMC,091937.00,A,4928.81899,N,01103.65134,E,36.471,344.00,270311,,,A*59
$GPVTG,344.00,T,,M,36.471,N,67.544,K,A*3D
$GPGGA,091937.00,4928.81899,N,01103.65134,E,1,08,1.13,313.0,M,47.0,M,,*50
$GPRMC,091938.00,A,4928.82858,N,01103.64680,E,36.256,343.79,270311,,,A*5B
$GPVTG,343.79,T,,M,36.256,N,67.146,K,A*31
$GPGGA,091938.00,4928.82858,N,01103.64680,E,1,08,1.13,313.1,M,47.0,M,,*59
$GPRMC,091939.00,A,4928.83813,N,01103.64264,E,35.575,343.83,270311,,,A*5A
$GPVTG,343.83,T,,M,35.575,N,65.885,K,A*35
$GPGGA,091939.00,4928.83813,N,01103.64264,E,1,08,1.13,312.9,M,47.0,M,,*51
$GPRMC,091940.00,A,4928.84767,N,01103.63858,E,35.215,344.06,270311,,,A*56
$GPVTG,344.06,T,,M,35.215,N,65.218,K,A*30
$GPGGA,091940.00,4928.84767,N,01103.63858,E,1,08,1.13,312.5,M,47.0,M,,*5A
$GPRMC,091941.00,A,4928.85722,N,01103.63451,E,35.182,343.97,270311,,,A*50
$GPVTG,343.97,T,,M,35.182,N,65.157,K,A*3A
$GPGGA,091941.00,4928.85722,N,01103.63451,E,1,07,1.22,312.2,M,47.0,M,,*54
$GPRMC,091942.00,A,4928.86670,N,01103.63042,E,35.425,343.54,270311,,,A*57
$GPVTG,343.54,T,,M,35.425,N,65.607,K,A*3F
$GPGGA,091942.00,4928.86670,N,01103.63042,E,1,08,1.13,311.6,M,47.0,M,,*5E
$GPRMC,091943.00,A,4928.87613,N,01103.62612,E,35.538,343.27,270311,,,A*59
$GPVTG,343.27,T,,M,35.538,N,65.817,K,A*39
$GPGGA,091943.00,4928.87613,N,01103.62612,E,1,08,1.13,311.2,M,47.0,M,,*5D
$GPRMC,091944.00,A,4928.88572,N,01103.62161,E,36.015,343.29,270311,,,A*51
$GPVTG,343.29,T,,M,36.015,N,66.700,K,A*34
$GPGGA,091944.00,4928.88572,N,01103.62161,E,1,08,1.13,310.9,M,47.0,M,,*58
$GPRMC,091945.00,A,4928.89529,N,01103.61716,E,35.910,343.50,270311,,,A*5B
$GPVTG,343.50,T,,M,35.910,N,66.505,K,A*32
$GPGGA,091945.00,4928.89529,N,01103.61716,E,1,08,1.13,310.5,M,47.0,M,,*5F
$GPRMC,091946.00,A,4928.90474,N,01103.61300,E,35.647,343.64,270311,,,A*50
$GPVTG,343.64,T,,M,35.647,N,66.019,K,A*30
$GPGGA,091946.00,4928.90474,N,01103.61300,E,1,08,1.13,311.0,M,47.0,M,,*5A
$GPRMC,091947.00,A,4928.91414,N,01103.60899,E,35.612,343.91,270311,,,A*56
$GPVTG,343.91,T,,M,35.612,N,65.954,K,A*39
$GPGGA,091947.00,4928.91414,N,01103.60899,E,1,08,1.13,311.5,M,47.0,M,,*53
$GPRMC,091948.00,A,4928.92354,N,01103.60475,E,35.217,342.95,270311,,,A*53
$GPVTG,342.95,T,,M,35.217,N,65.222,K,A*37
$GPGGA,091948.00,4928.92354,N,01103.60475,E,1,08,1.13,311.4,M,47.0,M,,*53
$GPRMC,091949.00,A,4928.93285,N,01103.60041,E,34.592,342.82,270311,,,A*50
$GPVTG,342.82,T,,M,34.592,N,64.064,K,A*3B
$GPGGA,091949.00,4928.93285,N,01103.60041,E,1,08,1.13,311.1,M,47.0,M,,*58
$GPRMC,091950.00,A,4928.94195,N,01103.59597,E,33.914,342.73,270311,,,A*52
$GPVTG,342.73,T,,M,33.914,N,62.808,K,A*34
$GPGGA,091950.00,4928.94195,N,01103.59597,E,1,08,1.13,310.8,M,47.0,M,,*59
$GPRMC,091951.00,A,4928.95098,N,01103.59163,E,33.373,342.86,270311,,,A*50
$GPVTG,342.86,T,,M,33.373,N,61.808,K,A*36
$GPGGA,091951.00,4928.95098,N,01103.59163,E,1,08,1.13,310.8,M,47.0,M,,*5A
$GPRMC,091952.00,A,4928.95979,N,01103.58741,E,32.783,342.66,270311,,,A*56
$GPVTG,342.66,T,,M,32.783,N,60.714,K,A*31
$GPGGA,091952.00,4928.95979,N,01103.58741,E,1,08,1.22,310.7,M,47.0,M,,*55
$GPRMC,091953.00,A,4928.96838,N,01103.58315,E,32.076,341.83,270311,,,A*50
$GPVTG,341.83,T,,M,32.076,N,59.405,K,A*3D
$GPGGA,091953.00,4928.96838,N,01103.58315,E,1,08,1.22,310.5,M,47.0,M,,*54
$GPRMC,091954.00,A,4928.97674,N,01103.57888,E,31.444,341.64,270311,,,A*5F
$GPVTG,341.64,T,,M,31.444,N,58.233,K,A*30
$GPGGA,091954.00,4928.97674,N,01103.57888,E,1,08,1.13,310.5,M,47.0,M,,*56
$GPRMC,091955.00,A,4928.98493,N,01103.57471,E,30.882,341.19,270311,,,A*5D
$GPVTG,341.19,T,,M,30.882,N,57.194,K,A*3C
$GPGGA,091955.00,4928.98493,N,01103.57471,E,1,08,1.13,310.7,M,47.0,M,,*5B
$GPRMC,091956.00,A,4928.99294,N,01103.57051,E,30.129,340.74,270311,,,A*5A
$GPVTG,340.74,T,,M,30.129,N,55.799,K,A*37
$GPGGA,091956.00,4928.99294,N,01103.57051,E,1,08,1.13,310.9,M,47.0,M,,*50
$GPRMC,091957.00,A,4929.00074,N,01103.56633,E,28.991,340.49,270311,,,A*59
$GPVTG,340.49,T,,M,28.991,N,53.692,K,A*37
$GPGGA,091957.00,4929.00074,N,01103.56633,E,1,08,1.13,310.9,M,47.0,M,,*5F
$GPRMC,091958.00,A,4929.00802,N,01103.56226,E,26.661,339.97,270311,,,A*5C
$GPVTG,339.97,T,,M,26.661,N,49.376,K,A*30
$GPGGA,091958.00,4929.00802,N,01103.56226,E,1,08,1.13,311.0,M,47.0,M,,*51
$GPRMC,091959.00,A,4929.01445,N,01103.55890,E,22.567,341.31,270311,,,A*55
$GPVTG,341.31,T,,M,22.567,N,41.794,K,A*32
$GPGGA,091959.00,4929.01445,N,01103.55890,E,1,08,1.13,311.4,M,47.0,M,,*5E
$GPRMC,092000.00,A,4929.01967,N,01103.55605,E,17.936,341.10,270311,,,A*51
$GPVTG,341.10,T,,M,17.936,N,33.218,K,A*3B
$GPGGA,092000.00,4929.01967,N,01103.55605,E,1,08,1.13,311.8,M,47.0,M,,*5B
$GPRMC,092001.00,A,4929.02371,N,01103.55389,E,13.390,341.09,270311,,,A*55
$GPVTG,341.09,T,,M,13.390,N,24.799,K,A*3B
$GPGGA,092001.00,4929.02371,N,01103.55389,E,1,08,1.13,312.0,M,47.0,M,,*5E
$GPRMC,092002.00,A,4929.02662,N,01103.55241,E,10.097,341.60,270311,,,A*5C
$GPVTG,341.60,T,,M,10.097,N,18.699,K,A*3D
$GPGGA,092002.00,4929.02662,N,01103.55241,E,1,08,1.13,312.8,M,47.0,M,,*57
$GPRMC,092003.00,A,4929.02890,N,01103.55119,E,8.391,341.31,270311,,,A*68
$GPVTG,341.31,T,,M,8.391,N,15.539,K,A*01
$GPGGA,092003.00,4929.02890,N,01103.55119,E,1,08,1.13,313.5,M,47.0,M,,*57
$GPRMC,092004.00,A,4929.03082,N,01103.55001,E,7.337,341.09,270311,,,A*65
$GPVTG,341.09,T,,M,7.337,N,13.588,K,A*05
$GPGGA,092004.00,4929.03082,N,01103.55001,E,1,08,1.13,313.7,M,47.0,M,,*50
$GPRMC,092005.00,A,4929.03256,N,01103.54891,E,6.879,340.57,270311,,,A*65
$GPVTG,340.57,T,,M,6.879,N,12.740,K,A*08
$GPGGA,092005.00,4929.03256,N,01103.54891,E,1,08,1.13,314.0,M,47.0,M,,*5A
$GPRMC,092006.00,A,4929.03448,N,01103.54770,E,8.619,340.08,270311,,,A*63
$GPVTG,340.08,T,,M,8.619,N,15.962,K,A*0D
$GPGGA,092006.00,4929.03448,N,01103.54770,E,1,08,1.13,314.0,M,47.0,M,,*50
$GPRMC,092007.00,A,4929.03708,N,01103.54611,E,12.183,339.53,270311,,,A*5C
$GPVTG,339.53,T,,M,12.183,N,22.564,K,A*3C
$GPGGA,092007.00,4929.03708,N,01103.54611,E,1,08,1.13,314.1,M,47.0,M,,*51
$GPRMC,092008.00,A,4929.04052,N,01103.54400,E,14.607,339.06,270311,,,A*53
$GPVTG,339.06,T,,M,14.607,N,27.053,K,A*35
$GPGGA,092008.00,4929.04052,N,01103.54400,E,1,08,1.13,313.7,M,47.0,M,,*52
$GPRMC,092009.00,A,4929.04454,N,01103.54161,E,16.775,339.28,270311,,,A*58
$GPVTG,339.28,T,,M,16.775,N,31.067,K,A*3F
$GPGGA,092009.00,4929.04454,N,01103.54161,E,1,08,1.13,313.7,M,47.0,M,,*53
$GPRMC,092010.00,A,4929.04931,N,01103.53880,E,19.938,338.70,270311,,,A*5B
$GPVTG,338.70,T,,M,19.938,N,36.925,K,A*33
$GPGGA,092010.00,4929.04931,N,01103.53880,E,1,08,1.13,314.0,M,47.0,M,,*54
$GPRMC,092011.00,A,4929.05505,N,01103.53530,E,23.851,338.42,270311,,,A*50
$GPVTG,338.42,T,,M,23.851,N,44.172,K,A*3A
$GPGGA,092011.00,4929.05505,N,01103.53530,E,1,08,1.13,313.3,M,47.0,M,,*5D
$GPRMC,092012.00,A,4929.06147,N,01103.53132,E,25.710,338.52,270311,,,A*59
$GPVTG,338.52,T,,M,25.710,N,47.615,K,A*32
$GPGGA,092012.00,4929.06147,N,01103.53132,E,1,08,1.13,312.6,M,47.0,M,,*5D
$GPRMC,092013.00,A,4929.06822,N,01103.52732,E,26.542,339.08,270311,,,A*5D
$GPVTG,339.08,T,,M,26.542,N,49.156,K,A*34
$GPGGA,092013.00,4929.06822,N,01103.52732,E,1,08,1.13,312.5,M,47.0,M,,*52
$GPRMC,092014.00,A,4929.07534,N,01103.52312,E,28.359,338.90,270311,,,A*55
$GPVTG,338.90,T,,M,28.359,N,52.521,K,A*38
$GPGGA,092014.00,4929.07534,N,01103.52312,E,1,08,1.13,312.3,M,47.0,M,,*5E
$GPRMC,092015.00,A,4929.08297,N,01103.51848,E,30.179,338.30,270311,,,A*51
$GPVTG,338.30,T,,M,30.179,N,55.892,K,A*39
$GPGGA,092015.00,4929.08297,N,01103.51848,E,1,08,1.13,312.0,M,47.0,M,,*5A
$GPRMC,092016.00,A,4929.09104,N,01103.51345,E,31.944,337.82,270311,,,A*5D
$GPVTG,337.82,T,,M,31.944,N,59.161,K,A*31
$GPGGA,092016.00,4929.09104,N,01103.51345,E,1,08,1.13,311.5,M,47.0,M,,*51
$GPRMC,092017.00,A,4929.09962,N,01103.50801,E,34.034,337.48,270311,,,A*53
$GPVTG,337.48,T,,M,34.034,N,63.030,K,A*30
$GPGGA,092017.00,4929.09962,N,01103.50801,E,1,08,1.13,311.0,M,47.0,M,,*57
$GPRMC,092018.00,A,4929.10863,N,01103.50224,E,36.229,337.35,270311,,,A*5F
$GPVTG,337.35,T,,M,36.229,N,67.097,K,A*3F
$GPGGA,092018.00,4929.10863,N,01103.50224,E,1,08,1.13,310.8,M,47.0,M,,*54
$GPRMC,092019.00,A,4929.11821,N,01103.49592,E,37.588,336.52,270311,,,A*56
$GPVTG,336.52,T,,M,37.588,N,69.613,K,A*36
$GPGGA,092019.00,4929.11821,N,01103.49592,E,1,08,1.13,310.4,M,47.0,M,,*5C
$GPRMC,092020.00,A,4929.12781,N,01103.48941,E,37.253,336.44,270311,,,A*5F
$GPVTG,336.44,T,,M,37.253,N,68.992,K,A*37
$GPGGA,092020.00,4929.12781,N,01103.48941,E,1,08,1.13,310.1,M,47.0,M,,*56
$GPRMC,092021.00,A,4929.13739,N,01103.48293,E,37.745,336.27,270311,,,A*5F
$GPVTG,336.27,T,,M,37.745,N,69.903,K,A*39
$GPGGA,092021.00,4929.13739,N,01103.48293,E,1,08,1.13,309.8,M,47.0,M,,*50
$GPRMC,092022.00,A,4929.14715,N,01103.47635,E,38.727,335.99,270311,,,A*5F
$GPVTG,335.99,T,,M,38.727,N,71.723,K,A*31
$GPGGA,092022.00,4929.14715,N,01103.47635,E,1,08,1.13,309.7,M,47.0,M,,*52
$GPRMC,092023.00,A,4929.15716,N,01103.46959,E,39.810,335.93,270311,,,A*58
$GPVTG,335.93,T,,M,39.810,N,73.729,K,A*39
$GPGGA,092023.00,4929.15716,N,01103.46959,E,1,08,1.13,309.5,M,47.0,M,,*57
$GPRMC,092024.00,A,4929.16718,N,01103.46170,E,40.381,332.88,270311,,,A*51
$GPVTG,332.88,T,,M,40.381,N,74.785,K,A*38
$GPGGA,092024.00,4929.16718,N,01103.46170,E,1,08,1.13,309.0,M,47.0,M,,*5B
$GPRMC,092025.00,A,4929.17736,N,01103.45392,E,40.739,333.26,270311,,,A*52
$GPVTG,333.26,T,,M,40.739,N,75.449,K,A*38
$GPGGA,092025.00,4929.17736,N,01103.45392,E,1,08,1.13,308.9,M,47.0,M,,*52
$GPRMC,092026.00,A,4929.18770,N,01103.44636,E,41.341,334.18,270311,,,A*56
$GPVTG,334.18,T,,M,41.341,N,76.563,K,A*32
$GPGGA,092026.00,4929.18770,N,01103.44636,E,1,08,1.13,308.8,M,47.0,M,,*57
$GPRMC,092027.00,A,4929.19813,N,01103.43853,E,41.991,333.82,270311,,,A*55
$GPVTG,333.82,T,,M,41.991,N,77.767,K,A*36
$GPGGA,092027.00,4929.19813,N,01103.43853,E,1,08,1.13,308.5,M,47.0,M,,*5A
$GPRMC,092028.00,A,4929.20881,N,01103.43060,E,43.051,333.78,270311,,,A*51
$GPVTG,333.78,T,,M,43.051,N,79.731,K,A*39
$GPGGA,092028.00,4929.20881,N,01103.43060,E,1,08,1.13,308.3,M,47.0,M,,*5A
$GPRMC,092029.00,A,4929.21954,N,01103.42238,E,43.084,333.31,270311,,,A*53
$GPVTG,333.31,T,,M,43.084,N,79.791,K,A*36
$GPGGA,092029.00,4929.21954,N,01103.42238,E,1,08,1.13,308.0,M,47.0,M,,*5E
$GPRMC,092030.00,A,4929.23021,N,01103.41395,E,42.882,332.88,270311,,,A*5B
$GPVTG,332.88,T,,M,42.882,N,79.417,K,A*37
$GPGGA,092030.00,4929.23021,N,01103.41395,E,1,08,1.13,307.6,M,47.0,M,,*53
$GPRMC,092031.00,A,4929.24094,N,01103.40548,E,43.451,332.90,270311,,,A*5E
$GPVTG,332.90,T,,M,43.451,N,80.470,K,A*3A
$GPGGA,092031.00,4929.24094,N,01103.40548,E,1,08,1.13,307.5,M,47.0,M,,*5F
$GPRMC,092032.00,A,4929.25181,N,01103.39690,E,44.100,332.77,270311,,,A*5E
$GPVTG,332.77,T,,M,44.100,N,81.673,K,A*35
$GPGGA,092032.00,4929.25181,N,01103.39690,E,1,08,1.13,307.3,M,47.0,M,,*56
$GPRMC,092033.00,A,4929.26290,N,01103.38809,E,44.974,332.46,270311,,,A*59
$GPVTG,332.46,T,,M,44.974,N,83.291,K,A*36
$GPGGA,092033.00,4929.26290,N,01103.38809,E,1,08,1.13,307.0,M,47.0,M,,*5B
$GPRMC,092034.00,A,4929.27405,N,01103.37900,E,45.725,332.21,270311,,,A*58
$GPVTG,332.21,T,,M,45.725,N,84.683,K,A*3C
$GPGGA,092034.00,4929.27405,N,01103.37900,E,1,09,0.97,306.6,M,47.0,M,,*5B
$GPRMC,092035.00,A,4929.28530,N,01103.36981,E,45.678,332.31,270311,,,A*51
$GPVTG,332.31,T,,M,45.678,N,84.596,K,A*33
$GPGGA,092035.00,4929.28530,N,01103.36981,E,1,09,0.97,306.3,M,47.0,M,,*5F
$GPRMC,092036.00,A,4929.29651,N,01103.36056,E,45.592,332.17,270311,,,A*57
$GPVTG,332.17,T,,M,45.592,N,84.436,K,A*3B
$GPGGA,092036.00,4929.29651,N,01103.36056,E,1,09,0.97,306.0,M,47.0,M,,*59
$GPRMC,092037.00,A,4929.30769,N,01103.35135,E,45.462,332.09,270311,,,A*52
$GPVTG,332.09,T,,M,45.462,N,84.196,K,A*35
$GPGGA,092037.00,4929.30769,N,01103.35135,E,1,09,0.97,305.9,M,47.0,M,,*57
$GPRMC,092038.00,A,4929.31886,N,01103.34221,E,45.422,332.18,270311,,,A*51
$GPVTG,332.18,T,,M,45.422,N,84.121,K,A*3D
$GPGGA,092038.00,4929.31886,N,01103.34221,E,1,09,0.97,305.6,M,47.0,M,,*5F
$GPRMC,092039.00,A,4929.33007,N,01103.33314,E,45.522,332.19,270311,,,A*53
$GPVTG,332.19,T,,M,45.522,N,84.307,K,A*3B
$GPGGA,092039.00,4929.33007,N,01103.33314,E,1,09,0.97,305.5,M,47.0,M,,*5E
$GPRMC,092040.00,A,4929.34140,N,01103.32397,E,46.150,332.37,270311,,,A*5C
$GPVTG,332.37,T,,M,46.150,N,85.469,K,A*3B
$GPGGA,092040.00,4929.34140,N,01103.32397,E,1,09,0.97,305.4,M,47.0,M,,*5E
$GPRMC,092041.00,A,4929.35288,N,01103.31468,E,46.616,332.33,270311,,,A*5E
$GPVTG,332.33,T,,M,46.616,N,86.333,K,A*31
$GPGGA,092041.00,4929.35288,N,01103.31468,E,1,09,0.97,305.3,M,47.0,M,,*5A
$GPRMC,092042.00,A,4929.36441,N,01103.30532,E,46.795,332.35,270311,,,A*5E
$GPVTG,332.35,T,,M,46.795,N,86.665,K,A*3B
$GPGGA,092042.00,4929.36441,N,01103.30532,E,1,09,0.97,305.2,M,47.0,M,,*57
$GPRMC,092043.00,A,4929.37601,N,01103.29598,E,47.160,332.30,270311,,,A*58
$GPVTG,332.30,T,,M,47.160,N,87.341,K,A*31
$GPGGA,092043.00,4929.37601,N,01103.29598,E,1,09,0.97,305.1,M,47.0,M,,*5A
$GPRMC,092044.00,A,4929.38773,N,01103.28674,E,47.065,332.91,270311,,,A*5B
$GPVTG,332.91,T,,M,47.065,N,87.165,K,A*3A
$GPGGA,092044.00,4929.38773,N,01103.28674,E,1,09,0.97,305.2,M,47.0,M,,*55
$GPRMC,092045.00,A,4929.39943,N,01103.27749,E,47.210,332.75,270311,,,A*5C
$GPVTG,332.75,T,,M,47.210,N,87.433,K,A*36
$GPGGA,092045.00,4929.39943,N,01103.27749,E,1,09,0.97,305.2,M,47.0,M,,*58
$GPRMC,092046.00,A,4929.41119,N,01103.26804,E,47.614,332.48,270311,,,A*5E
$GPVTG,332.48,T,,M,47.614,N,88.181,K,A*3B
$GPGGA,092046.00,4929.41119,N,01103.26804,E,1,09,0.97,305.2,M,47.0,M,,*54
$GPRMC,092047.00,A,4929.42301,N,01103.25870,E,47.874,332.79,270311,,,A*5D
$GPVTG,332.79,T,,M,47.874,N,88.662,K,A*3B
$GPGGA,092047.00,4929.42301,N,01103.25870,E,1,09,0.97,305.0,M,47.0,M,,*5F
$GPRMC,092048.00,A,4929.43479,N,01103.24959,E,47.202,333.47,270311,,,A*57
$GPVTG,333.47,T,,M,47.202,N,87.418,K,A*3C
$GPGGA,092048.00,4929.43479,N,01103.24959,E,1,09,0.97,304.8,M,47.0,M,,*5B
$GPRMC,092049.00,A,4929.44662,N,01103.24059,E,46.318,334.05,270311,,,A*5A
$GPVTG,334.05,T,,M,46.318,N,85.780,K,A*36
$GPGGA,092049.00,4929.44662,N,01103.24059,E,1,09,0.97,304.7,M,47.0,M,,*53
$GPRMC,092050.00,A,4929.45819,N,01103.23205,E,45.513,334.61,270311,,,A*51
$GPVTG,334.61,T,,M,45.513,N,84.291,K,A*3E
$GPGGA,092050.00,4929.45819,N,01103.23205,E,1,09,0.97,304.4,M,47.0,M,,*57
$GPRMC,092051.00,A,4929.46967,N,01103.22377,E,44.605,335.23,270311,,,A*5C
$GPVTG,335.23,T,,M,44.605,N,82.608,K,A*3E
$GPGGA,092051.00,4929.46967,N,01103.22377,E,1,09,0.97,304.4,M,47.0,M,,*58
$GPRMC,092052.00,A,4929.48101,N,01103.21599,E,43.710,336.04,270311,,,A*58
$GPVTG,336.04,T,,M,43.710,N,80.951,K,A*3B
